     2.11           OBSERVATION DATA    Mixed(MIXED)        RINEX VERSION / TYPE
cnvtToRINEX 3.08.0  convertToRINEX OPR  10-Mar-23 03:50 UTC PGM / RUN BY / DATE 
----------------------------------------------------------- COMMENT             
cc03                                                        MARKER NAME         
cc03                                                        MARKER NUMBER       
GNSS Observer       Trimble                                 OBSERVER / AGENCY   
5806R00109          TRIMBLE R8S         5.22                REC # / TYPE / VERS 
                    TRMR8S          NONE                    ANT # / TYPE        
 -2956916.3805  5075869.0435  2476319.2232                  APPROX POSITION XYZ 
        1.7200        0.0000        0.0000                  ANTENNA: DELTA H/E/N
     1     1     0                                          WAVELENGTH FACT L1/2
     5    C1    C2    L1    L2    P2                        # / TYPES OF OBSERV 
  2023     3    10     2    53   24.0000000     GPS         TIME OF FIRST OBS   
  2023     3    10     3    29    7.0000000     GPS         TIME OF LAST OBS    
     0                                                      RCV CLOCK OFFS APPL 
    18                                                      LEAP SECONDS        
     9                                                      # OF SATELLITES     
   G04  2144  2144  2144  4288  2144                        PRN / # OF OBS      
   G08  2144  2144  2144  4288  2144                        PRN / # OF OBS      
   G09  1776  1688  1721  3369  1681                        PRN / # OF OBS      
   G16  2144     0  2144  2144  2144                        PRN / # OF OBS      
   G21   109     0   109   109   109                        PRN / # OF OBS      
   G26  1867  1792  1811  3240  1448                        PRN / # OF OBS      
   G27  2144  2144  2144  4288  2144                        PRN / # OF OBS      
   G28   695   592   652  1081   489                        PRN / # OF OBS      
   G31  1494  1452  1479  2892  1440                        PRN / # OF OBS      
CARRIER PHASE MEASUREMENTS: PHASE SHIFTS REMOVED            COMMENT             
                                                            END OF HEADER       
 23  3 10  2 53 24.0000000  0  7G04G08G16G26G27G28G31               
  21276651.484 5  21276660.094 9 111809554.996 5  87124362.458 9  21276659.25447
  21088261.938 6  21088275.699 9 110819562.063 6  86352962.560 9  21088274.37549
  21096796.719 6                 110864412.899 6  86387881.44048  21096802.16448
  22455398.359 6  22455412.820 9 118003907.887 6  91951114.238 9  22455412.95347
  19828413.328 7  19828423.395 9 104199016.506 7  81194076.561 9  19828422.74649
  23599601.039 1  23599623.168 8 124016742.127 1  96636505.062 8  23599621.59446
  23046799.227 6  23046818.824 8 121111739.625 6  94372860.118 8  23046817.69547
 23  3 10  2 53 25.0000000  0  7G04G08G16G26G27G28G31               
  21276493.609 6  21276502.797 9 111808728.297 6  87123718.276 9  21276501.67247
  21087813.781 6  21087827.242 9 110817207.699 6  86351127.993 9  21087825.87549
  21096999.438 6                 110865477.122 6  86388710.70248  21097005.02348
  22455746.836 5  22455761.746 9 118005741.257 5  91952542.827 9  22455761.71947
  19828357.133 7  19828367.039 9 104198720.726 7  81193846.084 9  19828366.28949
  23600056.742 2  23600078.770 8 124019138.937 2  96638372.701 8  23600076.97746
  23047177.758 6  23047198.051 8 121113731.326 6  94374412.086 8  23047197.00047
 23  3 10  2 53 26.0000000  0  7G04G08G16G26G27G28G31               
  21276336.531 5  21276346.043 9 111807902.391 5  87123074.701 9  21276344.98047
  21087366.273 6  21087379.844 9 110814853.998 6  86349293.941 9  21087378.58249
  21097201.570 6                 110866541.645 6  86389540.20348  21097207.54348
  22456095.711 5  22456110.887 9 118007574.806 5  91953971.556 9  22456110.69947
  19828301.250 7  19828311.027 9 104198425.781 7  81193616.258 9  19828310.91449
  23600513.672 1  23600535.586 8 124021536.196 1  96640240.709 8  23600533.70345
  23047557.844 6  23047577.035 8 121115723.455 6  94375964.388 8  23047576.14147
 23  3 10  2 53 27.0000000  0  7G04G08G16G26G27G28G31               
  21276180.242 5  21276188.637 9 111807077.368 5  87122431.831 9  21276187.99647
  21086918.664 6  21086932.309 9 110812501.028 6  86347460.463 9  21086930.89149
  21097404.680 6                 110867606.583 6  86390370.01748  21097410.09048
  22456445.141 5  22456460.031 9 118009408.583 5  91955400.461 9  22456459.48047
  19828245.508 7  19828255.109 9 104198131.752 7  81193387.145 9  19828254.38749
  23600970.172 2  23600991.598 8 124023933.996 2  96642109.143 8  23600989.80146
  23047936.594 6  23047956.137 8 121117716.106 6  94377517.105 8  23047955.23847
 23  3 10  2 53 28.0000000  0  7G04G08G16G26G27G28G31               
  21276023.555 5  21276031.633 9 111806253.271 5  87121789.671 9  21276030.69947
  21086470.922 6  21086484.184 9 110810148.922 6  86345627.647 9  21086483.07849
  21097606.938 6                 110868671.977 6  86391200.18248  21097612.74648
  22456793.680 5  22456809.289 9 118011242.666 5  91956829.599 9  22456808.53547
  19828189.805 7  19828199.473 9 104197838.744 7  81193158.823 9  19828198.98049
  23601426.961 2  23601447.551 8 124026332.396 2  96643978.033 8  23601445.97346
  23048315.945 6  23048336.059 8 121119709.369 6  94379070.292 8  23048334.69947
 23  3 10  2 53 29.0000000  0  7G04G08G16G26G27G28G31               
  21275865.969 5  21275875.152 9 111805429.957 5  87121148.122 9  21275874.16847
  21086023.398 6  21086036.699 9 110807797.427 6  86343795.317 9  21086035.34849
  21097810.281 6                 110869737.652 6  86392030.57648  21097815.82448
  22457143.727 5  22457158.156 9 118013076.845 5  91958258.823 9  22457157.43047
  19828134.047 7  19828143.930 9 104197546.533 7  81192931.126 9  19828143.38349
  23601883.984 3  23601904.492 8 124028731.243 3  96645847.274 8  23601902.83246
  23048694.773 6  23048714.645 8 121121703.001 6  94380623.770 8  23048713.49647
 23  3 10  2 53 30.0000000  0  7G04G08G16G26G27G28G31               
  21275709.844 5  21275718.832 9 111804607.654 5  87120507.360 9  21275717.83647
  21085575.984 6  21085589.547 9 110805446.824 6  86341963.679 9  21085588.49649
  21098013.195 6                 110870803.844 6  86392861.37448  21098018.71548
  22457491.938 5  22457506.875 9 118014911.415 5  91959688.351 9  22457506.28547
  19828078.961 7  19828088.270 9 104197255.389 7  81192704.257 9  19828087.75849
  23602340.242 3  23602361.047 8 124031130.724 3  96647716.989 8  23602359.59446
  23049074.969 6  23049094.488 8 121123697.313 6  94382177.774 8  23049093.21147
 23  3 10  2 53 31.0000000  0  7G04G08G16G26G27G28G31               
  21275553.188 5  21275562.492 8 111803786.181 5  87119867.242 8  21275561.32447
  21085128.602 6  21085142.012 9 110803096.916 6  86340132.584 9  21085141.33249
  21098216.266 6                 110871870.369 6  86393692.43248  21098221.48848
  22457841.039 5  22457856.246 9 118016746.134 5  91961117.984 9  22457855.52047
  19828023.180 7  19828032.641 9 104196965.107 7  81192478.065 9  19828032.13749
  23602797.094 4  23602818.008 8 124033530.673 4  96649587.064 8  23602816.57046
  23049454.773 6  23049473.531 8 121125692.089 6  94383732.140 8  23049472.37147
 23  3 10  2 53 32.0000000  0  7G04G08G16G26G27G28G31               
  21275397.180 5  21275406.000 8 111802965.614 5  87119227.838 8  21275405.10547
  21084681.461 6  21084694.805 9 110800747.835 6  86338302.123 9  21084694.01649
  21098418.969 6                 110872937.387 6  86394523.87147  21098424.60247
  22458190.672 5  22458205.262 9 118018581.169 5  91962547.877 9  22458204.54347
  19827967.961 7  19827977.887 9 104196675.848 7  81192252.664 9  19827977.36349
  23603254.750 3  23603274.527 8 124035931.252 3  96651457.644 8  23603273.24246
  23049834.469 6  23049853.574 8 121127687.439 6  94385286.940 8  23049852.26647
 23  3 10  2 53 33.0000000  0  7G04G08G16G26G27G28G31               
  21275241.898 5  21275250.148 8 111802145.868 5  87118589.074 8  21275249.32447
  21084235.109 6  21084248.004 9 110798399.424 6  86336472.191 9  21084247.14549
  21098621.844 6                 110874004.703 6  86395355.54048  21098627.50448
  22458539.273 5  22458554.688 9 118020416.349 5  91963977.890 9  22458554.20747
  19827913.484 7  19827923.227 9 104196387.406 7  81192027.901 9  19827922.89849
  23603711.398 3  23603731.387 8 124038332.226 3  96653328.538 8  23603730.12546
  23050214.031 6  23050233.590 8 121129683.219 6  94386842.093 8  23050232.27347
 23  3 10  2 53 34.0000000  0  7G04G08G16G26G27G28G31               
  21275085.305 5  21275093.996 8 111801327.068 5  87117951.041 8  21275093.09847
  21083788.078 6  21083801.215 9 110796051.862 6  86334642.922 9  21083800.40649
  21098824.898 6                 110875072.467 6  86396187.56048  21098830.69948
  22458889.188 5  22458904.035 9 118022251.813 5  91965408.106 9  22458903.14147
  19827858.523 7  19827867.887 9 104196099.985 7  81191803.938 9  19827867.50049
  23604169.430 4  23604188.281 8 124040733.855 4  96655199.940 8  23604187.23446
  23050593.750 6  23050613.434 8 121131679.622 6  94388397.735 8  23050612.02347
 23  3 10  2 53 35.0000000  0  7G04G08G16G26G27G28G31               
  21274930.102 5  21274939.055 8 111800508.990 5  87117313.581 8  21274937.39547
  21083341.352 6  21083355.172 9 110793704.912 6  86332814.131 9  21083354.11349
  21099028.594 6                 110876140.526 6  86397019.81648  21099033.71548
  22459238.844 5  22459253.824 9 118024087.400 5  91966838.415 9  22459252.89547
  19827804.031 7  19827813.664 9 104195813.347 7  81191580.585 9  19827813.09449
  23604625.523 4  23604645.207 8 124043135.898 4  96657071.641 8  23604644.51646
  23050973.734 6  23050993.555 8 121133676.385 6  94389953.636 8  23050991.90247
 23  3 10  2 53 36.0000000  0  7G04G08G16G26G27G28G31               
  21274774.641 5  21274783.809 8 111799691.763 5  87116676.776 8  21274782.08247
  21082894.922 6  21082908.711 9 110791358.677 6  86330985.897 9  21082907.85549
  21099231.656 6                 110877208.915 6  86397852.32048  21099236.79348
  22459587.938 5  22459602.820 9 118025923.162 5  91968268.866 9  22459602.05947
  19827749.781 7  19827759.348 9 104195527.597 7  81191357.918 9  19827758.57849
  23605082.203 3  23605102.152 8 124045538.411 3  96658943.724 8  23605101.63346
  23051353.766 6  23051372.980 8 121135673.628 6  94391509.923 8  23051371.56647
 23  3 10  2 53 37.0000000  0  7G04G08G16G26G27G28G31               
  21274618.984 5  21274628.059 9 111798875.458 5  87116040.702 9  21274626.56647
  21082448.711 6  21082462.367 9 110789013.245 6  86329158.290 9  21082461.30949
  21099434.719 6                 110878277.721 6  86398685.14548  21099440.13748
  22459937.070 5  22459951.785 9 118027759.173 5  91969699.521 9  22459951.23447
  19827695.484 7  19827705.332 9 104195242.814 7  81191136.003 9  19827704.81349
  23605539.422 3  23605559.754 8 124047941.482 3  96660816.255 8  23605559.38346
  23051733.563 6  23051753.328 8 121137671.459 6  94393066.673 8  23051751.84447
 23  3 10  2 53 38.0000000  0  7G04G08G16G26G27G28G31               
  21274463.969 6  21274472.914 9 111798060.019 6  87115405.293 9  21274471.50447
  21082002.836 6  21082016.039 9 110786668.576 6  86327331.272 9  21082015.23849
  21099638.781 6                 110879346.922 6  86399518.27348  21099644.02048
  22460286.344 5  22460301.262 9 118029595.416 5  91971130.348 9  22460300.77047
  19827641.711 7  19827650.977 9 104194958.947 7  81190914.811 9  19827650.58249
  23605996.031 3  23606017.293 9 124050345.128 3  96662689.221 9  23606016.88346
  23052113.594 6  23052133.438 8 121139669.769 6  94394623.785 8  23052132.00447
 23  3 10  2 53 39.0000000  0  7G04G08G16G26G27G28G31               
  21274309.164 6  21274318.082 9 111797245.511 6  87114770.604 9  21274316.62947
  21081557.195 6  21081570.465 9 110784324.738 6  86325504.908 9  21081569.32849
  21099842.586 6                 110880416.614 6  86400351.79848  21099847.39848
  22460635.984 5  22460650.727 9 118031431.976 5  91972561.420 9  22460650.42247
  19827587.688 7  19827597.512 9 104194676.086 7  81190694.394 9  19827596.81649
  23606452.898 3  23606474.641 9 124052749.332 3  96664562.639 9  23606474.28146
  23052494.398 6  23052514.090 8 121141668.690 6  94396181.372 8  23052512.45747
 23  3 10  2 53 40.0000000  0  7G04G08G16G26G27G28G31               
  21274154.516 6  21274163.262 9 111796431.846 6  87114136.573 9  21274161.70347
  21081110.891 6  21081124.297 9 110781981.596 6  86323679.082 9  21081123.64549
  21100045.969 6                 110881486.634 6  86401185.58448  21100050.95748
  22460985.648 5  22461000.348 9 118033268.745 5  91973992.662 9  22460999.75047
  19827534.008 7  19827543.305 9 104194394.113 7  81190474.677 9  19827543.02049
  23606910.195 3  23606932.125 9 124055153.964 3  96666436.388 9  23606931.64546
  23052875.188 6  23052894.602 8 121143668.058 6  94397739.322 8  23052892.91847
 23  3 10  2 53 41.0000000  0  7G04G08G16G26G27G28G31               
  21273999.539 6  21274008.773 9 111795618.999 6  87113503.189 9  21274007.09847
  21080665.195 6  21080678.656 9 110779639.123 6  86321853.776 9  21080677.58249
  21100249.352 6                 110882557.012 6  86402019.63748  21100254.94148
  22461335.195 5  22461349.809 9 118035105.630 5  91975423.997 9  22461349.16847
  19827480.883 7  19827490.313 9 104194113.011 7  81190255.630 9  19827489.61349
  23607368.375 3  23607389.879 9 124057559.144 3  96668310.564 9  23607389.59446
  23053255.805 6  23053275.305 8 121145667.923 6  94399297.652 8  23053273.01647
 23  3 10  2 53 42.0000000  0  7G04G08G16G26G27G28G31               
  21273845.070 6  21273854.188 9 111794807.038 6  87112870.482 9  21273853.03947
  21080219.742 6  21080232.512 9 110777297.344 6  86320029.016 9  21080231.86349
  21100453.305 6                 110883627.740 6  86402853.97348  21100458.32848
  22461685.102 5  22461699.809 9 118036942.761 5  91976855.523 9  22461698.82047
  19827427.320 7  19827436.555 9 104193832.810 7  81190037.305 9  19827435.97349
  23607825.672 3  23607847.410 9 124059964.863 3  96670185.155 9  23607847.57846
  23053635.766 6  23053656.078 8 121147668.264 6  94400856.348 8  23053653.67647
 23  3 10  2 53 43.0000000  0  7G04G08G16G26G27G28G31               
  21273690.820 6  21273699.512 8 111793995.873 6  87112238.408 8  21273698.42647
  21079774.109 6  21079787.336 9 110774956.330 6  86318204.850 9  21079786.31649
  21100656.977 6                 110884698.863 6  86403688.60748  21100662.59848
  22462034.625 6  22462049.004 9 118038780.137 6  91978287.232 9  22462048.34447
  19827374.383 7  19827383.980 9 104193553.534 7  81189819.683 9  19827383.30549
  23608283.141 2  23608305.371 8 124062371.079 2  96672060.138 8  23608305.54346
  23054016.547 6  23054036.680 8 121149669.183 6  94402415.502 8  23054034.25047
 23  3 10  2 53 44.0000000  0  7G04G08G16G26G27G28G31               
  21273536.203 6  21273545.293 8 111793185.852 6  87111607.216 8  21273543.95347
  21079328.977 6  21079342.273 9 110772616.324 6  86316381.475 9  21079341.25049
  21100860.883 6                 110885770.582 6  86404523.71148  21100866.39548
  22462384.414 6  22462399.215 9 118040617.917 6  91979719.263 9  22462398.61747
  19827321.031 7  19827330.910 9 104193275.374 7  81189602.930 9  19827330.03549
  23608740.805 2  23608762.750 8 124064778.014 2  96673935.678 8  23608763.09446
  23054397.125 6  23054417.836 8 121151670.730 6  94403975.142 8  23054414.90647
 23  3 10  2 53 45.0000000  0  7G04G08G16G26G27G28G31               
  21273382.695 6  21273391.531 8 111792376.609 6  87110976.646 8  21273390.12947
  21078883.242 6  21078896.910 9 110770276.942 6  86314558.583 9  21078895.98449
  21101064.656 6                 110886842.599 6  86405359.04648  21101070.10948
  22462733.602 5  22462748.359 9 118042455.796 5  91981151.362 9  22462747.73047
  19827268.414 7  19827278.129 9 104192998.073 7  81189386.851 9  19827277.52349
  23609199.586 3  23609220.695 8 124067185.384 3  96675811.543 8  23609221.34846
  23054778.375 6  23054798.629 8 121153672.725 6  94405535.123 8  23054795.86347
 23  3 10  2 53 46.0000000  0  7G04G08G16G26G27G28G31               
  21273228.789 6  21273237.438 8 111791568.174 6  87110346.691 8  21273235.94947
  21078438.242 6  21078451.934 9 110767938.292 6  86312736.259 9  21078450.82849
  21101268.703 6                 110887914.967 6  86406194.65648  21101274.41448
  22463083.664 5  22463098.715 9 118044293.901 5  91982583.657 9  22463098.03147
  19827215.891 7  19827225.797 9 104192721.648 7  81189171.446 9  19827225.00449
  23609657.906 3  23609679.199 8 124069593.279 3  96677687.832 8  23609680.03546
  23055160.141 6  23055180.289 8 121155675.211 6  94407095.492 8  23055177.12147
 23  3 10  2 53 47.0000000  0  7G04G08G16G26G27G28G31               
  21273075.125 6  21273084.039 8 111790760.521 6  87109717.368 8  21273082.62147
  21077993.266 6  21078006.680 9 110765600.290 6  86310914.440 9  21078005.68449
  21101473.070 6                 110888987.603 6  86407030.46248  21101478.70348
  22463433.516 5  22463448.676 9 118046132.127 5  91984016.035 9  22463447.63747
  19827163.477 7  19827173.047 9 104192446.022 7  81188956.669 9  19827172.62949
  23610116.492 3  23610138.016 9 124072001.529 3  96679564.394 9  23610138.60246
  23055540.844 6  23055561.574 8 121157678.063 6  94408656.149 8  23055558.16447
 23  3 10  2 53 48.0000000  0  7G04G08G16G26G27G28G31               
  21272921.602 6  21272930.035 8 111789953.693 6  87109088.671 8  21272928.64547
  21077548.938 6  21077562.402 9 110763263.010 6  86309093.188 9  21077561.39549
  21101676.898 6                 110890060.624 6  86407866.58548  21101682.75448
  22463783.234 5  22463798.430 9 118047970.549 5  91985448.555 9  22463797.71547
  19827110.977 7  19827121.145 9 104192171.292 7  81188742.592 9  19827120.13349
  23610574.320 3  23610596.398 9 124074410.312 3  96681441.372 9  23610596.94946
  23055921.953 6  23055942.805 8 121159681.455 6  94410217.214 8  23055939.38747
 23  3 10  2 53 49.0000000  0  7G04G08G16G26G27G28G31               
  21272768.289 6  21272776.828 9 111789147.686 6  87108460.605 9  21272775.39847
  21077104.000 6  21077117.617 9 110760926.379 6  86307272.442 9  21077116.50849
  21101881.484 6                 110891133.967 6  86408702.95548  21101887.16848
  22464132.859 5  22464147.414 9 118049809.142 5  91986881.211 9  22464146.91047
  19827059.219 7  19827068.934 9 104191897.438 7  81188529.199 9  19827068.23049
  23611033.047 2  23611054.863 9 124076819.548 2  96683318.728 9  23611055.55146
  23056303.844 6  23056323.969 8 121161685.279 6  94411778.628 8  23056320.14847
 23  3 10  2 53 50.0000000  0  7G04G08G16G26G27G28G31               
  21272614.789 6  21272623.707 8 111788342.662 6  87107833.316 8  21272621.96147
  21076659.156 6  21076673.172 9 110758590.627 6  86305452.377 9  21076672.14149
  21102085.430 6                 110892207.767 6  86409539.67048  21102091.98448
  22464483.320 5  22464497.813 9 118051648.024 5  91988314.082 9  22464497.07047
  19827006.938 7  19827016.707 9 104191624.591 7  81188316.590 9  19827016.11349
  23611491.133 2  23611513.414 8 124079229.430 2  96685196.566 8  23611513.60946
  23056685.375 6  23056706.207 8 121163689.752 6  94413340.539 8  23056702.16047
 23  3 10  2 53 51.0000000  0  7G04G08G16G26G27G28G31               
  21272461.531 6  21272470.906 8 111787538.479 6  87107206.675 8  21272468.99247
  21076215.344 6  21076228.574 9 110756255.604 6  86303632.875 9  21076227.61349
  21102289.859 6                 110893281.950 6  86410376.68847  21102295.40647
  22464832.742 5  22464848.016 9 118053487.131 5  91989747.142 9  22464847.19947
  19826955.367 7  19826964.836 9 104191352.676 7  81188104.712 9  19826964.09849
  23611950.734 2  23611972.008 8 124081639.806 2  96687074.793 8  23611971.97746
  23057066.273 6  23057087.688 8 121165694.700 6  94414902.818 8  23057083.58247
 23  3 10  2 53 52.0000000  0  7G04G08G16G26G27G28G31               
  21272309.133 5  21272318.082 9 111786735.051 5  87106580.622 9  21272316.28147
  21075770.953 6  21075784.371 9 110753921.216 6  86301813.880 9  21075783.28149
  21102494.648 6                 110894356.419 6  86411213.94547  21102500.17647
  22465183.945 5  22465198.039 9 118055326.352 5  91991180.306 9  22465197.52347
  19826903.602 7  19826913.152 9 104191081.558 7  81187893.452 9  19826912.16849
  23612409.242 3  23612430.797 8 124084050.652 3  96688953.385 8  23612430.47346
  23057448.188 6  23057469.363 8 121167700.083 6  94416465.447 8  23057465.31647
 23  3 10  2 53 53.0000000  0  7G04G08G16G26G27G28G31               
  21272156.633 5  21272164.828 8 111785932.553 5  87105955.292 8  21272163.29747
  21075326.773 6  21075340.469 9 110751587.616 6  86299995.489 9  21075339.09049
  21102699.164 6                 110895431.379 6  86412051.56748  21102705.01248
  22465533.109 5  22465548.082 9 118057165.967 5  91992613.761 9  22465547.44947
  19826852.578 7  19826862.434 9 104190811.451 7  81187682.979 9  19826861.73449
  23612867.734 2  23612889.734 8 124086462.112 2  96690832.453 8  23612889.42246
  23057829.742 5  23057851.281 8 121169706.088 5  94418028.574 8  23057847.36747
 23  3 10  2 53 54.0000000  0  7G04G08G16G26G27G28G31               
  21272003.641 5  21272012.684 8 111785130.896 5  87105330.624 8  21272011.24647
  21074882.750 6  21074896.598 9 110749254.717 6  86298177.649 9  21074895.20749
  21102904.555 6                 110896506.636 6  86412889.42748  21102909.53148
  22465882.891 5  22465898.375 9 118059005.661 5  91994047.274 9  22465897.75047
  19826801.539 7  19826810.707 9 104190542.191 7  81187473.167 9  19826810.07049
  23613327.273 2  23613348.797 8 124088874.021 2  96692711.872 8  23613348.37145
  23058211.680 5  23058232.801 8 121171712.531 5  94419592.037 8  23058229.09847
 23  3 10  2 53 55.0000000  0  7G04G08G16G26G27G28G31               
  21271851.984 6  21271859.699 8 111784330.023 6  87104706.555 8  21271858.21547
  21074439.109 6  21074452.648 9 110746922.505 6  86296360.340 9  21074451.35549
  21103108.758 6                 110897582.289 6  86413727.58648  21103113.88748
  22466234.133 5  22466248.289 9 118060845.614 5  91995480.990 9  22466247.68847
  19826750.188 7  19826759.570 9 104190273.841 7  81187264.057 9  19826758.51249
  23613785.219 1  23613807.887 8 124091286.453 1  96694591.667 8  23613807.29345
  23058593.438 5  23058614.551 8 121173719.443 5  94421155.861 8  23058611.09447
 23  3 10  2 53 56.0000000  0  7G04G08G16G26G27G28G31               
  21271699.281 6  21271707.965 8 111783530.065 6  87104083.198 8  21271706.24247
  21073995.383 6  21074009.148 9 110744591.089 6  86294543.662 9  21074007.39149
  21103313.070 6                 110898658.271 6  86414566.01448  21103318.66448
  22466583.914 5  22466598.621 9 118062685.695 5  91996914.807 9  22466597.71147
  19826699.250 7  19826708.676 9 104190006.360 7  81187055.628 9  19826707.77749
  23614244.891 2  23614267.121 8 124093699.308 2  96696471.790 8  23614266.34046
  23058975.672 6  23058996.008 8 121175726.825 6  94422720.027 8  23058993.19547
 23  3 10  2 53 57.0000000  0  7G04G08G16G26G27G28G31               
  21271546.953 6  21271555.535 8 111782730.980 6  87103460.521 8  21271553.88347
  21073551.734 6  21073565.543 9 110742260.403 6  86292727.544 9  21073563.80949
  21103518.609 6                 110899734.639 6  86415404.73848  21103523.57048
  22466934.039 5  22466948.316 8 118064526.041 5  91998348.828 8  22466947.37147
  19826648.602 7  19826658.063 9 104189739.831 7  81186847.942 9  19826657.49649
  23614704.664 3  23614726.176 8 124096112.680 3  96698352.345 8  23614725.32845
  23059357.656 6  23059378.094 8 121177734.727 6  94424284.627 8  23059375.44947
 23  3 10  2 53 58.0000000  0  7G04G08G16G26G27G28G31               
  21271395.664 6  21271403.965 8 111781932.833 6  87102838.574 8  21271402.27347
  21073108.313 6  21073122.070 9 110739930.552 6  86290912.073 9  21073120.17249
  21103723.039 6                 110900811.477 6  86416243.84348  21103728.71148
  22467284.352 5  22467298.824 9 118066366.664 5  91999783.068 9  22467298.41847
  19826597.836 7  19826607.445 9 104189474.285 7  81186641.019 9  19826606.68049
  23615164.633 3  23615185.824 8 124098526.747 3  96700233.418 8  23615184.52345
  23059739.695 5  23059760.344 8 121179743.200 5  94425849.650 8  23059757.60947
 23  3 10  2 53 59.0000000  0  7G04G08G16G26G27G28G31               
  21271243.867 6  21271252.207 8 111781135.491 6  87102217.282 8  21271250.61747
  21072665.563 6  21072678.883 9 110737601.414 6  86289097.154 9  21072677.24649
  21103928.094 6                 110901888.680 6  86417083.20148  21103933.47348
  22467634.875 5  22467648.723 9 118068207.492 5  92001217.460 9  22467648.23047
  19826547.719 7  19826557.035 9 104189209.626 7  81186434.787 9  19826556.27049
  23615623.742 2  23615645.184 8 124100941.233 2  96702114.811 8  23615643.84046
  23060122.266 6  23060142.598 8 121181752.143 6  94427415.049 8  23060139.99247
 23  3 10  2 54  0.0000000  0  7G04G08G16G26G27G28G31               
  21271092.117 6  21271100.391 8 111780338.997 6  87101596.638 8  21271098.90647
  21072222.484 6  21072235.777 9 110735272.986 6  86287282.794 9  21072234.52749
  21104133.234 6                 110902966.188 6  86417922.82848  21104139.00448
  22467984.984 5  22467998.977 9 118070048.459 5  92002651.983 9  22467998.41447
  19826497.398 7  19826507.016 9 104188945.818 7  81186229.220 9  19826506.24649
  23616083.609 2  23616105.129 8 124103356.229 2  96703996.603 8  23616104.01246
  23060504.352 6  23060524.758 8 121183761.530 6  94428980.771 8  23060522.44147
 23  3 10  2 54  1.0000000  0  7G04G08G16G26G27G28G31               
  21270940.523 6  21270949.316 8 111779543.442 6  87100976.709 8  21270947.71147
  21071779.094 6  21071793.102 9 110732945.371 6  86285469.068 9  21071791.37549
  21104338.578 6                 110904044.157 6  86418762.78948  21104343.96948
  22468334.992 5  22468349.504 9 118071889.715 5  92004086.716 9  22468348.92647
  19826447.313 7  19826456.875 9 104188682.999 7  81186024.426 9  19826456.06349
  23616541.680 2  23616564.797 8 124105771.766 2  96705878.849 8  23616563.44545
  23060886.914 6  23060907.070 8 121185771.537 6  94430547.004 8  23060904.99247
 23  3 10  2 54  2.0000000  0  7G04G08G16G26G27G28G31               
  21270789.422 6  21270797.707 8 111778748.746 6  87100357.459 8  21270796.23047
  21071336.039 6  21071349.813 9 110730618.491 6  86283655.914 9  21071347.97749
  21104543.789 6                 110905122.507 6  86419603.06348  21104549.30148
  22468686.344 5  22468700.098 9 118073731.214 5  92005521.644 9  22468699.26647
  19826397.188 7  19826407.516 9 104188421.089 7  81185820.347 9  19826406.74249
  23617001.625 3  23617024.465 8 124108187.823 3  96707761.482 8  23617022.61745
  23061269.766 6  23061289.785 8 121187782.012 6  94432113.606 8  23061287.76647
 23  3 10  2 54  3.0000000  0  7G04G08G16G26G27G28G31               
  21270638.094 6  21270646.898 8 111777954.830 6  87099738.819 8  21270645.34447
  21070893.703 6  21070907.434 9 110728292.275 6  86281843.282 9  21070905.80149
  21104748.969 6                 110906201.185 6  86420443.59148  21104754.58648
  22469036.195 6  22469050.809 9 118075572.827 6  92006956.662 9  22469049.46147
  19826347.727 7  19826357.445 9 104188160.055 7  81185616.941 9  19826356.77749
  23617461.063 2  23617484.621 8 124110604.384 2  96709644.496 8  23617482.80545
  23061652.516 6  23061672.633 8 121189792.950 6  94433680.558 8  23061670.50447
 23  3 10  2 54  4.0000000  0  7G04G08G16G26G27G28G31               
  21270487.219 6  21270495.750 9 111777161.862 6  87099120.925 9  21270494.10947
  21070451.445 6  21070465.016 9 110725966.864 6  86280031.276 9  21070463.30549
  21104954.438 6                 110907280.287 6  86421284.43948  21104959.98448
  22469387.109 6  22469401.301 9 118077414.770 6  92008391.933 9  22469399.94947
  19826297.961 7  19826307.738 9 104187899.977 7  81185414.285 9  19826307.12949
  23617921.547 2  23617944.344 8 124113021.425 2  96711527.905 8  23617942.36745
  23062035.273 6  23062055.301 8 121191804.453 6  94435247.939 8  23062053.61747
 23  3 10  2 54  5.0000000  0  7G04G08G16G26G27G28G31               
  21270336.953 6  21270345.441 9 111776369.704 6  87098503.648 9  21270343.64147
  21070008.898 6  21070022.332 9 110723642.154 6  86278219.814 9  21070020.83649
  21105159.445 6                 110908359.725 6  86422125.56348  21105165.11748
  22469737.695 5  22469751.809 9 118079256.843 5  92009827.309 9  22469750.54347
  19826249.031 7  19826258.887 9 104187640.779 7  81185212.315 9  19826258.19949
  23618380.234 2  23618404.270 8 124115439.032 2  96713411.775 8  23618402.34446
  23062418.266 6  23062438.184 9 121193816.404 6  94436815.690 9  23062436.64547
 23  3 10  2 54  6.0000000  0  7G04G08G16G26G27G28G31               
  21270186.242 5  21270194.707 9 111775578.593 5  87097887.194 9  21270193.17247
  21069566.531 6  21069580.418 9 110721318.360 6  86276409.068 9  21069578.50049
  21105365.016 6                 110909439.715 6  86422967.11248  21105371.13348
  22470088.055 5  22470102.125 9 118081099.310 5  92011262.997 9  22470100.95347
  19826199.680 7  19826209.586 9 104187382.690 7  81185011.209 9  19826209.01249
  23618840.602 2  23618864.102 8 124117857.288 2  96715296.111 8  23618862.37146
  23062800.805 6  23062821.379 9 121195829.065 6  94438383.984 9  23062819.78147
 23  3 10  2 54  7.0000000  0  7G04G08G16G26G27G28G31               
  21270036.297 6  21270043.984 8 111774788.165 6  87097271.274 8  21270042.84047
  21069124.664 6  21069138.371 9 110718995.147 6  86274598.769 9  21069136.73449
  21105570.266 6                 110910519.920 6  86423808.82548  21105576.56348
  22470438.141 5  22470453.277 9 118082941.837 5  92012698.722 9  22470452.04747
  19826150.750 7  19826160.742 9 104187125.312 7  81184810.641 9  19826160.10549
  23619300.734 2  23619324.410 8 124120275.897 2  96717180.761 8  23619322.62945
  23063183.727 6  23063204.055 9 121197842.045 6  94439952.518 9  23063202.53947
 23  3 10  2 54  8.0000000  0  7G04G08G16G26G27G28G31               
  21269885.625 5  21269893.652 8 111773998.563 5  87096656.009 8  21269892.48847
  21068682.508 6  21068696.082 9 110716672.598 6  86272788.990 9  21068694.38749
  21105775.883 6                 110911600.416 6  86424650.75447  21105782.59047
  22470788.773 5  22470803.402 9 118084784.476 5  92014134.529 9  22470802.38347
  19826102.102 7  19826111.574 9 104186868.810 7  81184610.777 9  19826111.06649
  23619762.281 2  23619784.703 8 124122694.895 2  96719065.726 8  23619783.18046
  23063566.836 6  23063587.590 8 121199855.442 6  94441521.402 8  23063586.48047
 23  3 10  2 54  9.0000000  0  7G04G08G16G26G27G28G31               
  21269735.391 5  21269744.051 8 111773209.789 5  87096041.355 8  21269742.76647
  21068240.922 6  21068254.352 9 110714350.777 6  86270979.778 9  21068252.52749
  21105981.648 6                 110912681.299 6  86425492.99547  21105987.75447
  22471139.188 5  22471154.277 9 118086627.380 5  92015570.553 9  22471153.30147
  19826053.500 7  19826063.371 9 104186613.183 7  81184411.581 9  19826063.01249
  23620223.016 1  23620245.094 8 124125114.483 1  96720951.143 8  23620243.60546
  23063950.383 6  23063970.801 8 121201869.368 6  94443090.688 8  23063969.99647
 23  3 10  2 54 10.0000000  0  7G04G08G16G26G27G28G31               
  21269585.328 5  21269593.531 8 111772421.960 5  87095427.461 8  21269592.53147
  21067799.016 6  21067813.039 9 110712029.771 6  86269171.207 9  21067811.15249
  21106187.633 6                 110913762.637 6  86426335.58748  21106193.58648
  22471490.523 5  22471504.867 9 118088470.503 5  92017006.753 9  22471503.90647
  19826004.953 7  19826014.625 9 104186358.574 7  81184213.173 9  19826014.11749
  23620683.227 2  23620705.699 9 124127534.714 2  96722837.036 9  23620704.48445
  23064333.570 6  23064354.520 8 121203883.866 6  94444660.420 8  23064353.53947
 23  3 10  2 54 11.0000000  0  7G04G08G16G26G27G28G31               
  21269435.844 5  21269443.816 8 111771634.945 5  87094814.188 8  21269442.81647
  21067357.414 6  21067371.488 9 110709709.433 6  86267363.150 9  21067369.70349
  21106393.414 6                 110914844.310 6  86427178.44748  21106399.49648
  22471841.117 5  22471855.387 9 118090313.862 5  92018443.126 9  22471854.50447
  19825956.813 7  19825966.148 9 104186104.792 7  81184015.419 9  19825965.81349
  23621144.313 2  23621165.973 9 124129955.309 2  96724723.216 9  23621164.91046
  23064717.664 6  23064738.078 9 121205898.810 6  94446230.495 9  23064737.23447
 23  3 10  2 54 12.0000000  0  7G04G08G16G26G27G28G31               
  21269285.531 6  21269294.363 8 111770848.586 6  87094201.441 8  21269293.41447
  21066916.000 6  21066929.859 9 110707389.670 6  86265555.541 9  21066927.93849
  21106599.367 6                 110915926.132 6  86428021.41948  21106605.52048
  22472192.125 5  22472207.094 9 118092157.218 5  92019879.500 9  22472205.92247
  19825908.320 7  19825917.941 9 104185851.749 7  81183818.239 9  19825917.24249
  23621604.344 1  23621627.117 9 124132376.246 1  96726609.694 9  23621626.12146
  23065101.148 6  23065121.512 9 121207914.058 6  94447800.816 9  23065121.05547
 23  3 10  2 54 13.0000000  0  7G04G08G16G26G27G28G31               
  21269136.633 6  21269144.949 8 111770063.031 6  87093589.322 8  21269143.64147
  21066474.922 6  21066488.754 9 110705070.600 6  86263748.482 9  21066486.77749
  21106805.172 6                 110917008.312 6  86428864.67348  21106811.27348
  22472542.852 5  22472557.625 9 118094000.721 5  92021315.980 9  22472556.34847
  19825860.500 7  19825870.129 9 104185599.556 7  81183621.724 9  19825869.69149
  23622064.914 1  23622087.777 9 124134797.620 1  96728496.481 9  23622086.69545
  23065483.875 6  23065504.879 9 121209929.776 6  94449371.492 9  23065504.53547
 23  3 10  2 54 14.0000000  0  7G04G08G16G26G27G28G31               
  21268987.445 5  21268995.887 8 111769278.563 5  87092978.036 8  21268994.42247
  21066033.594 6  21066047.523 9 110702752.445 6  86261942.124 9  21066045.73049
  21107011.594 6                 110918091.043 6  86429708.35448  21107017.21548
  22472893.516 5  22472907.984 9 118095844.621 5  92022752.781 9  22472907.20747
  19825813.000 7  19825822.461 9 104185348.494 7  81183426.095 9  19825821.92249
  23622525.125 1  23622548.867 9 124137219.828 1  96730383.921 9  23622547.98046
  23065867.766 6  23065888.168 9 121211946.185 6  94450942.714 9  23065887.96547
 23  3 10  2 54 15.0000000  0  7G04G08G16G26G27G28G31               
  21268837.883 5  21268846.758 8 111768494.892 5  87092367.376 8  21268845.35947
  21065592.586 6  21065606.457 9 110700435.014 6  86260136.340 9  21065604.47749
  21107217.633 6                 110919174.123 6  86430552.31548  21107223.51248
  22473244.656 5  22473258.809 9 118097688.768 5  92024189.781 9  22473257.73447
  19825765.430 7  19825775.035 9 104185098.297 7  81183231.129 9  19825774.60249
  23622986.930 1  23623009.758 9 124139642.454 1  96732271.677 9  23623009.05546
  23066251.836 6  23066272.352 9 121213963.063 6  94452514.303 9  23066271.71547
 23  3 10  2 54 16.0000000  0  7G04G08G16G26G27G28G31               
  21268688.781 5  21268697.895 8 111767711.997 5  87091757.343 8  21268696.45747
  21065151.672 6  21065165.715 9 110698118.313 6  86258331.121 9  21065164.14149
  21107423.680 6                 110920257.511 6  86431396.49548  21107429.32048
  22473595.773 5  22473610.313 9 118099532.979 5  92025626.820 9  22473609.19547
  19825717.766 7  19825727.609 9 104184848.936 7  81183036.818 9  19825727.07449
  23623447.672 2  23623470.594 9 124142065.467 2  96734159.768 9  23623470.03546
  23066635.359 6  23066656.227 9 121215980.372 6  94454086.238 9  23066655.64847
 23  3 10  2 54 17.0000000  0  7G04G08G16G26G27G28G31               
  21268540.625 5  21268549.195 8 111766930.083 5  87091148.074 8  21268547.82847
  21064710.875 6  21064725.168 9 110695802.394 6  86256526.506 9  21064723.07049
  21107629.883 6                 110921341.337 6  86432241.03848  21107635.68448
  22473946.859 5  22473960.723 9 118101377.508 5  92027064.088 9  22473959.92247
  19825670.680 7  19825680.449 9 104184600.549 7  81182843.268 9  19825679.91449
  23623909.172 2  23623931.738 9 124144489.098 2  96736048.336 9  23623931.48446
  23067019.844 5  23067040.480 9 121217998.239 5  94455658.601 9  23067039.80547
 23  3 10  2 54 18.0000000  0  7G04G08G16G26G27G28G31               
  21268391.211 5  21268400.895 9 111766148.955 5  87090539.397 9  21268399.49647
  21064270.148 6  21064283.895 9 110693487.168 6  86254722.450 9  21064282.10249
  21107836.063 6                 110922425.476 6  86433085.81348  21107842.37548
  22474297.906 5  22474311.527 9 118103222.189 5  92028501.505 9  22474310.78547
  19825623.594 7  19825633.094 9 104184353.019 7  81182650.387 9  19825632.44149
  23624370.953 1  23624393.238 9 124146913.221 1  96737937.272 9  23624393.05146
  23067403.547 5  23067424.359 9 121220016.560 5  94457231.310 9  23067423.72347
 23  3 10  2 54 19.0000000  0  7G04G08G16G26G27G28G31               
  21268243.398 5  21268252.055 8 111765368.764 5  87089931.457 8  21268250.88747
  21063829.664 6  21063843.922 9 110691172.762 6  86252919.013 9  21063842.00449
  21108042.430 6                 110923510.091 6  86433930.96048  21108048.39548
  22474649.414 6  22474662.715 9 118105067.163 6  92029939.128 9  22474661.88347
  19825576.539 7  19825586.414 9 104184106.494 7  81182458.289 9  19825585.83649
  23624832.234 2  23624854.340 9 124149337.892 2  96739826.627 9  23624854.23445
  23067787.664 6  23067808.414 9 121222035.496 6  94458804.492 9  23067808.02347
 23  3 10  2 54 20.0000000  0  7G04G08G16G26G27G28G31               
  21268094.648 5  21268103.641 8 111764589.325 5  87089324.098 8  21268102.65647
  21063389.711 6  21063403.336 9 110688858.960 6  86251116.045 9  21063401.43849
  21108248.836 6                 110924594.968 6  86434776.30948  21108254.50848
  22475000.367 5  22475013.746 8 118106912.263 5  92031376.859 8  22475012.91447
  19825530.117 7  19825539.648 9 104183860.768 7  81182266.818 9  19825539.17649
  23625293.508 2  23625315.938 8 124151763.013 2  96741716.338 8  23625315.89845
  23068172.031 6  23068192.840 8 121224054.812 6  94460377.977 8  23068192.27747
 23  3 10  2 54 21.0000000  0  7G04G08G16G26G27G28G31               
  21267946.234 5  21267955.523 8 111763810.713 5  87088717.387 8  21267954.60947
  21062949.266 6  21062963.586 9 110686545.849 6  86249313.627 9  21062961.46949
  21108455.375 6                 110925680.180 6  86435621.92548  21108461.05548
  22475351.914 5  22475365.203 9 118108757.507 5  92032814.712 9  22475364.40247
  19825483.383 7  19825493.156 9 104183615.921 7  81182076.030 9  19825492.30949
  23625756.398 2  23625777.473 8 124154188.645 2  96743606.460 8  23625777.28945
  23068556.297 5  23068577.566 8 121226074.594 5  94461951.829 8  23068576.64847
 23  3 10  2 54 22.0000000  0  7G04G08G16G26G27G28G31               
  21267798.688 5  21267807.332 8 111763033.196 5  87088111.539 8  21267806.47747
  21062509.539 6  21062523.262 9 110684233.692 6  86247511.940 9  21062521.34049
  21108662.188 6                 110926765.936 6  86436467.96648  21108667.82048
  22475702.750 6  22475716.355 9 118110603.150 6  92034252.863 9  22475715.60947
  19825436.891 7  19825446.789 9 104183372.154 7  81181886.072 9  19825446.10549
  23626217.438 2  23626239.852 8 124156614.856 2  96745497.017 8  23626239.34446
  23068941.195 5  23068961.457 9 121228095.005 5  94463526.175 9  23068960.84447
 23  3 10  2 54 23.0000000  0  7G04G08G16G26G27G28G31               
  21267650.789 5  21267659.531 8 111762256.270 5  87087506.126 8  21267658.71147
  21062069.539 6  21062084.063 9 110681922.007 6  86245710.636 9  21062081.63349
  21108868.492 6                 110927851.900 6  86437314.17248  21108874.24648
  22476053.492 5  22476067.688 9 118112448.856 5  92035691.052 9  22476066.62547
  19825390.883 7  19825400.383 9 104183129.107 7  81181696.691 9  19825399.66449
  23626678.391 2  23626700.977 8 124159041.498 2  96747387.913 8  23626700.95346
  23069325.539 5  23069345.797 9 121230115.805 5  94465100.823 9  23069345.45747
 23  3 10  2 54 24.0000000  0  7G04G08G16G26G27G28G31               
  21267502.734 5  21267512.227 9 111761480.399 5  87086901.552 9  21267511.35947
  21061629.961 6  21061643.801 9 110679611.265 6  86243910.058 9  21061641.71549
  21109075.563 6                 110928938.400 6  86438160.79348  21109081.61348
  22476405.023 5  22476419.129 9 118114294.928 5  92037129.543 9  22476418.51647
  19825344.352 7  19825354.289 9 104182887.152 7  81181508.157 9  19825353.65649
  23627140.492 3  23627162.848 8 124161468.817 3  96749279.324 8  23627162.62546
  23069710.477 5  23069730.387 9 121232137.263 5  94466675.976 9  23069730.22747
 23  3 10  2 54 25.0000000  0  7G04G08G16G26G27G28G31               
  21267355.875 5  21267364.414 9 111760705.514 5  87086297.747 9  21267363.60247
  21061190.203 6  21061204.473 9 110677301.396 6  86242110.159 9  21061202.21549
  21109282.258 6                 110930025.400 6  86439007.80448  21109288.33648
  22476756.031 5  22476770.691 9 118116141.312 5  92038568.272 9  22476769.82847
  19825298.586 7  19825308.293 9 104182646.215 7  81181320.410 9  19825307.55949
  23627602.586 3  23627624.750 8 124163896.740 3  96751171.229 8  23627624.10546
  23070094.938 5  23070115.703 9 121234159.328 5  94468251.600 9  23070115.16047
 23  3 10  2 54 26.0000000  0  7G04G08G16G26G27G28G31               
  21267207.953 5  21267217.219 9 111759931.356 5  87085694.507 9  21267216.38347
  21060750.656 6  21060764.996 9 110674992.101 6  86240310.715 9  21060762.46149
  21109488.875 6                 110931112.625 6  86439854.98548  21109495.14848
  22477107.633 5  22477122.305 9 118117987.770 5  92040007.058 9  22477121.29747
  19825253.266 7  19825262.891 9 104182406.054 7  81181133.273 9  19825261.94149
  23628064.531 3  23628087.211 8 124166325.043 3  96753063.408 8  23628086.12946
  23070480.109 5  23070499.871 9 121236181.733 5  94469827.492 9  23070499.32047
 23  3 10  2 54 27.0000000  0  7G04G08G16G26G27G28G31               
  21267060.945 5  21267070.258 9 111759157.933 5  87085091.835 9  21267069.32447
  21060311.289 6  21060325.656 9 110672683.476 6  86238511.785 9  21060323.51249
  21109696.078 6                 110932200.124 6  86440702.37548  21109702.13348
  22477459.305 5  22477473.156 9 118119834.345 5  92041445.940 9  22477472.35547
  19825207.344 7  19825216.973 9 104182166.697 7  81180946.764 9  19825216.52349
  23628526.727 3  23628549.313 8 124168753.699 3  96754955.868 8  23628548.12146
  23070865.313 6  23070885.570 9 121238204.539 6  94471403.698 9  23070884.57447
 23  3 10  2 54 28.0000000  0  7G04G08G16G26G27G28G31               
  21266914.750 5  21266923.215 9 111758385.468 5  87084489.908 9  21266922.50847
  21059872.328 6  21059886.852 9 110670375.634 6  86236713.466 9  21059884.07849
  21109902.781 6                 110933288.085 6  86441550.13748  21109909.23848
  22477810.242 5  22477824.508 9 118121681.203 5  92042885.048 9  22477823.94947
  19825162.047 7  19825171.418 9 104181928.334 7  81180761.023 9  19825170.67649
  23628989.234 3  23629011.441 8 124171183.057 3  96756848.881 8  23629010.38346
  23071250.297 6  23071270.449 9 121240227.990 6  94472980.394 9  23071269.53947
 23  3 10  2 54 29.0000000  0  7G04G08G16G26G27G28G31               
  21266766.867 5  21266776.211 9 111757613.764 5  87083888.576 9  21266775.33247
  21059433.109 6  21059447.422 9 110668068.463 6  86234915.676 9  21059445.01249
  21110110.305 6                 110934376.314 6  86442398.10848  21110116.43848
  22478161.813 5  22478176.223 9 118123528.195 5  92044324.251 9  22478175.51247
  19825117.078 7  19825126.656 9 104181690.785 7  81180575.919 9  19825126.12549
  23629451.586 2  23629473.652 8 124173612.805 2  96758742.188 8  23629472.39145
  23071635.289 6  23071655.539 9 121242251.782 6  94474557.367 9  23071654.59847
 23  3 10  2 54 30.0000000  0  7G04G08G16G26G27G28G31               
  21266620.633 5  21266629.613 9 111756842.959 5  87083287.945 9  21266628.78947
  21058994.008 6  21059008.297 9 110665762.079 6  86233118.496 9  21059005.91449
  21110317.031 6                 110935464.969 6  86443246.40748  21110323.36748
  22478513.453 5  22478527.488 9 118125375.426 5  92045763.659 9  22478527.10547
  19825071.930 7  19825081.008 9 104181454.180 7  81180391.542 9  19825080.31349
  23629914.391 2  23629936.250 8 124176043.029 2  96760635.859 8  23629934.92245
  23072020.070 6  23072040.707 9 121244276.119 6  94476134.763 9  23072039.53547
 23  3 10  2 54 31.0000000  0  7G04G08G16G26G27G28G31               
  21266474.461 5  21266483.863 9 111756072.975 5  87082687.961 9  21266482.94547
  21058555.695 6  21058569.531 9 110663456.368 6  86231321.832 9  21058567.16449
  21110524.445 6                 110936553.913 6  86444094.92248  21110530.74248
  22478864.922 5  22478878.961 9 118127222.828 5  92047203.180 9  22478878.61347
  19825027.117 7  19825036.719 9 104181218.430 7  81180207.841 9  19825036.14549
  23630376.789 2  23630398.672 8 124178473.776 2  96762529.963 8  23630397.03145
  23072406.117 5  23072426.832 8 121246300.964 5  94477712.547 8  23072425.41047
 23  3 10  2 54 32.0000000  0  7G04G08G16G26G27G28G31               
  21266327.648 5  21266336.699 8 111755303.944 5  87082088.707 8  21266335.97347
  21058116.883 6  21058130.961 9 110661151.551 6  86229525.882 9  21058128.86349
  21110731.953 6                 110937643.395 6  86444943.86148  21110738.33648
  22479216.570 5  22479230.645 9 118129070.563 5  92048642.958 9  22479230.14147
  19824982.570 7  19824991.676 9 104180983.714 7  81180024.945 9  19824991.12549
  23630838.836 2  23630861.805 7 124180905.138 2  96764424.514 7  23630859.48445
  23072791.352 6  23072811.375 8 121248326.403 6  94479290.788 8  23072809.92247
 23  3 10  2 54 33.0000000  0  7G04G08G16G26G27G28G31               
  21266181.984 5  21266190.918 8 111754535.771 5  87081490.126 8  21266190.28547
  21057678.672 6  21057692.449 9 110658847.471 6  86227730.491 9  21057690.25049
  21110939.492 6                 110938733.226 6  86445793.08448  21110945.10248
  22479568.625 5  22479582.266 9 118130918.487 5  92050082.896 9  22479581.78947
  19824937.914 7  19824947.180 9 104180749.908 7  81179842.756 9  19824946.47349
  23631301.898 2  23631325.449 8 124183336.994 2  96766319.452 8  23631322.48045
  23073176.719 6  23073196.699 8 121250352.304 6  94480869.403 8  23073195.23047
 23  3 10  2 54 34.0000000  0  7G04G08G16G26G27G28G31               
  21266035.070 5  21266044.813 9 111753768.292 5  87080892.088 9  21266044.24647
  21057240.711 6  21057254.070 9 110656543.950 6  86225935.540 9  21057252.35549
  21111146.945 6                 110939823.244 6  86446642.44948  21111152.70348
  22479920.313 5  22479934.422 9 118132766.475 5  92051522.876 9  22479933.89847
  19824893.703 7  19824903.168 9 104180516.848 7  81179661.149 9  19824902.49249
  23631764.938 2  23631788.457 8 124185769.268 2  96768214.711 8  23631784.99245
  23073562.297 6  23073582.672 8 121252378.616 6  94482448.331 8  23073581.33247
 23  3 10  2 54 35.0000000  0  7G04G08G16G26G27G28G31               
  21265889.344 5  21265898.594 9 111753001.698 5  87080294.742 9  21265898.02747
  21056802.289 6  21056815.895 9 110654241.151 6  86224141.155 9  21056813.84849
  21111354.156 6                 110940913.648 6  86447492.10448  21111360.39148
  22480272.141 5  22480285.996 9 118134614.637 5  92052962.984 9  22480285.65647
  19824849.570 7  19824858.848 9 104180284.687 7  81179480.241 9  19824858.34049
  23632227.039 2  23632251.473 8 124188201.955 2  96770110.309 8  23632247.95345
  23073948.313 6  23073968.281 9 121254405.362 6  94484027.599 9  23073966.68847
 23  3 10  2 54 36.0000000  0  7G04G08G16G26G27G28G31               
  21265743.648 5  21265753.137 9 111752235.924 5  87079698.028 9  21265752.41847
  21056364.211 6  21056377.914 9 110651939.084 6  86222347.343 9  21056375.87949
  21111561.742 6                 110942004.412 6  86448342.04248  21111568.05548
  22480623.844 6  22480637.539 9 118136463.042 6  92054403.287 9  22480637.09047
  19824805.664 7  19824814.902 9 104180053.415 7  81179300.027 9  19824814.15249
  23632689.742 2  23632714.629 8 124190635.175 2  96772006.331 8  23632710.57045
  23074333.938 6  23074354.125 8 121256432.613 6  94485607.253 8  23074352.64147
 23  3 10  2 54 37.0000000  0  7G04G08G16G26G27G28G31               
  21265598.609 5  21265607.426 9 111751470.963 5  87079101.958 9  21265606.62947
  21055925.828 6  21055939.984 9 110649637.701 6  86220554.053 9  21055937.55149
  21111769.313 6                 110943095.487 6  86449192.22648  21111775.28948
  22480975.508 5  22480989.414 9 118138311.581 5  92055843.704 9  22480988.88747
  19824761.305 7  19824771.070 9 104179823.006 7  81179120.483 9  19824770.46149
  23633154.211 2  23633177.695 8 124193068.850 2  96773902.699 8  23633173.28545
  23074719.813 6  23074740.477 9 121258460.322 6  94487187.287 9  23074738.52347
 23  3 10  2 54 38.0000000  0  7G04G08G16G26G27G28G31               
  21265453.672 5  21265462.230 9 111750706.827 5  87078506.527 9  21265461.56647
  21055488.758 6  21055502.582 9 110647337.019 6  86218761.308 9  21055500.65249
  21111977.305 6                 110944186.914 6  86450042.68648  21111983.52348
  22481326.977 5  22481341.414 9 118140160.290 5  92057284.240 9  22481340.76647
  19824718.086 7  19824727.648 9 104179593.462 7  81178941.618 9  19824726.82849
  23633617.281 2  23633641.031 8 124195503.013 2  96775799.456 8  23633636.71146
  23075105.266 6  23075126.613 9 121260488.463 6  94488767.644 9  23075124.91447
 23  3 10  2 54 39.0000000  0  7G04G08G16G26G27G28G31               
  21265307.844 5  21265317.031 9 111749943.652 5  87077911.849 9  21265316.54347
  21055050.477 6  21055064.621 9 110645037.178 6  86216969.239 9  21055062.63349
  21112184.680 6                 110945278.816 6  86450893.52548  21112191.33648
  22481678.859 5  22481692.910 9 118142009.307 5  92058725.041 9  22481692.73847
  19824674.219 7  19824683.527 9 104179364.931 7  81178763.557 9  19824682.78949
  23634080.688 2  23634103.453 8 124197937.797 2  96777696.688 8  23634099.83246
  23075492.234 6  23075512.320 9 121262517.219 6  94490348.500 9  23075510.50847
 23  3 10  2 54 40.0000000  0  7G04G08G16G26G27G28G31               
  21265162.445 5  21265171.996 9 111749181.128 5  87077317.686 9  21265171.55947
  21054612.813 6  21054627.188 9 110642737.859 6  86215177.581 9  21054625.59049
  21112392.563 6                 110946370.875 6  86451744.49948  21112398.84048
  22482030.406 5  22482044.660 9 118143858.346 5  92060165.866 9  22482044.31347
  19824630.883 7  19824640.645 9 104179137.108 7  81178586.056 9  19824639.94949
  23634543.336 2  23634566.379 8 124200372.868 2  96779594.193 8  23634562.88346
  23075878.008 6  23075897.828 9 121264546.291 6  94491929.618 9  23075896.07047
 23  3 10  2 54 41.0000000  0  7G04G08G16G26G27G28G31               
  21265017.836 5  21265026.715 9 111748419.667 5  87076724.369 9  21265026.23047
  21054175.516 6  21054189.016 9 110640439.441 6  86213386.638 9  21054187.23049
  21112600.539 6                 110947463.471 6  86452595.91248  21112606.55548
  22482383.063 5  22482396.602 9 118145707.816 5  92061607.028 9  22482396.67647
  19824587.992 7  19824597.129 9 104178910.365 7  81178409.410 9  19824596.57449
  23635007.805 3  23635029.523 8 124202808.651 3  96781492.254 8  23635026.62545
  23076263.898 6  23076284.645 9 121266576.021 6  94493511.260 9  23076283.41047
 23  3 10  2 54 42.0000000  0  7G04G08G16G26G27G28G31               
  21264872.969 5  21264881.969 9 111747658.953 5  87076131.621 9  21264881.49647
  21053738.344 6  21053752.164 9 110638141.710 6  86211596.210 9  21053750.85949
  21112808.438 6                 110948556.388 6  86453447.55748  21112814.93048
  22482735.102 5  22482748.594 9 118147557.368 5  92063048.249 9  22482748.32447
  19824544.930 7  19824554.574 9 104178684.457 7  81178233.390 9  19824554.38349
  23635470.992 3  23635492.828 8 124205244.867 3  96783390.615 8  23635490.13345
  23076650.875 6  23076670.891 9 121268606.170 6  94495093.207 9  23076669.55947
 23  3 10  2 54 43.0000000  0  7G04G08G16G26G27G28G31               
  21264728.078 5  21264737.492 9 111746898.967 5  87075539.416 9  21264737.02747
  21053301.023 6  21053315.363 9 110635844.565 6  86209806.227 9  21053313.68049
  21113016.367 6                 110949649.533 6  86454299.35648  21113022.86748
  22483087.156 5  22483100.430 9 118149407.004 5  92064489.506 9  22483100.05147
  19824502.133 7  19824512.102 9 104178459.339 7  81178057.975 9  19824511.48449
  23635935.195 2  23635956.258 8 124207681.451 2  96785289.249 8  23635953.84046
  23077037.344 6  23077057.125 9 121270636.717 6  94496675.438 9  23077056.07047
 23  3 10  2 54 44.0000000  0  7G04G08G16G26G27G28G31               
  21264583.953 5  21264592.891 8 111746140.025 5  87074948.023 8  21264592.37947
  21052864.406 6  21052878.184 9 110633548.361 6  86208016.976 9  21052876.46949
  21113225.133 6                 110950743.194 6  86455151.55247  21113231.15247
  22483438.891 5  22483452.309 8 118151257.025 5  92065931.074 8  22483451.91047
  19824459.586 7  19824469.156 9 104178235.278 7  81177883.370 9  19824468.87549
  23636399.047 3  23636420.363 8 124210118.739 3  96787188.441 8  23636418.00446
  23077423.148 6  23077443.402 8 121272667.861 6  94498258.144 8  23077442.52347
 23  3 10  2 54 45.0000000  0  7G04G08G16G26G27G28G31               
  21264439.344 5  21264448.266 8 111745381.890 5  87074357.265 8  21264448.02347
  21052427.438 6  21052441.227 9 110631252.813 6  86206228.231 9  21052439.62149
  21113433.227 6                 110951837.229 6  86456004.04648  21113439.32448
  22483790.695 5  22483804.184 8 118153107.189 5  92067372.736 8  22483804.06347
  19824416.781 7  19824426.547 9 104178012.081 7  81177709.445 9  19824426.12949
  23636863.406 3  23636884.348 8 124212556.467 3  96789087.974 8  23636882.10945
  23077809.852 6  23077830.004 8 121274699.530 6  94499841.246 8  23077829.35947
 23  3 10  2 54 46.0000000  0  7G04G08G16G26G27G28G31               
  21264295.133 5  21264304.684 9 111744624.340 5  87073766.959 9  21264304.23047
  21051990.742 6  21052004.121 9 110628957.764 6  86204439.881 9  21052002.62949
  21113641.273 6                 110952931.328 6  86456856.58448  21113647.53148
  22484143.023 5  22484156.688 9 118154957.306 5  92068814.382 9  22484156.36747
  19824374.555 7  19824383.867 9 104177789.519 7  81177536.019 9  19824383.54349
  23637327.047 3  23637348.082 8 124214994.429 3  96790987.695 8  23637346.04745
  23078197.719 6  23078217.230 9 121276731.412 6  94501424.520 9  23078216.43047
 23  3 10  2 54 47.0000000  0  7G04G08G16G26G27G28G31               
  21264151.203 5  21264160.637 9 111743867.714 5  87073177.377 9  21264160.09847
  21051554.102 6  21051567.715 9 110626663.511 6  86202652.148 9  21051566.22749
  21113849.758 6                 110954025.884 6  86457709.47948  21113856.09848
  22484495.023 5  22484508.594 9 118156807.706 5  92070256.254 9  22484508.10947
  19824332.664 7  19824341.957 9 104177567.933 7  81177363.352 9  19824341.27049
  23637790.781 3  23637812.059 8 124217433.047 3  96792887.904 8  23637810.07845
  23078583.875 6  23078604.066 9 121278763.848 6  94503008.228 9  23078603.17247
 23  3 10  2 54 48.0000000  0  7G04G08G16G26G27G28G31               
  21264007.930 6  21264016.566 9 111743111.939 6  87072588.467 9  21264016.00847
  21051117.617 6  21051131.547 9 110624370.011 6  86200865.006 9  21051130.00449
  21114057.992 6                 110955120.812 6  86458562.65848  21114064.29748
  22484847.164 5  22484861.184 9 118158658.302 5  92071698.266 9  22484860.83247
  19824290.484 7  19824300.141 9 104177347.275 7  81177191.413 9  19824299.69549
  23638254.625 2  23638276.406 9 124219872.104 2  96794788.476 9  23638274.51245
  23078970.117 6  23078990.551 9 121280796.801 6  94504592.320 9  23078989.81347
 23  3 10  2 54 49.0000000  0  7G04G08G16G26G27G28G31               
  21263863.398 5  21263873.086 9 111742357.005 5  87072000.209 9  21263872.55547
  21050681.063 6  21050694.723 9 110622077.196 6  86199078.399 9  21050693.12549
  21114266.422 6                 110956216.052 6  86459416.08448  21114272.83248
  22485199.023 5  22485213.441 9 118160509.066 5  92073140.406 9  22485212.89847
  19824248.563 7  19824258.313 9 104177127.463 7  81177020.126 9  19824257.60249
  23638718.492 2  23638740.355 9 124222311.650 2  96796689.419 9  23638738.85545
  23079357.664 6  23079377.828 9 121282830.223 6  94506176.799 9  23079377.19147
 23  3 10  2 54 50.0000000  0  7G04G08G16G26G27G28G31               
  21263720.688 5  21263729.590 9 111741603.011 5  87071412.669 9  21263729.41047
  21050244.859 6  21050258.563 9 110619785.217 6  86197292.434 9  21050257.21949
  21114474.977 6                 110957311.770 6  86460269.88948  21114481.95348
  22485551.250 5  22485565.887 9 118162360.161 5  92074582.808 9  22485565.19147
  19824206.961 7  19824216.797 9 104176908.646 7  81176849.619 9  19824216.27749
  23639182.844 3  23639204.855 9 124224751.796 3  96798590.835 9  23639203.24246
  23079744.367 6  23079764.426 9 121284864.199 6  94507761.711 9  23079763.76647
 23  3 10  2 54 51.0000000  0  7G04G08G16G26G27G28G31               
  21263577.086 6  21263586.512 9 111740849.761 6  87070825.710 9  21263586.07047
  21049809.664 6  21049822.848 9 110617493.876 6  86195506.980 9  21049821.53949
  21114683.359 6                 110958407.740 6  86461123.88848  21114690.12948
  22485903.594 5  22485918.449 9 118164211.344 5  92076025.280 9  22485917.98047
  19824165.273 7  19824175.676 9 104176690.646 7  81176679.748 9  19824174.65649
  23639647.531 3  23639669.355 9 124227192.317 3  96800492.558 9  23639667.87946
  23080130.977 6  23080151.660 9 121286898.572 6  94509346.930 9  23080151.10947
 23  3 10  2 54 52.0000000  0  7G04G08G16G26G27G28G31               
  21263434.117 5  21263443.301 9 111740097.385 5  87070239.430 9  21263442.56347
  21049373.641 6  21049386.984 9 110615203.253 6  86193722.081 9  21049385.75849
  21114892.125 6                 110959504.099 6  86461978.18448  21114898.75448
  22486256.359 6  22486270.125 9 118166062.744 6  92077467.920 9  22486269.95347
  19824124.344 7  19824133.785 9 104176473.542 7  81176510.568 9  19824133.11749
  23640110.766 3  23640133.660 9 124229633.432 3  96802394.733 9  23640132.36746
  23080518.797 6  23080539.047 9 121288933.480 6  94510932.568 9  23080538.27347
 23  3 10  2 54 53.0000000  0  7G04G08G16G26G27G28G31               
  21263290.859 5  21263300.609 9 111739345.885 5  87069653.848 9  21263299.99647
  21048937.453 6  21048950.918 9 110612913.411 6  86191937.799 9  21048949.59049
  21115100.891 6                 110960600.873 6  86462832.80848  21115106.98448
  22486608.258 5  22486622.559 9 118167914.355 5  92078910.726 9  22486622.47747
  19824083.047 7  19824092.992 9 104176257.379 7  81176342.132 9  19824092.12549
  23640575.766 3  23640597.879 9 124232074.978 3  96804297.238 9  23640596.96946
  23080906.094 6  23080926.145 9 121290968.881 6  94512518.602 9  23080925.16047
 23  3 10  2 54 54.0000000  0  7G04G08G16G26G27G28G31               
  21263148.297 5  21263157.426 9 111738595.049 5  87069068.773 9  21263157.11747
  21048502.305 6  21048516.035 9 110610624.106 6  86190153.935 9  21048514.47349
  21115309.602 6                 110961697.745 6  86463687.50748  21115316.01648
  22486961.500 6  22486975.379 9 118169765.997 6  92080353.563 9  22486975.32047
  19824042.188 7  19824051.746 9 104176041.908 7  81176174.233 9  19824051.09049
  23641040.422 3  23641062.492 9 124234516.930 3  96806200.070 9  23641061.77346
  23081292.977 6  23081313.703 9 121293004.598 6  94514104.870 9  23081313.05547
 23  3 10  2 54 55.0000000  0  7G04G08G16G26G27G28G31               
  21263005.516 5  21263014.539 8 111737845.049 5  87068484.355 8  21263014.46147
  21048066.797 6  21048080.125 9 110608335.568 6  86188370.658 9  21048078.91449
  21115517.969 6                 110962795.043 6  86464542.53448  21115525.14148
  22487313.398 6  22487327.227 9 118171617.830 6  92081796.537 9  22487327.19947
  19824001.281 7  19824010.727 9 104175827.361 7  81176007.044 9  19824009.98449
  23641505.141 3  23641527.422 8 124236959.389 3  96808103.286 8  23641526.87546
  23081680.781 6  23081701.203 9 121295040.829 6  94515691.534 9  23081700.45347
 23  3 10  2 54 56.0000000  0  7G04G08G16G26G27G28G31               
  21262862.234 5  21262872.102 8 111737095.644 5  87067900.398 8  21262871.98447
  21047631.094 6  21047644.684 9 110606047.484 6  86186587.739 9  21047643.46949
  21115727.383 6                 110963892.398 6  86465397.62048  21115733.75048
  22487665.867 6  22487679.945 8 118173469.603 6  92083239.467 8  22487679.82847
  19823960.695 7  19823970.250 9 104175613.443 7  81175840.354 9  19823969.54349
  23641969.531 2  23641992.184 8 124239402.000 2  96810006.647 8  23641991.55946
  23082067.547 6  23082089.074 8 121297077.256 6  94517278.354 8  23082088.47347
 23  3 10  2 54 57.0000000  0  7G04G08G16G26G27G28G31               
  21262720.008 5  21262729.133 8 111736347.170 5  87067317.171 8  21262729.18047
  21047195.664 6  21047209.816 9 110603760.176 6  86184805.409 9  21047208.75049
  21115936.078 6                 110964990.203 6  86466253.03548  21115942.25848
  22488018.109 6  22488032.102 9 118175321.659 6  92084682.620 9  22488031.87547
  19823919.594 7  19823929.434 9 104175400.489 7  81175674.419 9  19823928.94149
  23642434.953 3  23642457.223 8 124241845.229 3  96811910.474 8  23642456.82046
  23082455.570 6  23082476.043 9 121299114.264 6  94518865.627 9  23082475.65247
 23  3 10  2 54 58.0000000  0  7G04G08G16G26G27G28G31               
  21262577.719 5  21262587.352 9 111735599.501 5  87066734.526 9  21262586.84047
  21046760.555 6  21046774.438 9 110601473.523 6  86183023.578 9  21046773.32049
  21116144.758 6                 110966088.297 6  86467108.63548  21116151.28548
  22488371.070 6  22488384.926 9 118177173.824 6  92086125.797 9  22488384.68847
  19823879.805 7  19823889.836 9 104175188.372 7  81175509.077 9  19823889.07849
  23642901.328 3  23642922.309 8 124244288.914 3  96813814.576 8  23642921.65646
  23082843.313 5  23082863.926 9 121301151.696 5  94520453.160 9  23082863.60247
 23  3 10  2 54 59.0000000  0  7G04G08G16G26G27G28G31               
  21262436.258 5  21262445.809 9 111734852.814 5  87066152.662 9  21262444.92247
  21046326.063 6  21046339.680 9 110599187.778 6  86181242.455 9  21046338.10549
  21116354.172 6                 110967186.941 6  86467964.68948  21116360.64548
  22488723.250 6  22488737.078 9 118179026.412 6  92087569.341 9  22488736.92247
  19823839.641 7  19823849.371 9 104174977.351 7  81175344.614 9  19823848.84849
  23643366.031 3  23643387.547 8 124246733.270 3  96815719.260 8  23643386.90246
  23083231.188 6  23083252.055 9 121303189.755 6  94522041.240 9  23083251.60947
 23  3 10  2 55  0.0000000  0  7G04G08G16G26G27G28G31               
  21262293.750 5  21262303.953 9 111734106.927 5  87065571.462 9  21262302.98447
  21045890.977 6  21045904.672 9 110596902.646 6  86179461.846 9  21045903.55949
  21116563.242 6                 110968285.856 6  86468820.99148  21116570.00448
  22489075.656 5  22489089.938 9 118180879.087 5  92089012.948 9  22489089.83247
  19823799.781 7  19823809.340 9 104174767.104 7  81175180.776 9  19823808.31349
  23643830.445 1  23643852.813 8 124249178.012 1  96817624.294 8  23643852.15246
  23083619.594 6  23083640.207 9 121305228.272 6  94523629.691 9  23083639.75447
 23  3 10  2 55  1.0000000  0  7G04G08G16G26G27G28G31               
  21262152.680 5  21262161.527 9 111733361.769 5  87064990.807 9  21262160.75447
  21045456.984 6  21045470.047 9 110594618.155 6  86177681.722 9  21045468.79749
  21116772.469 6                 110969385.022 6  86469677.47848  21116778.50848
  22489428.727 5  22489442.250 9 118182731.871 5  92090456.666 9  22489442.13747
  19823759.766 7  19823769.086 9 104174557.675 7  81175017.601 9  19823768.43049
  23644295.352 2  23644317.879 8 124251623.193 2  96819529.626 8  23644317.21546
  23084007.500 6  23084027.281 8 121307267.179 6  94525218.434 8  23084026.82847
 23  3 10  2 55  2.0000000  0  7G04G08G16G26G27G28G31               
  21262011.063 5  21262020.098 9 111732617.608 5  87064410.932 9  21262019.23047
  21045021.648 6  21045035.496 9 110592334.563 6  86175902.305 9  21045034.19949
  21116981.063 6                 110970484.682 6  86470534.35948  21116987.85948
  22489780.906 6  22489794.781 9 118184584.978 6  92091900.642 9  22489794.80547
  19823720.305 7  19823730.063 9 104174349.271 7  81174855.210 9  19823729.32049
  23644761.641 1  23644783.270 8 124254068.982 1  96821435.441 8  23644782.73445
  23084395.820 6  23084416.051 8 121309306.709 6  94526807.677 8  23084415.18047
 23  3 10  2 55  3.0000000  0  7G04G08G16G26G27G28G31               
  21261869.195 5  21261878.457 9 111731874.201 5  87063831.654 9  21261877.55547
  21044587.867 6  21044600.922 9 110590051.613 6  86174123.387 9  21044599.54749
  21117190.805 6                 110971584.631 6  86471391.45848  21117197.18448
  22490133.953 6  22490147.922 9 118186438.216 6  92093344.723 9  22490147.67247
  19823680.648 7  19823690.254 9 104174141.683 7  81174693.443 9  19823690.09449
  23645227.461 1  23645248.563 8 124256515.208 1  96823341.611 8  23645247.68845
  23084783.883 6  23084804.230 9 121311346.604 6  94528397.192 9  23084803.12947
 23  3 10  2 55  4.0000000  0  7G04G08G16G26G27G28G31               
  21261728.500 5  21261737.301 9 111731131.711 5  87063253.085 9  21261736.60947
  21044153.523 6  21044166.973 9 110587769.453 6  86172345.088 9  21044165.93049
  21117400.266 6                 110972684.983 6  86472248.87748  21117407.11348
  22490485.867 6  22490500.430 9 118188291.712 6  92094789.003 9  22490500.14147
  19823640.984 7  19823651.141 9 104173935.047 7  81174532.429 9  19823650.76249
  23645692.766 2  23645714.859 8 124258961.906 2  96825248.154 8  23645713.38745
  23085172.164 6  23085192.453 9 121313387.101 6  94529987.182 9  23085191.66847
 23  3 10  2 55  5.0000000  0  7G04G08G16G26G27G28G31               
  21261586.539 5  21261596.008 9 111730389.830 5  87062674.991 9  21261595.44147
  21043719.391 6  21043732.711 9 110585487.807 6  86170567.183 9  21043731.48849
  21117609.789 6                 110973785.483 6  86473106.40648  21117615.85548
  22490839.547 6  22490853.188 9 118190145.165 6  92096233.247 9  22490853.05547
  19823601.750 7  19823611.594 9 104173729.093 7  81174371.943 9  19823611.16449
  23646158.781 3  23646181.309 7 124261409.036 3  96827154.987 7  23646178.81345
  23085560.609 6  23085580.695 9 121315427.825 6  94531577.348 9  23085580.16047
 23  3 10  2 55  6.0000000  0  7G04G08G16G26G27G28G31               
  21261446.539 5  21261455.055 8 111729648.680 5  87062097.478 8  21261454.63347
  21043284.961 6  21043298.672 9 110583206.765 6  86168789.741 9  21043297.59049
  21117819.711 6                 110974886.223 6  86473964.11548  21117825.76648
  22491191.555 6  22491205.613 9 118191998.708 6  92097677.561 9  22491205.34447
  19823562.859 7  19823572.633 9 104173523.912 7  81174212.063 9  19823572.07049
  23646624.797 3  23646646.355 8 124263856.416 3  96829062.015 8  23646644.28946
  23085948.445 6  23085969.410 9 121317468.914 6  94533167.796 9  23085968.79347
 23  3 10  2 55  7.0000000  0  7G04G08G16G26G27G28G31               
  21261304.852 5  21261314.531 9 111728908.454 5  87061520.682 9  21261313.44147
  21042851.523 6  21042864.949 9 110580926.482 6  86167012.902 9  21042863.63749
  21118028.695 6                 110975987.400 6  86474822.17548  21118035.02748
  22491544.430 6  22491558.707 9 118193852.511 6  92099122.098 9  22491558.30547
  19823523.852 7  19823533.371 9 104173319.676 7  81174052.918 9  19823532.60949
  23647092.469 4  23647112.422 8 124266304.444 4  96830969.556 8  23647110.19546
  23086337.508 6  23086357.934 8 121319510.575 6  94534758.716 8  23086357.35947
 23  3 10  2 55  8.0000000  0  7G04G08G16G26G27G28G31               
  21261164.711 5  21261173.711 8 111728169.107 5  87060944.556 8  21261172.89147
  21042417.406 6  21042431.227 9 110578646.967 6  86165236.651 9  21042430.00049
  21118238.344 6                 110977088.930 6  86475680.49448  21118245.02348
  22491897.289 6  22491911.250 8 118195706.507 6  92100566.774 8  22491910.87547
  19823485.594 7  19823495.016 9 104173116.375 7  81173894.490 9  19823494.52049
  23647558.047 4  23647579.227 8 124268752.927 4  96832877.457 8  23647576.26246
  23086726.281 6  23086746.789 8 121321552.734 6  94536350.006 8  23086745.56347
 23  3 10  2 55  9.0000000  0  7G04G08G16G26G27G28G31               
  21261023.813 5  21261032.996 9 111727430.729 5  87060369.196 9  21261032.25847
  21041983.898 6  21041997.492 9 110576368.376 6  86163461.124 9  21041996.52349
  21118448.297 6                 110978191.010 6  86476539.26248  21118454.67648
  22492249.914 6  22492264.523 9 118197560.914 6  92102011.765 9  22492264.09447
  19823446.664 7  19823456.945 9 104172914.142 7  81173736.909 9  19823456.52049
  23648023.883 4  23648045.414 8 124271202.117 4  96834785.911 8  23648041.98046
  23087115.063 6  23087134.992 8 121323595.548 6  94537941.799 8  23087134.24647
 23  3 10  2 55 10.0000000  0  7G04G08G16G26G27G28G31               
  21260883.953 5  21260893.172 9 111726693.156 5  87059794.457 9  21260892.53147
  21041550.242 6  21041564.363 9 110574090.388 6  86161686.073 9  21041563.07049
  21118657.953 6                 110979293.320 6  86477398.20648  21118664.37148
  22492603.492 6  22492617.898 9 118199415.375 6  92103456.802 9  22492617.20347
  19823408.500 7  19823418.297 9 104172712.694 7  81173579.940 9  19823417.80549
  23648489.969 4  23648511.914 8 124273651.684 4  96836694.666 8  23648508.21946
  23087503.852 6  23087523.898 8 121325638.761 6  94539533.909 8  23087523.22347
 23  3 10  2 55 11.0000000  0  7G04G08G16G26G27G28G31               
  21260743.313 5  21260752.273 9 111725956.333 5  87059220.311 9  21260751.59047
  21041116.930 6  21041130.375 9 110571813.070 6  86159911.537 9  21041129.28149
  21118867.813 6                 110980395.938 6  86478257.37748  21118874.43448
  22492956.125 6  22492970.914 9 118201269.984 6  92104901.949 9  22492970.02747
  19823370.031 7  19823379.785 9 104172512.065 7  81173423.599 9  19823379.37149
  23648956.422 4  23648978.188 8 124276101.705 4  96838603.757 8  23648974.55946
  23087892.695 6  23087912.145 8 121327682.395 6  94541126.337 8  23087911.44147
 23  3 10  2 55 12.0000000  0  7G04G08G16G26G27G28G31               
  21260603.156 5  21260612.160 9 111725220.183 5  87058646.674 9  21260611.50447
  21040683.492 6  21040697.223 9 110569536.335 6  86158137.455 9  21040696.11349
  21119077.648 6                 110981498.726 6  86479116.68848  21119083.84448
  22493309.078 6  22493323.668 9 118203124.605 6  92106347.090 9  22493323.01247
  19823332.133 7  19823341.938 9 104172312.160 7  81173267.823 9  19823341.58649
  23649422.633 4  23649444.223 8 124278552.076 4  96840513.127 8  23649440.51246
  23088281.102 6  23088300.996 8 121329726.361 6  94542719.018 8  23088300.57447
 23  3 10  2 55 13.0000000  0  7G04G08G16G26G27G28G31               
  21260463.945 5  21260472.566 9 111724485.046 5  87058073.848 9  21260471.94147
  21040250.219 6  21040264.324 9 110567260.507 6  86156364.087 9  21040263.38349
  21119287.375 6                 110982602.028 6  86479976.40048  21119294.26248
  22493662.320 6  22493676.422 9 118204979.605 6  92107792.539 9  22493675.86747
  19823294.336 7  19823304.098 9 104172113.342 7  81173112.903 9  19823303.55549
  23649888.648 4  23649910.418 8 124281003.100 4  96842422.978 8  23649906.76646
  23088669.961 6  23088690.402 8 121331770.991 6  94544312.222 8  23088689.82447
 23  3 10  2 55 14.0000000  0  7G04G08G16G26G27G28G31               
  21260324.117 5  21260333.156 9 111723750.566 5  87057501.529 9  21260332.51247
  21039817.555 6  21039831.012 9 110564985.194 6  86154591.115 9  21039830.30949
  21119497.469 6                 110983705.516 6  86480836.25548  21119504.40648
  22494015.133 5  22494029.539 9 118206834.639 5  92109238.012 9  22494029.40647
  19823256.805 7  19823266.508 9 104171915.209 7  81172958.513 9  19823266.03949
  23650354.039 4  23650376.824 8 124283454.424 4  96844333.097 8  23650373.36746
  23089059.828 6  23089079.680 8 121333815.881 6  94545905.631 8  23089078.88747
 23  3 10  2 55 15.0000000  0  7G04G08G16G26G27G28G31               
  21260184.211 5  21260193.168 9 111723016.769 5  87056929.731 9  21260192.62147
  21039384.641 6  21039398.441 9 110562710.439 6  86152818.575 9  21039397.43449
  21119707.289 6                 110984809.176 6  86481696.24448  21119714.14548
  22494367.883 6  22494382.578 9 118208689.686 6  92110683.485 9  22494382.29347
  19823219.164 7  19823228.746 9 104171717.793 7  81172804.682 9  19823228.32049
  23650821.594 4  23650842.918 8 124285906.051 4  96846243.461 8  23650839.73446
  23089448.914 6  23089469.160 8 121335861.082 6  94547499.287 8  23089468.11347
 23  3 10  2 55 16.0000000  0  7G04G08G16G26G27G28G31               
  21260044.500 6  21260054.207 9 111722283.845 6  87056358.612 9  21260053.44547
  21038952.383 6  21038965.945 9 110560436.431 6  86151046.631 9  21038964.80149
  21119917.109 6                 110985913.230 6  86482556.54648  21119924.16048
  22494721.336 6  22494735.383 9 118210544.936 6  92112129.112 9  22494735.05947
  19823181.641 7  19823191.418 9 104171521.308 7  81172651.580 9  19823190.95349
  23651288.102 4  23651308.973 8 124288358.226 4  96848154.250 8  23651306.38746
  23089838.148 6  23089858.074 8 121337906.811 6  94549093.350 8  23089857.05147
 23  3 10  2 55 17.0000000  0  7G04G08G16G26G27G28G31               
  21259905.445 6  21259914.832 9 111721551.703 6  87055788.119 9  21259914.01647
  21038518.984 6  21038533.313 9 110558163.070 6  86149275.187 9  21038532.39549
  21120127.445 6                 110987017.583 6  86483417.07248  21120134.18048
  22495074.594 6  22495088.605 9 118212400.321 6  92113574.866 9  22495088.16847
  19823144.750 7  19823154.281 9 104171325.647 7  81172499.112 9  19823153.72749
  23651754.906 4  23651775.414 8 124290810.851 4  96850065.386 8  23651773.12545
  23090227.570 6  23090247.938 8 121339952.980 6  94550687.750 8  23090246.90647
 23  3 10  2 55 18.0000000  0  7G04G08G16G26G27G28G31               
  21259765.570 5  21259775.707 9 111720820.551 5  87055218.377 9  21259775.10947
  21038087.039 6  21038100.375 9 110555890.572 6  86147504.405 9  21038099.43449
  21120338.016 6                 110988122.411 6  86484277.97648  21120345.18448
  22495427.211 6  22495441.449 9 118214256.063 6  92115020.894 9  22495441.19947
  19823107.406 7  19823117.262 9 104171131.003 7  81172347.441 9  19823116.63349
  23652221.859 4  23652242.094 8 124293264.046 4  96851976.969 8  23652240.20745
  23090616.906 6  23090637.055 8 121341999.737 6  94552282.621 8  23090635.88347
 23  3 10  2 55 19.0000000  0  7G04G08G16G26G27G28G31               
  21259626.734 5  21259636.242 9 111720090.183 5  87054649.247 9  21259636.03147
  21037654.555 6  21037668.438 9 110553618.747 6  86145734.160 9  21037667.48049
  21120548.195 6                 110989227.562 6  86485139.12748  21120555.14548
  22495780.258 6  22495794.668 9 118216111.925 6  92116467.011 9  22495794.06647
  19823070.773 7  19823080.703 9 104170937.229 7  81172196.449 9  19823080.11349
  23652688.406 4  23652708.961 8 124295717.762 4  96853888.962 8  23652707.67645
  23091006.516 6  23091026.629 8 121344046.980 6  94553877.871 8  23091025.42247
 23  3 10  2 55 20.0000000  0  7G04G08G16G26G27G28G31               
  21259488.508 5  21259497.965 9 111719360.686 5  87054080.809 9  21259497.66447
  21037222.633 6  21037235.770 9 110551347.703 6  86143964.519 9  21037235.08249
  21120758.477 6                 110990333.084 6  86486000.57648  21120765.43048
  22496134.250 6  22496147.785 9 118217968.025 6  92117913.313 9  22496147.68047
  19823033.953 7  19823043.953 9 104170744.385 7  81172046.177 9  19823043.31649
  23653154.570 3  23653176.020 8 124298171.967 3  96855801.334 8  23653174.75445
  23091396.109 6  23091416.199 8 121346094.690 6  94555473.479 8  23091415.04347
 23  3 10  2 55 21.0000000  0  7G04G08G16G26G27G28G31               
  21259349.039 5  21259358.797 9 111718631.940 5  87053512.952 9  21259358.47347
  21036790.461 6  21036803.656 9 110549077.255 6  86142195.339 9  21036802.82049
  21120968.914 6                 110991438.845 6  86486862.20548  21120975.46148
  22496487.242 6  22496501.066 9 118219824.210 6  92119359.688 9  22496501.25047
  19822997.320 7  19823007.090 9 104170552.287 7  81171896.494 9  19823006.48849
  23653620.906 3  23653642.930 8 124300626.555 3  96857714.001 8  23653641.82845
  23091786.203 6  23091806.656 8 121348142.793 6  94557069.386 8  23091805.16447
 23  3 10  2 55 22.0000000  0  7G04G08G16G26G27G28G31               
  21259211.242 5  21259220.207 9 111717904.002 5  87052945.731 9  21259220.16447
  21036358.672 6  21036372.367 9 110546807.574 6  86140426.755 9  21036371.12549
  21121179.508 6                 110992544.971 6  86487724.11548  21121186.35948
  22496840.141 6  22496854.477 9 118221680.603 6  92120806.231 9  22496853.81647
  19822961.125 7  19822971.313 9 104170361.106 7  81171747.521 9  19822970.68049
  23654088.125 3  23654110.043 8 124303081.661 3  96859627.074 8  23654109.19545
  23092175.289 6  23092196.559 8 121350191.404 6  94558665.694 8  23092194.99247
 23  3 10  2 55 23.0000000  0  7G04G08G16G26G27G28G31               
  21259073.531 5  21259081.848 9 111717176.924 5  87052379.178 9  21259081.69147
  21035926.969 6  21035940.648 9 110544538.549 6  86138658.692 9  21035939.28549
  21121390.180 6                 110993651.417 6  86488586.27248  21121396.68448
  22497193.586 6  22497208.383 9 118223537.103 6  92122252.833 9  22497207.79747
  19822924.773 7  19822934.629 9 104170170.782 7  81171599.218 9  19822934.09049
  23654556.070 2  23654577.645 9 124305537.229 2  96861540.527 9  23654576.55945
  23092565.609 6  23092586.227 8 121352240.421 6  94560262.327 8  23092584.42647
 23  3 10  2 55 24.0000000  0  7G04G08G16G26G27G28G31               
  21258935.359 5  21258943.836 9 111716450.721 5  87051813.311 9  21258943.39547
  21035495.602 6  21035508.926 9 110542270.329 6  86136891.256 9  21035507.99249
  21121600.484 6                 110994758.288 6  86489448.76548  21121606.93048
  22497546.781 5  22497561.141 9 118225393.901 5  92123699.684 9  22497560.41047
  19822888.359 7  19822898.461 9 104169981.405 7  81171451.653 9  19822897.96949
  23655022.688 2  23655044.789 9 124307993.355 2  96863454.397 9  23655043.97345
  23092955.398 6  23092976.234 8 121354290.013 6  94561859.411 8  23092974.78947
 23  3 10  2 55 25.0000000  0  7G04G08G16G26G27G28G31               
  21258797.266 5  21258805.859 9 111715725.157 5  87051247.937 9  21258805.61347
  21035063.234 6  21035076.926 9 110540002.616 6  86135124.207 9  21035076.09849
  21121811.047 6                 110995865.300 6  86490311.36148  21121818.04348
  22497900.328 6  22497914.668 9 118227250.701 6  92125146.533 9  22497914.07047
  19822852.438 7  19822862.852 9 104169792.711 7  81171304.615 9  19822862.37949
  23655490.344 3  23655512.082 9 124310449.740 3  96865368.457 9  23655511.53946
  23093345.078 6  23093366.082 8 121356339.870 6  94563456.676 8  23093364.69547
 23  3 10  2 55 26.0000000  0  7G04G08G16G26G27G28G31               
  21258658.078 5  21258667.898 9 111715000.399 5  87050683.179 9  21258667.48447
  21034632.086 6  21034645.668 9 110537735.596 6  86133357.702 9  21034644.50849
  21122021.359 6                 110996972.597 6  86491174.18948  21122028.40648
  22498253.625 6  22498267.922 9 118229107.635 6  92126593.484 9  22498267.30147
  19822816.781 7  19822827.098 9 104169604.867 7  81171158.241 9  19822826.47749
  23655957.664 2  23655980.117 9 124312906.649 2  96867282.935 9  23655979.50045
  23093735.234 6  23093756.770 8 121358390.168 6  94565054.299 8  23093755.03947
 23  3 10  2 55 27.0000000  0  7G04G08G16G26G27G28G31               
  21258520.461 5  21258530.328 9 111714276.639 5  87050119.204 9  21258529.93447
  21034200.875 6  21034214.992 9 110535469.446 6  86131591.875 9  21034213.66849
  21122232.664 6                 110998080.429 6  86492037.41948  21122239.49648
  22498606.617 6  22498621.219 9 118230964.904 6  92128040.696 9  22498620.48047
  19822781.328 7  19822791.473 9 104169418.075 7  81171012.688 9  19822790.92649
  23656424.234 2  23656447.363 9 124315364.080 2  96869197.837 9  23656447.08246
  23094125.797 6  23094146.617 8 121360441.108 6  94566652.438 8  23094145.10247
 23  3 10  2 55 28.0000000  0  7G04G08G16G26G27G28G31               
  21258383.516 5  21258392.617 9 111713553.498 5  87049555.716 9  21258392.31647
  21033769.891 6  21033783.551 9 110533203.805 6  86129826.437 9  21033782.41449
  21122443.727 6                 110999188.364 6  86492900.75348  21122450.37948
  22498960.563 6  22498975.082 9 118232822.161 6  92129487.902 9  22498974.10947
  19822745.891 7  19822756.098 9 104169231.930 7  81170867.640 9  19822755.47349
  23656892.320 1  23656915.559 9 124317821.883 1  96871113.033 9  23656915.23846
  23094516.242 6  23094536.629 8 121362492.297 6  94568250.753 8  23094535.17247
 23  3 10  2 55 29.0000000  0  7G04G08G16G26G27G28G31               
  21258245.773 5  21258255.383 9 111712831.175 5  87048992.865 9  21258254.88347
  21033338.961 6  21033352.105 9 110530938.908 6  86128061.585 9  21033351.11749
  21122654.227 6                 111000296.636 6  86493764.34048  21122661.44148
  22499313.844 6  22499328.410 9 118234679.574 6  92130935.214 9  22499327.53547
  19822710.586 7  19822720.703 9 104169046.658 7  81170723.271 9  19822719.90649
  23657359.352 1  23657382.992 9 124320280.051 1  96873028.509 9  23657382.82845
  23094906.641 6  23094927.266 8 121364543.966 6  94569849.449 8  23094925.85547
 23  3 10  2 55 30.0000000  0  7G04G08G16G26G27G28G31               
  21258108.266 5  21258117.770 9 111712109.710 5  87048430.694 9  21258117.41047
  21032908.203 6  21032921.914 9 110528674.734 6  86126297.301 9  21032920.52749
  21122865.422 6                 111001405.296 6  86494628.22048  21122872.72348
  22499667.305 6  22499681.668 9 118236537.229 6  92132382.730 9  22499681.06347
  19822675.906 7  19822686.012 9 104168862.308 7  81170579.623 9  19822685.14549
  23657827.641 1  23657850.883 9 124322738.808 1  96874944.428 9  23657850.77746
  23095297.039 6  23095317.664 8 121366596.126 6  94571448.533 8  23095316.35547
 23  3 10  2 55 31.0000000  0  7G04G08G16G26G27G28G31               
  21257970.961 5  21257980.770 9 111711388.974 5  87047869.081 9  21257980.55547
  21032477.398 6  21032490.902 9 110526411.125 6  86124533.455 9  21032489.60249
  21123076.711 6                 111002514.141 6  86495492.25448  21123083.64848
  22500020.742 6  22500035.254 9 118238394.882 6  92133830.243 9  22500034.49647
  19822640.727 7  19822650.574 9 104168678.704 7  81170436.551 9  19822650.06649
  23658295.867 1  23658318.801 8 124325197.886 1  96876860.646 8  23658318.75046
  23095687.688 6  23095708.477 8 121368648.635 6  94573047.875 8  23095707.15647
 23  3 10  2 55 32.0000000  0  7G04G08G16G26G27G28G31               
  21257834.227 5  21257843.770 8 111710669.058 5  87047308.095 8  21257843.58647
  21032046.539 6  21032060.809 9 110524148.232 6  86122770.161 9  21032059.41849
  21123287.492 6                 111003623.358 6  86496356.57148  21123294.89848
  22500373.875 5  22500388.863 9 118240252.782 5  92135277.945 9  22500387.85247
  19822606.141 7  19822616.039 9 104168495.995 7  81170294.179 9  19822615.14149
  23658765.398 1  23658787.129 8 124327657.525 1  96878777.261 8  23658786.94145
  23096077.508 6  23096099.055 8 121370701.580 6  94574647.576 8  23096097.67247
 23  3 10  2 55 33.0000000  0  7G04G08G16G26G27G28G31               
  21257697.672 5  21257706.859 8 111709950.103 5  87046747.867 8  21257706.56347
  21031616.461 6  21031629.871 9 110521886.144 6  86121007.493 9  21031628.53549
  21123498.719 6                 111004733.022 6  86497221.23848  21123505.82448
  22500728.305 5  22500742.219 9 118242110.952 5  92136725.864 9  22500741.40247
  19822571.328 7  19822581.441 9 104168314.274 7  81170152.580 9  19822580.57049
  23659232.789 1  23659255.273 8 124330117.679 1  96880694.294 8  23659254.87545
  23096469.156 6  23096490.547 8 121372755.186 6  94576247.794 8  23096489.03547
 23  3 10  2 55 34.0000000  0  7G04G08G16G26G27G28G31               
  21257561.086 5  21257570.102 9 111709232.007 5  87046188.313 9  21257570.01647
  21031185.758 6  21031199.535 9 110519624.831 6  86119245.430 9  21031198.30949
  21123710.406 6                 111005843.104 6  86498086.23448  21123717.08248
  22501081.805 5  22501096.262 9 118243969.369 5  92138173.970 9  22501095.34847
  19822537.430 7  19822546.742 9 104168133.502 7  81170011.720 9  19822545.88749
  23659701.734 1  23659723.129 8 124332578.429 1  96882611.785 8  23659722.85245
  23096859.625 6  23096880.816 8 121374809.301 6  94577848.393 8  23096879.64847
 23  3 10  2 55 35.0000000  0  7G04G08G16G26G27G28G31               
  21257424.336 5  21257433.711 9 111708514.526 5  87045629.232 9  21257433.47747
  21030755.875 6  21030769.434 9 110517363.979 6  86117483.729 9  21030767.84849
  21123921.023 6                 111006953.255 6  86498951.27548  21123927.92248
  22501434.922 5  22501450.207 9 118245827.729 5  92139622.033 9  22501449.18047
  19822502.938 7  19822512.809 9 104167953.333 7  81169871.329 9  19822511.97349
  23660171.078 2  23660191.320 8 124335039.377 2  96884529.406 8  23660191.19145
  23097251.227 6  23097271.563 8 121376863.578 6  94579449.131 8  23097270.51247
 23  3 10  2 55 36.0000000  0  7G04G08G16G26G27G28G31               
  21257287.875 5  21257297.215 9 111707798.016 5  87045070.906 9  21257296.84047
  21030325.641 6  21030339.801 9 110515103.977 6  86115722.693 9  21030338.23049
  21124132.773 6                 111008063.896 6  86499816.71048  21124139.75448
  22501788.883 5  22501803.383 9 118247686.396 5  92141070.333 9  22501802.49647
  19822468.945 7  19822478.719 9 104167774.223 7  81169731.766 9  19822477.85249
  23660639.656 2  23660659.723 8 124337500.983 2  96886447.553 8  23660660.03945
  23097641.789 5  23097662.680 9 121378918.552 5  94581050.409 9  23097661.97347
 23  3 10  2 55 37.0000000  0  7G04G08G16G26G27G28G31               
  21257151.625 5  21257160.781 9 111707082.192 5  87044513.124 9  21257160.61747
  21029896.016 6  21029909.723 9 110512844.534 6  86113962.082 9  21029908.04749
  21124344.148 6                 111009174.753 6  86500682.31148  21124350.94148
  22502142.625 5  22502156.809 9 118249545.107 5  92142518.673 9  22502155.98447
  19822434.672 7  19822444.859 9 104167595.833 7  81169592.760 9  19822444.09849
  23661107.398 3  23661127.672 8 124339962.951 3  96888365.957 8  23661127.75046
  23098032.984 5  23098053.863 9 121380973.796 5  94582651.891 9  23098053.18047
 23  3 10  2 55 38.0000000  0  7G04G08G16G26G27G28G31               
  21257015.961 5  21257024.773 9 111706367.063 5  87043955.882 9  21257024.53547
  21029465.844 6  21029479.641 9 110510585.693 6  86112201.939 9  21029478.02349
  21124555.680 6                 111010285.795 6  86501548.05748  21124562.32048
  22502495.711 5  22502510.387 9 118251403.882 5  92143967.049 9  22502509.70347
  19822400.750 7  19822410.914 9 104167418.176 7  81169454.329 9  19822410.15249
  23661576.484 3  23661596.145 8 124342425.210 3  96890284.600 8  23661596.10545
  23098424.789 6  23098444.875 9 121383029.415 6  94584253.661 9  23098444.54747
 23  3 10  2 55 39.0000000  0  7G04G08G16G26G27G28G31               
  21256879.922 5  21256889.555 9 111705652.932 5  87043399.412 9  21256889.27047
  21029036.258 6  21029049.770 9 110508327.703 6  86110442.461 9  21029048.50449
  21124766.969 6                 111011397.323 6  86502414.17848  21124774.16448
  22502849.781 5  22502864.414 9 118253262.964 5  92145415.679 9  22502863.74647
  19822367.234 7  19822377.508 9 104167241.582 7  81169316.717 9  19822376.83249
  23662045.313 3  23662065.234 8 124344888.165 3  96892203.785 8  23662064.61745
  23098815.914 6  23098836.211 9 121385085.637 6  94585855.912 9  23098835.71147
 23  3 10  2 55 40.0000000  0  7G04G08G16G26G27G28G31               
  21256743.773 6  21256752.797 9 111704939.469 6  87042843.470 9  21256752.94947
  21028606.883 6  21028620.258 9 110506070.286 6  86108683.429 9  21028619.05149
  21124978.938 6                 111012509.060 6  86503280.45548  21124985.65648
  22503203.500 5  22503218.480 9 118255122.076 5  92146864.331 9  22503217.70747
  19822333.813 7  19822343.758 9 104167065.696 7  81169179.663 9  19822342.93449
  23662514.250 3  23662534.289 8 124347351.438 3  96894123.225 8  23662533.64846
  23099207.227 6  23099227.531 9 121387142.189 6  94587458.415 9  23099227.19947
 23  3 10  2 55 41.0000000  0  7G04G08G16G26G27G28G31               
  21256607.797 5  21256616.934 9 111704226.841 5  87042288.168 9  21256617.03547
  21028177.094 6  21028190.980 9 110503813.577 6  86106924.963 9  21028189.48049
  21125190.164 6                 111013621.116 6  86504146.99348  21125196.91848
  22503557.469 5  22503572.473 9 118256981.374 5  92148313.125 9  22503571.63347
  19822300.531 7  19822311.047 9 104166890.684 7  81169043.290 9  19822310.29349
  23662982.359 4  23663003.656 8 124349815.205 4  96896043.041 8  23663002.59846
  23099598.320 6  23099619.027 9 121389199.236 6  94589061.310 9  23099618.82847
 23  3 10  2 55 42.0000000  0  7G04G08G16G26G27G28G31               
  21256472.719 5  21256482.199 9 111703514.925 5  87041733.424 9  21256482.02047
  21027748.250 6  21027761.445 9 110501557.487 6  86105166.974 9  21027760.27749
  21125401.930 6                 111014733.440 6  86505013.73248  21125408.98848
  22503911.391 5  22503926.285 9 118258840.744 5  92149761.986 9  22503925.20747
  19822267.438 7  19822277.512 9 104166716.438 7  81168907.518 9  19822276.46549
  23663450.133 4  23663472.586 8 124352279.314 4  96897963.124 8  23663471.37946
  23099990.398 6  23100009.871 9 121391256.617 6  94590664.454 9  23100009.47747
 23  3 10  2 55 43.0000000  0  7G04G08G16G26G27G28G31               
  21256337.320 6  21256346.738 9 111702804.010 6  87041179.456 9  21256346.45747
  21027319.008 6  21027332.785 9 110499302.275 6  86103409.670 9  21027331.62149
  21125613.719 6                 111015846.219 6  86505880.82848  21125620.28948
  22504265.359 5  22504280.313 9 118260700.452 5  92151211.090 9  22504279.24247
  19822234.492 7  19822244.879 9 104166543.213 7  81168772.536 9  19822243.87949
  23663918.930 3  23663942.051 8 124354744.039 3  96899883.692 8  23663940.63346
  23100381.469 6  23100402.004 8 121393314.609 6  94592268.072 8  23100401.41447
 23  3 10  2 55 44.0000000  0  7G04G08G16G26G27G28G31               
  21256202.219 5  21256211.688 9 111702093.804 5  87040626.048 9  21256211.57447
  21026889.539 6  21026903.246 9 110497047.668 6  86101652.829 9  21026902.08649
  21125825.219 6                 111016959.216 6  86506748.09748  21125832.41448
  22504619.805 5  22504634.574 9 118262560.215 5  92152660.246 9  22504633.44147
  19822201.727 7  19822211.559 9 104166370.754 7  81168638.150 9  19822210.99249
  23664387.961 4  23664410.945 8 124357209.148 4  96901804.548 8  23664409.37946
  23100773.289 6  23100793.867 8 121395372.957 6  94593871.972 8  23100793.19147
 23  3 10  2 55 45.0000000  0  7G04G08G16G26G27G28G31               
  21256066.867 5  21256076.555 9 111701384.236 5  87040073.144 9  21256076.04347
  21026461.039 6  21026474.129 9 110494793.627 6  86099896.435 9  21026473.27349
  21126037.063 6                 111018072.404 6  86507615.51448  21126043.98448
  22504973.539 5  22504988.207 8 118264419.970 5  92154109.397 8  22504987.39547
  19822168.977 7  19822179.391 9 104166199.018 7  81168504.330 9  19822178.28949
  23664858.281 4  23664880.141 8 124359674.577 4  96903725.626 8  23664878.20746
  23101165.461 6  23101185.324 8 121397431.629 6  94595476.145 8  23101184.91447
 23  3 10  2 55 46.0000000  0  7G04G08G16G26G27G28G31               
  21255932.633 5  21255941.746 9 111700675.519 5  87039520.882 9  21255941.42647
  21026031.953 6  21026045.656 9 110492540.300 6  86098140.591 9  21026044.89149
  21126249.047 6                 111019185.905 6  86508483.17048  21126255.75048
  22505327.375 5  22505341.598 9 118266279.943 5  92155558.713 9  22505340.88347
  19822136.742 7  19822146.180 9 104166028.142 7  81168371.175 9  19822145.34449
  23665327.867 3  23665349.492 8 124362140.479 3  96905647.096 8  23665347.64146
  23101557.625 6  23101577.477 8 121399490.741 6  94597080.645 8  23101576.92647
 23  3 10  2 55 47.0000000  0  7G04G08G16G26G27G28G31               
  21255797.617 5  21255806.520 9 111699967.778 5  87038969.381 9  21255806.05147
  21025603.133 6  21025617.039 9 110490287.809 6  86096385.396 9  21025616.12549
  21126460.625 6                 111020299.899 6  86509351.21248  21126467.75848
  22505681.289 5  22505696.059 9 118268140.202 5  92157008.242 9  22505695.46947
  19822104.367 7  19822114.559 9 104165858.291 7  81168238.822 9  19822113.69549
  23665796.320 3  23665818.695 8 124364607.015 3  96907569.058 8  23665816.82846
  23101949.578 6  23101969.211 9 121401550.479 6  94598685.617 9  23101968.77747
 23  3 10  2 55 48.0000000  0  7G04G08G16G26G27G28G31               
  21255663.305 5  21255672.602 9 111699260.766 5  87038418.459 9  21255671.97747
  21025174.703 6  21025188.445 9 110488035.986 6  86094630.729 9  21025187.33649
  21126673.086 6                 111021414.154 6  86510219.45748  21126680.37148
  22506035.109 5  22506049.887 9 118270000.579 5  92158457.885 9  22506049.19947
  19822072.422 7  19822082.207 9 104165689.229 7  81168107.082 9  19822081.31649
  23666265.852 3  23666288.180 8 124367073.940 3  96909491.358 8  23666286.49646
  23102342.008 6  23102361.516 8 121403610.632 6  94600290.920 8  23102361.06647
 23  3 10  2 55 49.0000000  0  7G04G08G16G26G27G28G31               
  21255528.891 5  21255537.781 9 111698554.439 5  87037868.081 9  21255537.46947
  21024746.344 6  21024759.297 9 110485784.680 6  86092876.459 9  21024758.35249
  21126885.320 6                 111022528.609 6  86511087.87248  21126892.35248
  22506388.930 5  22506403.590 9 118271860.994 5  92159907.551 9  22506403.23447
  19822039.914 7  19822049.699 9 104165520.908 7  81167975.915 9  19822048.71149
  23666735.133 2  23666757.836 8 124369541.202 2  96911413.904 8  23666756.16046
  23102733.930 6  23102752.871 8 121405671.070 6  94601896.451 8  23102752.39847
 23  3 10  2 55 50.0000000  0  7G04G08G16G26G27G28G31               
  21255394.859 5  21255403.602 9 111697848.971 5  87037318.360 9  21255403.14547
  21024318.008 6  21024331.773 9 110483534.095 6  86091122.762 9  21024330.64549
  21127097.406 6                 111023643.393 6  86511956.52548  21127104.15248
  22506743.273 5  22506757.754 9 118273721.589 5  92161357.355 9  22506757.34047
  19822008.313 7  19822017.938 9 104165353.478 7  81167845.447 9  19822017.10249
  23667204.516 3  23667227.172 8 124372008.960 3  96913336.815 8  23667225.89846
  23103125.344 6  23103145.773 8 121407732.005 6  94603502.364 8  23103145.23847
 23  3 10  2 55 51.0000000  0  7G04G08G16G26G27G28G31               
  21255259.695 5  21255269.504 9 111697144.284 5  87036769.250 9  21255268.94947
  21023890.023 6  21023903.301 9 110481284.181 6  86089369.578 9  21023902.48049
  21127309.570 6                 111024758.489 6  86512825.43448  21127316.43448
  22507097.344 5  22507111.820 9 118275582.317 5  92162807.269 9  22507111.23847
  19821976.344 7  19821986.133 9 104165186.854 7  81167715.614 9  19821985.47749
  23667673.992 3  23667696.969 8 124374477.127 3  96915260.070 8  23667695.84446
  23103518.164 6  23103538.340 8 121409793.348 6  94605108.604 8  23103537.57047
 23  3 10  2 55 52.0000000  0  7G04G08G16G26G27G28G31               
  21255126.180 5  21255135.344 9 111696440.410 5  87036220.780 9  21255134.70347
  21023461.570 6  21023475.363 9 110479034.968 6  86087616.947 9  21023474.22749
  21127522.000 6                 111025873.913 6  86513694.58648  21127528.46548
  22507451.633 5  22507466.273 9 118277443.245 5  92164257.319 9  22507465.58247
  19821944.766 7  19821954.984 9 104165021.130 7  81167586.480 9  19821953.80549
  23668144.406 2  23668166.094 8 124376945.777 2  96917183.704 8  23668165.00446
  23103910.031 6  23103929.828 8 121411855.180 6  94606715.220 8  23103929.21947
 23  3 10  2 55 53.0000000  0  7G04G08G16G26G27G28G31               
  21254993.070 5  21255001.875 9 111695737.467 5  87035673.019 9  21255000.98847
  21023034.070 6  21023047.523 9 110476786.551 6  86085864.933 9  21023046.60549
  21127734.234 6                 111026989.762 6  86514564.07448  21127741.41048
  22507805.289 5  22507820.699 9 118279304.403 5  92165707.578 9  22507819.89547
  19821913.430 7  19821923.859 9 104164856.371 7  81167458.094 9  19821922.84849
  23668614.477 3  23668636.242 9 124379414.984 3  96919107.777 9  23668635.53546
  23104302.859 6  23104322.527 8 121413917.578 6  94608322.277 8  23104321.93847
 23  3 10  2 55 54.0000000  0  7G04G08G16G26G27G28G31               
  21254859.086 5  21254868.305 9 111695035.284 5  87035125.860 9  21254867.61347
  21022605.875 6  21022619.891 9 110474538.805 6  86084113.448 9  21022618.93849
  21127946.391 6                 111028105.887 6  86515433.77848  21127953.62148
  22508159.727 5  22508175.000 9 118281165.721 5  92167157.952 9  22508174.14847
  19821882.391 7  19821892.199 9 104164692.429 7  81167330.340 9  19821891.67649
  23669084.742 3  23669106.363 8 124381884.648 3  96921032.187 8  23669105.66846
  23104694.750 6  23104715.262 8 121415980.368 6  94609929.636 8  23104714.49247
 23  3 10  2 55 55.0000000  0  7G04G08G16G26G27G28G31               
  21254725.688 5  21254734.668 8 111694333.882 5  87034579.305 8  21254734.04347
  21022178.641 6  21022192.113 9 110472291.700 6  86082362.463 9  21022191.19949
  21128159.242 6                 111029222.272 6  86516303.68548  21128166.32448
  22508513.711 5  22508528.664 9 118283027.119 5  92168608.370 9  22508527.98447
  19821851.336 7  19821861.574 9 104164529.269 7  81167203.203 9  19821860.65649
  23669553.500 2  23669575.695 8 124384354.689 2  96922956.897 8  23669575.60546
  23105087.898 6  23105107.133 8 121418043.559 6  94611537.323 8  23105106.55147
 23  3 10  2 55 56.0000000  0  7G04G08G16G26G27G28G31               
  21254592.320 5  21254601.027 8 111693633.183 5  87034033.295 8  21254600.52746
  21021751.016 6  21021764.813 9 110470045.206 6  86080611.955 9  21021763.80949
  21128371.555 6                 111030338.911 6  86517173.79248  21128378.64848
  22508868.156 5  22508883.258 8 118284888.610 5  92170058.864 8  22508882.22347
  19821820.555 7  19821830.613 9 104164366.920 7  81167076.692 9  19821829.75849
  23670023.531 2  23670045.863 8 124386825.147 2  96924881.914 8  23670045.72746
  23105479.719 6  23105499.988 8 121420107.136 6  94613145.279 8  23105499.27047
 23  3 10  2 55 57.0000000  0  7G04G08G16G26G27G28G31               
  21254458.586 5  21254467.824 8 111692933.405 5  87033488.013 8  21254467.16446
  21021323.703 6  21021337.746 9 110467799.464 6  86078862.027 9  21021336.40249
  21128583.930 6                 111031455.951 6  86518044.21148  21128591.06348
  22509222.383 5  22509237.109 9 118286750.360 5  92171509.581 9  22509236.37947
  19821789.828 7  19821799.313 9 104164205.490 7  81166950.905 9  19821798.46949
  23670493.484 2  23670516.090 8 124389296.131 2  96926807.388 8  23670516.00446
  23105872.523 6  23105893.191 8 121422171.247 6  94614753.675 8  23105892.23047
 23  3 10  2 55 58.0000000  0  7G04G08G16G26G27G28G31               
  21254326.375 5  21254334.871 8 111692234.434 5  87032943.352 8  21254334.21947
  21020896.469 6  21020910.547 9 110465554.438 6  86077112.666 9  21020909.58649
  21128796.492 6                 111032573.298 6  86518914.86248  21128803.82448
  22509576.602 5  22509591.363 9 118288612.266 5  92172960.411 9  22509590.90647
  19821759.000 7  19821768.719 9 104164044.930 7  81166825.794 9  19821768.05149
  23670964.430 2  23670986.387 8 124391767.587 2  96928733.228 8  23670986.37146
  23106265.484 6  23106285.910 8 121424235.825 6  94616362.435 8  23106284.90647
 23  3 10  2 55 59.0000000  0  7G04G08G16G26G27G28G31               
  21254192.680 5  21254202.109 8 111691535.960 5  87032399.069 8  21254200.94547
  21020469.367 6  21020483.188 9 110463309.784 6  86075363.596 9  21020482.23049
  21129009.398 6                 111033690.660 6  86519785.53548  21129016.57448
  22509931.156 5  22509945.898 9 118290473.993 5  92174411.103 9  22509945.21947
  19821728.383 7  19821738.922 9 104163884.914 7  81166701.108 9  19821738.06349
  23671435.000 2  23671456.508 9 124394239.170 2  96930659.142 9  23671456.55946
  23106658.859 6  23106679.172 8 121426300.507 6  94617971.268 8  23106677.89147
 23  3 10  2 56  0.0000000  0  7G04G08G16G26G27G28G31               
  21254060.336 5  21254069.535 9 111690838.492 5  87031855.590 9  21254068.65247
  21020042.609 6  21020056.152 9 110461066.054 6  86073615.232 9  21020054.96549
  21129222.250 6                 111034808.535 6  86520656.61048  21129228.91048
  22510285.266 5  22510299.734 9 118292336.120 5  92175862.114 9  22510299.49247
  19821698.063 7  19821708.188 9 104163725.943 7  81166577.236 9  19821707.13749
  23671905.367 2  23671927.594 8 124396711.465 2  96932585.633 8  23671927.61746
  23107050.969 6  23107072.094 8 121428365.869 6  94619580.632 8  23107070.81647
 23  3 10  2 56  1.0000000  0  7G04G08G16G26G27G28G31               
  21253927.992 6  21253936.457 9 111690141.867 6  87031312.775 9  21253936.02047
  21019615.688 6  21019629.035 9 110458823.017 6  86071867.414 9  21019627.89149
  21129435.094 6                 111035926.746 6  86521527.93248  21129441.74648
  22510639.711 5  22510654.637 9 118294198.410 5  92177313.225 9  22510654.30947
  19821668.180 7  19821678.215 9 104163567.871 7  81166454.057 9  19821677.15649
  23672375.297 2  23672397.781 8 124399184.225 2  96934512.460 8  23672398.28946
  23107444.367 6  23107465.367 8 121430431.715 6  94621190.384 8  23107464.06647
 23  3 10  2 56  2.0000000  0  7G04G08G16G26G27G28G31               
  21253795.383 6  21253803.992 9 111689446.101 6  87030770.617 9  21253803.46147
  21019189.211 6  21019202.469 9 110456580.688 6  86070120.153 9  21019201.12949
  21129647.961 6                 111037045.299 6  86522399.53548  21129654.49248
  22510993.922 5  22511009.621 9 118296060.880 5  92178764.481 9  22511008.95347
  19821638.352 7  19821648.445 9 104163410.672 7  81166331.562 9  19821647.59449
  23672845.953 3  23672867.883 8 124401657.433 3  96936439.647 8  23672868.64846
  23107838.094 6  23107858.051 8 121432497.990 6  94622800.460 8  23107856.75047
 23  3 10  2 56  3.0000000  0  7G04G08G16G26G27G28G31               
  21253663.555 6  21253671.500 9 111688751.129 6  87030229.069 9  21253671.16047
  21018762.203 6  21018776.055 9 110454339.081 6  86068373.452 9  21018774.93849
  21129860.563 6                 111038164.188 6  86523271.37948  21129867.66448
  22511348.906 5  22511363.242 9 118297923.563 5  92180215.901 9  22511362.97347
  19821608.570 7  19821618.570 9 104163254.360 7  81166209.760 9  19821617.55549
  23673317.469 3  23673338.773 8 124404131.109 3  96938367.183 8  23673339.29346
  23108230.820 6  23108251.531 8 121434564.785 6  94624410.933 8  23108249.98447
 23  3 10  2 56  4.0000000  0  7G04G08G16G26G27G28G31               
  21253531.375 6  21253539.609 9 111688056.800 6  87029688.043 9  21253539.27747
  21018335.992 6  21018349.484 9 110452098.011 6  86066627.161 9  21018348.45749
  21130073.617 6                 111039283.233 6  86524143.36348  21130080.37948
  22511703.008 6  22511717.934 9 118299786.187 6  92181667.287 9  22511717.66847
  19821579.242 7  19821589.156 9 104163098.724 7  81166088.479 9  19821588.11749
  23673788.813 3  23673809.734 8 124406605.158 3  96940295.026 8  23673810.02346
  23108624.516 6  23108644.801 8 121436631.828 6  94626021.583 8  23108643.41847
 23  3 10  2 56  5.0000000  0  7G04G08G16G26G27G28G31               
  21253398.922 6  21253407.664 9 111687363.384 6  87029147.715 9  21253407.13347
  21017909.688 6  21017923.313 9 110449857.686 6  86064881.450 9  21017921.85949
  21130286.727 6                 111040402.650 6  86525015.63848  21130293.69148
  22512057.742 6  22512072.047 9 118301649.102 6  92183118.920 9  22512071.93847
  19821549.672 7  19821559.113 9 104162944.022 7  81165967.938 9  19821558.27749
  23674259.844 4  23674280.762 8 124409079.662 4  96942223.205 8  23674280.66046
  23109018.328 6  23109038.258 8 121438699.391 6  94627632.682 8  23109036.71947
 23  3 10  2 56  6.0000000  0  7G04G08G16G26G27G28G31               
  21253267.859 5  21253276.004 9 111686670.886 5  87028608.104 9  21253275.27347
  21017483.852 6  21017497.395 9 110447618.225 6  86063136.426 9  21017496.00449
  21130499.625 6                 111041522.537 6  86525888.27748  21130506.41448
  22512412.234 5  22512426.664 9 118303512.249 5  92184570.706 9  22512426.61747
  19821520.367 7  19821530.152 9 104162790.304 7  81165848.149 9  19821529.14149
  23674730.133 3  23674751.641 8 124411554.788 3  96944151.901 8  23674751.73846
  23109411.219 6  23109432.066 8 121440767.525 6  94629244.208 8  23109430.64847
 23  3 10  2 56  7.0000000  0  7G04G08G16G26G27G28G31               
  21253135.711 6  21253144.895 8 111685979.312 6  87028069.208 8  21253143.92647
  21017057.359 6  21017071.332 9 110445379.553 6  86061392.004 9  21017070.25849
  21130713.289 6                 111042642.827 6  86526761.23048  21130719.23848
  22512767.070 5  22512781.754 9 118305375.647 5  92186022.704 9  22512781.39147
  19821491.359 7  19821501.188 9 104162637.545 7  81165729.118 9  19821499.84849
  23675201.125 3  23675222.379 8 124414030.465 3  96946081.016 8  23675222.35946
  23109804.414 6  23109825.410 8 121442836.233 6  94630856.174 8  23109823.68047
 23  3 10  2 56  8.0000000  0  7G04G08G16G26G27G28G31               
  21253004.359 6  21253012.887 8 111685288.479 6  87027530.888 8  21253011.97747
  21016631.703 6  21016645.277 9 110443141.531 6  86059648.090 9  21016644.25049
  21130926.375 6                 111043763.385 6  86527634.37048  21130932.80948
  22513121.195 5  22513135.645 8 118307239.229 5  92187474.851 8  22513135.22747
  19821462.313 7  19821472.363 9 104162485.583 7  81165610.707 9  19821471.41449
  23675672.984 3  23675694.063 8 124416506.582 3  96948010.454 8  23675693.75046
  23110199.180 6  23110219.320 8 121444905.336 6  94632468.474 8  23110217.58247
 23  3 10  2 56  9.0000000  0  7G04G08G16G26G27G28G31               
  21252873.391 6  21252881.750 8 111684598.468 6  87026993.213 8  21252880.84847
  21016206.266 6  21016219.641 9 110440904.194 6  86057904.711 9  21016218.64849
  21131139.867 6                 111044884.263 6  86528507.78448  21131146.25448
  22513475.680 5  22513490.477 8 118309102.879 5  92188927.034 8  22513490.15247
  19821433.383 7  19821443.363 9 104162334.485 7  81165492.966 9  19821442.53949
  23676144.641 3  23676164.598 8 124418983.134 3  96949940.231 8  23676164.53546
  23110592.672 6  23110613.246 8 121446974.843 6  94634081.077 8  23110611.52047
 23  3 10  2 56 10.0000000  0  7G04G08G16G26G27G28G31               
  21252741.969 6  21252750.367 8 111683909.174 6  87026456.105 8  21252749.59047
  21015780.570 6  21015793.832 9 110438667.512 6  86056161.832 9  21015792.58249
  21131352.922 6                 111046005.371 6  86529381.37148  21131359.14848
  22513830.641 5  22513845.480 9 118310966.672 5  92190379.332 9  22513845.18447
  19821405.188 7  19821414.965 9 104162184.164 7  81165375.828 9  19821414.11749
  23676614.086 3  23676636.395 8 124421460.066 3  96951870.303 8  23676636.08246
  23110986.336 6  23111007.117 8 121449044.766 6  94635693.986 8  23111005.29347
 23  3 10  2 56 11.0000000  0  7G04G08G16G26G27G28G31               
  21252610.844 6  21252619.938 8 111683220.790 6  87025919.699 8  21252619.04747
  21015354.516 6  21015368.211 9 110436431.554 6  86054419.520 9  21015366.98049
  21131566.531 6                 111047126.861 6  86530255.25548  21131572.90248
  22514185.969 5  22514200.031 9 118312830.674 5  92191831.787 9  22514199.84047
  19821377.000 7  19821386.660 9 104162034.765 7  81165259.419 9  19821385.34849
  23677085.320 3  23677107.613 8 124423937.532 3  96953800.787 8  23677107.11746
  23111380.703 6  23111401.914 8 121451115.227 6  94637307.327 8  23111399.87547
 23  3 10  2 56 12.0000000  0  7G04G08G16G26G27G28G31               
  21252480.055 5  21252488.992 9 111682533.202 5  87025383.917 9  21252488.38747
  21014929.047 6  21014942.918 9 110434196.316 6  86052677.780 9  21014941.65649
  21131779.539 6                 111048248.692 6  86531129.40748  21131785.94948
  22514539.742 5  22514554.555 9 118314694.832 5  92193284.363 9  22514554.06647
  19821348.477 7  19821358.520 9 104161886.232 7  81165143.676 9  19821357.47349
  23677557.266 2  23677579.496 8 124426415.508 2  96955731.671 8  23677578.49246
  23111774.719 6  23111795.461 8 121453186.113 6  94638920.995 8  23111793.74247
 23  3 10  2 56 13.0000000  0  7G04G08G16G26G27G28G31               
  21252349.063 5  21252358.594 9 111681846.337 5  87024848.694 9  21252357.77047
  21014503.539 6  21014517.340 9 110431961.661 6  86050936.494 9  21014516.21549
  21131993.031 6                 111049370.748 6  86532003.73148  21131999.94148
  22514894.359 5  22514909.383 9 118316559.093 5  92194737.031 9  22514908.80547
  19821319.891 7  19821330.402 9 104161738.472 7  81165028.535 9  19821329.17649
  23678028.586 2  23678051.469 8 124428893.837 2  96957662.830 8  23678049.89146
  23112168.820 6  23112189.652 8 121455257.385 6  94640534.976 8  23112187.78547
 23  3 10  2 56 14.0000000  0  7G04G08G16G26G27G28G31               
  21252219.141 5  21252227.957 9 111681160.217 5  87024314.061 9  21252226.92647
  21014078.359 6  21014092.621 9 110429727.596 6  86049195.665 9  21014091.53149
  21132206.672 6                 111050493.004 6  86532878.20448  21132213.60248
  22515249.969 5  22515264.387 9 118318423.367 5  92196189.699 9  22515263.95747
  19821292.203 7  19821302.031 9 104161591.474 7  81164913.991 9  19821301.08249
  23678499.898 2  23678523.477 8 124431372.435 2  96959594.205 8  23678521.62946
  23112563.453 6  23112584.082 8 121457329.007 6  94642149.218 8  23112582.02347
 23  3 10  2 56 15.0000000  0  7G04G08G16G26G27G28G31               
  21252088.625 5  21252097.496 9 111680474.916 5  87023780.052 9  21252096.58647
  21013653.930 6  21013667.586 9 110427494.318 6  86047455.445 9  21013666.26649
  21132420.289 6                 111051615.647 6  86533752.98948  21132427.16448
  22515604.813 5  22515619.156 9 118320287.911 5  92197642.583 9  22515618.41447
  19821264.477 7  19821274.551 9 104161445.389 7  81164800.153 9  19821273.55949
  23678972.781 2  23678995.344 8 124433851.625 2  96961526.068 8  23678993.38746
  23112957.086 6  23112977.820 8 121459401.143 6  94643763.854 8  23112976.04347
 23  3 10  2 56 16.0000000  0  7G04G08G16G26G27G28G31               
  21251958.406 5  21251966.867 9 111679790.437 5  87023246.693 9  21251966.46147
  21013228.953 6  21013242.188 9 110425261.711 6  86045715.755 9  21013240.99649
  21132634.336 6                 111052738.597 6  86534628.02148  21132640.79748
  22515959.508 5  22515973.852 9 118322152.557 5  92199095.539 9  22515973.23847
  19821236.453 7  19821246.551 9 104161300.126 7  81164686.965 9  19821245.34449
  23679444.422 1  23679467.574 8 124436331.247 1  96963458.245 8  23679465.41446
  23113352.211 6  23113372.281 8 121461473.688 6  94645378.818 8  23113370.55947
 23  3 10  2 56 17.0000000  0  7G04G08G16G26G27G28G31               
  21251828.102 5  21251836.613 9 111679106.709 5  87022713.907 9  21251836.25847
  21012804.078 6  21012817.945 9 110423029.724 6  86043976.534 9  21012816.90649
  21132847.789 6                 111053861.785 6  86535503.22548  21132854.42648
  22516314.523 5  22516328.574 9 118324017.340 5  92200548.604 9  22516328.12947
  19821209.617 7  19821219.078 9 104161155.683 7  81164574.409 9  19821217.98849
  23679916.625 1  23679939.410 8 124438811.249 1  96965390.712 8  23679937.14845
  23113746.328 6  23113766.449 8 121463546.621 6  94646994.082 8  23113764.92247
 23  3 10  2 56 18.0000000  0  7G04G08G16G26G27G28G31               
  21251698.203 5  21251707.121 9 111678423.629 5  87022181.627 9  21251706.38747
  21012379.672 6  21012392.926 9 110420798.272 6  86042237.730 9  21012392.05949
  21133062.047 6                 111054985.151 6  86536378.57748  21133068.44948
  22516668.750 5  22516683.473 9 118325882.098 5  92202001.636 9  22516683.19947
  19821182.031 7  19821191.684 9 104161011.932 7  81164462.396 9  19821190.84049
  23680388.391 1  23680410.922 8 124441291.628 1  96967323.469 8  23680408.64845
  23114141.586 6  23114161.547 8 121465619.867 6  94648609.594 8  23114159.93047
 23  3 10  2 56 19.0000000  0  7G04G08G16G26G27G28G31               
  21251567.961 5  21251576.973 8 111677741.322 5  87021649.957 8  21251576.19947
  21011955.359 6  21011968.566 9 110418567.462 6  86040499.441 9  21011967.64849
  21133275.898 6                 111056108.786 6  86537254.13748  21133282.46148
  22517024.469 5  22517038.184 8 118327746.987 5  92203454.792 8  22517038.08647
  19821154.813 7  19821164.797 9 104160868.992 7  81164351.018 9  19821163.66049
  23680861.102 2  23680883.578 8 124443772.327 2  96969256.476 8  23680880.93445
  23114536.039 6  23114555.902 8 121467693.527 6  94650225.419 8  23114554.31647
 23  3 10  2 56 20.0000000  0  7G04G08G16G26G27G28G31               
  21251438.742 5  21251447.180 8 111677059.785 5  87021118.894 8  21251446.19947
  21011530.953 6  21011544.633 9 110416337.352 6  86038761.696 9  21011543.30949
  21133489.484 6                 111057232.667 6  86538129.88548  21133496.04348
  22517379.141 5  22517393.652 9 118329612.006 5  92204908.039 9  22517393.24647
  19821128.023 7  19821137.406 9 104160726.865 7  81164240.266 9  19821136.42249
  23681333.891 2  23681355.859 8 124446253.506 2  96971189.882 8  23681352.91445
  23114930.383 6  23114950.574 8 121469767.568 6  94651841.556 8  23114948.98847
 23  3 10  2 56 21.0000000  0  7G04G08G16G26G27G28G31               
  21251309.383 6  21251318.109 8 111676379.135 6  87020588.521 8  21251317.17247
  21011106.031 6  21011119.895 9 110414108.001 6  86037024.538 9  21011118.84049
  21133703.391 6                 111058357.002 6  86539005.98048  21133709.83648
  22517734.047 5  22517748.301 9 118331477.263 5  92206361.480 9  22517747.80947
  19821100.727 7  19821110.535 9 104160585.686 7  81164130.251 9  19821109.68049
  23681805.000 2  23681827.777 8 124448735.244 2  96973123.704 8  23681824.60546
  23115325.109 6  23115344.793 8 121471842.169 6  94653458.120 8  23115343.54747
 23  3 10  2 56 22.0000000  0  7G04G08G16G26G27G28G31               
  21251179.969 5  21251188.613 9 111675699.297 5  87020058.768 9  21251187.87147
  21010682.172 6  21010696.000 9 110411879.336 6  86035287.917 9  21010694.79349
  21133917.570 6                 111059481.627 6  86539882.30948  21133923.91048
  22518088.609 5  22518103.738 9 118333342.662 5  92207815.034 9  22518103.05547
  19821074.414 7  19821084.063 9 104160445.354 7  81164020.899 9  19821082.98449
  23682278.375 2  23682300.352 8 124451217.440 2  96975057.870 8  23682297.36345
  23115720.133 6  23115739.875 8 121473917.236 6  94655075.051 8  23115738.65247
 23  3 10  2 56 23.0000000  0  7G04G08G16G26G27G28G31               
  21251050.766 6  21251059.168 9 111675020.305 6  87019529.675 9  21251058.66047
  21010258.313 6  21010271.895 9 110409651.386 6  86033551.862 9  21010270.96549
  21134131.609 6                 111060606.572 6  86540758.89648  21134137.72348
  22518444.016 5  22518458.504 9 118335208.229 5  92209268.714 9  22518458.13747
  19821047.891 7  19821057.305 9 104160305.903 7  81163912.234 9  19821056.67249
  23682750.719 3  23682772.621 8 124453700.018 3  96976992.359 8  23682769.68845
  23116114.984 6  23116135.086 8 121475992.733 6  94656692.331 8  23116133.83647
 23  3 10  2 56 24.0000000  0  7G04G08G16G26G27G28G31               
  21250921.430 5  21250929.836 9 111674341.988 5  87019001.122 9  21250929.32447
  21009834.313 6  21009847.695 9 110407423.995 6  86031816.233 9  21009846.84449
  21134345.461 6                 111061731.735 6  86541635.63548  21134352.04348
  22518799.188 5  22518813.488 9 118337073.843 5  92210722.430 9  22518813.15647
  19821021.234 7  19821031.145 9 104160167.203 7  81163804.155 9  19821030.06649
  23683223.359 3  23683244.660 8 124456183.107 3  96978927.236 8  23683242.10546
  23116510.141 6  23116530.094 8 121478068.586 6  94658309.879 8  23116529.14147
 23  3 10  2 56 25.0000000  0  7G04G08G16G26G27G28G31               
  21250792.844 5  21250801.605 9 111673664.531 5  87018473.224 9  21250800.83647
  21009410.844 6  21009424.613 9 110405197.350 6  86030081.178 9  21009423.39549
  21134559.992 6                 111062857.233 6  86542512.64248  21134566.60948
  22519154.336 5  22519168.656 9 118338939.683 5  92212176.305 9  22519168.15647
  19820995.297 7  19821005.180 9 104160029.398 7  81163696.771 9  19821004.18449
  23683696.078 3  23683717.117 8 124458666.566 3  96980862.396 8  23683714.85946
  23116905.344 6  23116925.680 8 121480144.898 6  94659927.776 8  23116924.35247
 23  3 10  2 56 26.0000000  0  7G04G08G16G26G27G28G31               
  21250664.141 6  21250672.484 9 111672987.880 6  87017945.971 9  21250672.12147
  21008987.570 6  21009000.902 9 110402971.374 6  86028346.657 9  21008999.91449
  21134774.234 6                 111063983.080 6  86543389.92348  21134780.62948
  22519508.805 5  22519523.293 9 118340805.646 5  92213630.297 9  22519522.96947
  19820969.266 7  19820978.465 9 104159892.427 7  81163590.034 9  19820977.85549
  23684168.094 3  23684189.813 8 124461150.559 3  96982797.989 8  23684187.66446
  23117300.422 6  23117320.383 8 121482221.695 6  94661546.049 8  23117319.35947
 23  3 10  2 56 27.0000000  0  7G04G08G16G26G27G28G31               
  21250534.945 5  21250544.363 9 111672311.939 5  87017419.267 9  21250543.64147
  21008563.867 6  21008577.430 9 110400745.980 6  86026612.578 9  21008576.40649
  21134988.172 6                 111065109.106 6  86544267.33948  21134994.94148
  22519864.305 5  22519878.344 9 118342671.694 5  92215084.357 9  22519878.07047
  19820943.086 7  19820952.965 9 104159756.217 7  81163483.895 9  19820952.09049
  23684640.609 3  23684662.070 8 124463634.826 3  96984733.782 8  23684660.19546
  23117695.414 6  23117715.297 8 121484298.800 6  94663164.568 8  23117714.46547
 23  3 10  2 56 28.0000000  0  7G04G08G16G26G27G28G31               
  21250407.242 6  21250415.613 9 111671636.921 6  87016893.281 9  21250415.15247
  21008140.797 6  21008154.215 9 110398521.391 6  86024879.139 9  21008152.60949
  21135202.180 6                 111066235.559 6  86545145.09848  21135209.01248
  22520219.156 5  22520233.848 9 118344537.979 5  92216538.604 9  22520233.52047
  19820917.531 7  19820927.660 9 104159620.952 7  81163378.490 9  19820926.45349
  23685112.594 4  23685135.059 8 124466119.694 4  96986670.045 8  23685133.30946
  23118091.188 6  23118111.133 9 121486376.469 6  94664783.522 9  23118110.37547
 23  3 10  2 56 29.0000000  0  7G04G08G16G26G27G28G31               
  21250279.109 5  21250287.270 9 111670962.603 5  87016367.842 9  21250286.73047
  21007717.445 6  21007730.836 9 110396297.391 6  86023146.146 9  21007729.34449
  21135416.703 6                 111067362.217 6  86546023.01248  21135423.89548
  22520574.078 5  22520588.875 9 118346404.365 5  92217992.915 9  22520588.64547
  19820891.703 7  19820901.734 9 104159486.455 7  81163273.691 9  19820900.81649
  23685586.641 4  23685607.773 8 124468604.956 4  96988606.609 8  23685606.30946
  23118486.242 6  23118506.574 8 121488454.507 6  94666402.770 8  23118505.98847
 23  3 10  2 56 30.0000000  0  7G04G08G16G26G27G28G31               
  21250150.602 5  21250159.625 9 111670289.268 5  87015843.154 9  21250158.62947
  21007294.398 6  21007308.043 9 110394074.246 6  86021413.832 9  21007306.78149
  21135631.781 6                 111068489.398 6  86546901.33048  21135637.94948
  22520929.656 6  22520944.000 9 118348271.027 6  92219447.446 9  22520943.54347
  19820866.430 7  19820876.543 9 104159352.977 7  81163169.680 9  19820875.54349
  23686059.820 4  23686080.953 8 124471090.807 4  96990543.644 8  23686079.55146
  23118882.008 6  23118902.012 8 121490533.144 6  94668022.488 8  23118901.48847
 23  3 10  2 56 31.0000000  0  7G04G08G16G26G27G28G31               
  21250022.508 5  21250031.449 8 111669616.508 5  87015318.915 8  21250030.75447
  21006871.344 6  21006884.621 9 110391851.639 6  86019681.928 9  21006883.31349
  21135846.555 6                 111069616.676 6  86547779.72148  21135853.08248
  22521285.031 5  22521299.539 9 118350137.644 5  92220901.941 9  22521298.91047
  19820840.938 7  19820850.887 9 104159220.164 7  81163066.186 9  19820849.92649
  23686532.641 4  23686553.727 8 124473576.923 4  96992480.883 8  23686552.55546
  23119277.180 6  23119297.684 8 121492612.050 6  94669642.423 8  23119297.10547
 23  3 10  2 56 32.0000000  0  7G04G08G16G26G27G28G31               
  21249894.742 6  21249903.574 8 111668944.551 6  87014795.314 8  21249902.75447
  21006448.781 6  21006462.109 9 110389629.635 6  86017950.500 9  21006460.81349
  21136060.875 6                 111070744.208 6  86548658.30848  21136067.34848
  22521640.258 5  22521655.207 8 118352004.393 5  92222356.558 8  22521654.17247
  19820815.875 7  19820826.121 9 104159088.142 7  81162963.310 9  19820825.28149
  23687006.125 4  23687027.012 8 124476063.451 4  96994418.445 8  23687025.96545
  23119673.266 6  23119693.664 8 121494691.307 6  94671262.620 8  23119692.94147
 23  3 10  2 56 33.0000000  0  7G04G08G16G26G27G28G31               
  21249766.688 6  21249775.543 8 111668273.414 6  87014272.342 8  21249775.00447
  21006025.883 6  21006039.590 9 110387408.360 6  86016219.639 9  21006038.29749
  21136275.039 6                 111071872.073 6  86549537.15948  21136281.53148
  22521995.367 5  22522010.230 8 118353871.305 5  92223811.286 8  22522009.21547
  19820790.805 7  19820800.957 9 104158957.019 7  81162861.131 9  19820800.10949
  23687479.172 4  23687500.398 8 124478550.453 4  96996356.374 8  23687499.36746
  23120069.023 6  23120089.320 8 121496771.074 6  94672883.205 8  23120088.78947
 23  3 10  2 56 34.0000000  0  7G04G08G16G26G27G28G31               
  21249638.906 5  21249647.852 9 111667603.112 5  87013750.030 9  21249647.46147
  21005603.047 6  21005616.469 9 110385187.779 6  86014489.321 9  21005614.96149
  21136489.633 6                 111073000.246 6  86550416.24548  21136496.13348
  22522350.875 5  22522365.477 9 118355738.409 5  92225266.157 9  22522364.57447
  19820766.070 7  19820776.125 9 104158826.724 7  81162759.603 9  19820775.41049
  23687951.719 4  23687973.492 8 124481037.962 4  96998294.696 8  23687972.39546
  23120465.016 6  23120484.605 8 121498851.277 6  94674504.147 8  23120484.05147
 23  3 10  2 56 35.0000000  0  7G04G08G16G26G27G28G31               
  21249512.031 6  21249521.016 9 111666933.525 6  87013228.271 9  21249520.52347
  21005180.539 6  21005194.074 9 110382967.870 6  86012759.526 9  21005192.67249
  21136704.805 6                 111074128.718 6  86551295.56948  21136710.99248
  22522706.359 5  22522720.414 9 118357605.624 5  92226721.125 9  22522719.87547
  19820741.617 7  19820751.410 9 104158697.270 7  81162658.729 9  19820750.62549
  23688425.805 4  23688446.961 8 124483525.821 4  97000233.288 8  23688445.79746
  23120860.586 6  23120881.020 8 121500931.896 6  94676125.399 8  23120880.61747
 23  3 10  2 56 36.0000000  0  7G04G08G16G26G27G28G31               
  21249384.422 5  21249392.887 9 111666264.743 5  87012707.130 9  21249392.65647
  21004758.781 6  21004772.566 9 110380748.637 6  86011030.251 9  21004771.13749
  21136919.844 6                 111075257.448 6  86552175.09448  21136926.18448
  22523061.578 5  22523075.785 9 118359472.932 5  92228176.172 9  22523075.21947
  19820716.820 7  19820727.141 9 104158568.613 7  81162558.475 9  19820726.14849
  23688898.828 4  23688920.184 8 124486014.146 4  97002172.236 8  23688919.18846
  23121257.008 6  23121276.852 8 121503012.913 6  94677746.971 8  23121276.37547
 23  3 10  2 56 37.0000000  0  7G04G08G16G26G27G28G31               
  21249257.430 5  21249265.859 9 111665596.847 5  87012186.682 9  21249265.84047
  21004336.016 6  21004349.734 9 110378530.134 6  86009301.551 9  21004348.46549
  21137134.570 6                 111076386.566 6  86553054.92248  21137140.98448
  22523416.961 5  22523431.113 9 118361340.441 5  92229631.374 9  22523430.61747
  19820692.734 7  19820702.660 9 104158440.859 7  81162458.922 9  19820702.02349
  23689372.070 3  23689393.914 8 124488502.958 3  97004111.588 8  23689392.82046
  23121652.336 6  23121673.211 8 121505094.447 6  94679368.948 8  23121672.53547
 23  3 10  2 56 38.0000000  0  7G04G08G16G26G27G28G31               
  21249131.383 6  21249139.551 9 111664929.599 6  87011666.755 9  21249139.08247
  21003914.086 6  21003927.727 9 110376312.206 6  86007573.290 9  21003926.38349
  21137349.180 6                 111077515.826 6  86553934.86448  21137355.46148
  22523771.867 6  22523786.723 9 118363207.991 6  92231086.595 9  22523786.46547
  19820668.266 7  19820678.563 9 104158313.842 7  81162359.946 9  19820677.87949
  23689845.383 3  23689867.531 8 124490992.072 3  97006051.147 8  23689866.66045
  23122048.945 6  23122069.051 8 121507176.284 6  94680991.145 8  23122068.38747
 23  3 10  2 56 39.0000000  0  7G04G08G16G26G27G28G31               
  21249004.086 5  21249012.660 9 111664263.110 5  87011147.401 9  21249012.21947
  21003492.711 6  21003505.691 9 110374094.955 6  86005845.564 9  21003504.63749
  21137564.023 6                 111078645.392 6  86554815.03648  21137570.36748
  22524127.164 5  22524141.797 9 118365075.640 5  92232541.891 9  22524141.46547
  19820644.453 7  19820653.957 9 104158187.623 7  81162261.593 9  19820653.61749
  23690319.133 3  23690341.285 8 124493481.626 3  97007991.072 8  23690340.01246
  23122445.445 6  23122466.020 8 121509258.522 6  94682613.668 8  23122465.25047
 23  3 10  2 56 40.0000000  0  7G04G08G16G26G27G28G31               
  21248877.234 6  21248885.918 9 111663597.451 6  87010628.712 9  21248885.38747
  21003070.602 6  21003084.035 9 110371878.436 6  86004118.407 9  21003082.73449
  21137779.664 6                 111079775.255 6  86555695.44848  21137785.46948
  22524482.734 5  22524496.859 9 118366943.546 5  92233997.393 9  22524496.83647
  19820620.641 7  19820630.848 9 104158062.290 7  81162163.932 9  19820630.06349
  23690792.563 2  23690815.578 8 124495971.668 2  97009931.369 8  23690814.37546
  23122841.508 6  23122861.617 9 121511341.246 6  94684236.563 9  23122861.16447
 23  3 10  2 56 41.0000000  0  7G04G08G16G26G27G28G31               
  21248750.680 6  21248759.527 9 111662932.671 6  87010110.708 9  21248759.37547
  21002648.461 6  21002662.414 9 110369662.630 6  86002391.807 9  21002661.03949
  21137994.328 6                 111080905.514 6  86556576.16448  21138000.55548
  22524838.383 5  22524852.754 9 118368811.571 5  92235452.991 9  22524852.36347
  19820597.117 7  19820606.898 9 104157937.856 7  81162066.968 9  19820606.02349
  23691266.711 2  23691289.516 8 124498462.190 2  97011872.055 8  23691288.18046
  23123238.313 6  23123258.117 8 121513424.476 6  94685859.861 8  23123257.55547
 23  3 10  2 56 42.0000000  0  7G04G08G16G26G27G28G31               
  21248623.922 6  21248633.004 9 111662268.633 6  87009593.270 9  21248632.71947
  21002227.328 6  21002240.449 9 110367447.443 6  86000665.684 9  21002239.23449
  21138209.367 6                 111082036.024 6  86557457.08148  21138215.92648
  22525193.961 5  22525208.148 9 118370679.688 5  92236908.659 9  22525207.91447
  19820573.648 7  19820583.434 9 104157814.230 7  81161970.633 9  19820582.54749
  23691740.594 1  23691763.512 8 124500953.167 1  97013813.074 8  23691761.84846
  23123634.352 6  23123654.648 8 121515508.087 6  94687483.447 8  23123654.22747
 23  3 10  2 56 43.0000000  0  7G04G08G16G26G27G28G31               
  21248497.867 6  21248506.578 9 111661605.284 6  87009076.370 9  21248506.26247
  21001805.898 6  21001819.242 9 110365232.838 6  85998940.016 9  21001817.92249
  21138424.867 6                 111083166.715 6  86558338.14147  21138430.74647
  22525549.336 5  22525563.891 8 118372547.934 5  92238364.426 8  22525563.59847
  19820550.188 7  19820560.129 9 104157691.326 7  81161874.863 9  19820559.19949
  23692213.797 1  23692237.691 8 124503444.431 1  97015754.317 8  23692236.36746
  23124031.469 6  23124051.145 8 121517592.027 6  94689107.300 8  23124050.66847
 23  3 10  2 56 44.0000000  0  7G04G08G16G26G27G28G31               
  21248372.367 6  21248380.820 8 111660942.812 6  87008560.146 8  21248380.52747
  21001385.016 6  21001398.004 9 110363018.977 6  85997214.929 9  21001396.83649
  21138639.633 6                 111084297.793 6  86559219.49748  21138646.08648
  22525904.570 5  22525918.891 8 118374416.312 5  92239820.296 8  22525918.71547
  19820527.211 7  19820536.746 9 104157569.332 7  81161779.796 9  19820535.99649
  23692689.234 1  23692712.137 8 124505936.205 1  97017695.979 8  23692710.11345
  23124427.852 6  23124448.016 8 121519676.448 6  94690731.525 8  23124447.40247
 23  3 10  2 56 45.0000000  0  7G04G08G16G26G27G28G31               
  21248246.461 6  21248254.762 9 111660281.279 6  87008044.660 9  21248254.59447
  21000963.516 6  21000976.508 9 110360805.958 6  85995490.498 9  21000975.50449
  21138855.008 6                 111085429.317 6  86560101.19848  21138861.09048
  22526260.859 6  22526274.949 8 118376285.016 6  92241276.424 8  22526274.38747
  19820503.539 7  19820513.551 9 104157448.321 7  81161685.509 9  19820512.91849
  23693163.180 1  23693186.613 8 124508428.579 1  97019638.102 8  23693184.19146
  23124825.234 6  23124845.242 8 121521761.481 6  94692356.229 8  23124844.29747
 23  3 10  2 56 46.0000000  0  7G04G08G16G26G27G28G31               
  21248120.461 6  21248129.246 9 111659620.343 6  87007529.629 9  21248129.27347
  21000542.820 6  21000555.250 9 110358593.432 6  85993766.453 9  21000554.15649
  21139070.344 6                 111086560.955 6  86560982.99448  21139076.49248
  22526616.078 5  22526630.359 8 118378153.649 5  92242732.491 8  22526629.97747
  19820480.922 7  19820491.133 9 104157327.979 7  81161591.736 9  19820490.21549
  23693637.469 1  23693661.012 8 124510921.154 1  97021580.381 8  23693658.57845
  23125221.430 6  23125241.945 8 121523846.774 6  94693981.131 8  23125240.85247
 23  3 10  2 56 47.0000000  0  7G04G08G16G26G27G28G31               
  21247995.211 6  21248003.465 9 111658960.226 6  87007015.253 9  21248003.34047
  21000121.586 6  21000134.996 9 110356381.598 6  85992042.945 9  21000133.67249
  21139285.531 6                 111087692.897 6  86561865.02248  21139291.91048
  22526971.523 5  22526986.852 9 118380022.479 5  92244188.724 9  22526986.15647
  19820458.227 7  19820468.156 9 104157208.486 7  81161498.618 9  19820467.51649
  23694111.844 1  23694135.605 8 124513414.247 1  97023523.069 8  23694133.02046
  23125619.328 6  23125638.891 8 121525932.456 6  94695606.337 8  23125637.89547
 23  3 10  2 56 48.0000000  0  7G04G08G16G26G27G28G31               
  21247869.453 5  21247877.758 9 111658300.771 5  87006501.391 9  21247877.37947
  20999700.711 6  20999713.969 9 110354170.300 6  85990319.862 9  20999712.50449
  21139501.172 6                 111088825.025 6  86562747.18448  21139507.58248
  22527327.531 5  22527342.004 9 118381891.302 5  92245644.926 9  22527341.34847
  19820435.594 7  19820445.527 9 104157089.711 7  81161406.061 9  19820444.82449
  23694587.352 1  23694610.012 8 124515907.656 1  97025465.997 8  23694607.46145
  23126015.578 6  23126036.141 8 121528018.482 6  94697231.807 8  23126034.89847
 23  3 10  2 56 49.0000000  0  7G04G08G16G26G27G28G31               
  21247743.969 6  21247752.754 9 111657642.182 6  87005988.199 9  21247752.41047
  20999280.602 6  20999293.375 9 110351959.718 6  85988597.331 9  20999292.13749
  21139716.672 6                 111089957.488 6  86563629.62148  21139722.55948
  22527682.805 5  22527697.930 9 118383760.322 5  92247101.297 9  22527697.19547
  19820413.320 7  19820423.000 9 104156971.813 7  81161314.194 9  19820422.28149
  23695063.430 2  23695084.715 8 124518401.554 2  97027409.289 8  23695082.26645
  23126412.906 6  23126432.977 8 121530105.007 6  94698857.657 8  23126431.79747
 23  3 10  2 56 50.0000000  0  7G04G08G16G26G27G28G31               
  21247618.633 6  21247627.652 9 111656984.225 6  87005475.493 9  21247627.16447
  20998860.203 6  20998872.918 9 110349749.649 6  85986875.195 9  20998871.72749
  21139932.219 6                 111091090.103 6  86564512.17948  21139938.28148
  22528038.336 5  22528053.246 9 118385629.328 5  92248557.652 9  22528052.94547
  19820390.773 7  19820401.281 9 104156854.608 7  81161222.866 9  19820400.40249
  23695537.805 2  23695559.031 8 124520895.775 2  97029352.824 8  23695556.64145
  23126810.141 6  23126829.941 8 121532191.786 6  94700483.715 8  23126828.69147
 23  3 10  2 56 51.0000000  0  7G04G08G16G26G27G28G31               
  21247493.625 6  21247502.410 9 111656326.925 6  87004963.301 9  21247502.12147
  20998439.242 6  20998452.730 9 110347540.118 6  85985153.483 9  20998451.44149
  21140147.531 6                 111092222.864 6  86565394.84048  21140153.90648
  22528394.172 5  22528408.961 9 118387498.319 5  92250014.014 9  22528408.54347
  19820368.859 7  19820378.316 9 104156738.111 7  81161132.089 9  19820377.67649
  23696013.109 3  23696033.430 8 124523390.262 3  97031296.571 8  23696030.86745
  23127207.539 6  23127227.090 8 121534278.878 6  94702110.008 8  23127226.11747
 23  3 10  2 56 52.0000000  0  7G04G08G16G26G27G28G31               
  21247368.898 6  21247377.539 9 111655670.398 6  87004451.726 9  21247377.46947
  20998018.891 6  20998031.859 9 110345331.265 6  85983432.293 9  20998030.76649
  21140363.297 6                 111093355.932 6  86566277.74648  21140369.67248
  22528750.406 5  22528765.039 9 118389367.455 5  92251470.477 9  22528764.78147
  19820346.898 7  19820356.484 9 104156622.419 7  81161041.938 9  19820355.81649
  23696487.750 3  23696508.508 8 124525885.198 3  97033240.676 8  23696505.79745
  23127604.906 6  23127624.633 8 121536366.374 6  94703736.629 8  23127623.49247
 23  3 10  2 56 53.0000000  0  7G04G08G16G26G27G28G31               
  21247244.078 6  21247252.711 9 111655014.817 6  87003940.881 9  21247252.69147
  20997598.773 6  20997612.023 9 110343123.268 6  85981711.780 9  20997610.74249
  21140579.281 6                 111094489.431 6  86567160.98848  21140585.33648
  22529106.242 5  22529120.445 9 118391236.913 5  92252927.181 9  22529120.34847
  19820324.727 7  19820334.863 9 104156507.733 7  81160952.568 9  19820334.12149
  23696963.180 3  23696983.813 8 124528380.724 3  97035185.246 8  23696980.93045
  23128001.734 6  23128021.832 8 121538454.451 6  94705363.689 8  23128020.60547
 23  3 10  2 56 54.0000000  0  7G04G08G16G26G27G28G31               
  21247119.523 6  21247128.566 9 111654360.051 6  87003430.671 9  21247128.24647
  20997178.664 6  20997192.047 9 110340915.956 6  85979991.804 9  20997190.64549
  21140795.297 6                 111095623.250 6  86568044.48348  21140800.91048
  22529461.383 5  22529475.789 9 118393106.494 5  92254383.988 9  22529475.76247
  19820303.211 7  19820313.059 9 104156393.918 7  81160863.883 9  19820312.43849
  23697437.695 4  23697458.188 8 124530876.707 4  97037130.166 8  23697455.41045
  23128399.094 6  23128419.152 8 121540542.992 6  94706991.108 8  23128418.06647
 23  3 10  2 56 55.0000000  0  7G04G08G16G26G27G28G31               
  21246995.313 6  21247004.570 9 111653705.998 6  87002921.019 9  21247004.05147
  20996758.570 6  20996772.031 9 110338709.248 6  85978272.290 9  20996770.76649
  21141010.273 6                 111096757.279 6  86568928.15148  21141016.75848
  22529817.773 5  22529832.457 8 118394976.115 5  92255840.831 8  22529832.39147
  19820281.547 7  19820291.680 9 104156280.813 7  81160775.745 9  19820291.03549
  23697914.078 4  23697933.316 8 124533373.041 4  97039075.369 8  23697930.66046
  23128796.836 6  23128816.699 8 121542631.877 6  94708618.803 8  23128815.65647
 23  3 10  2 56 56.0000000  0  7G04G08G16G26G27G28G31               
  21246870.719 6  21246879.727 9 111653052.729 6  87002411.970 9  21246879.38747
  20996339.070 6  20996351.973 9 110336503.202 6  85976553.297 9  20996350.68849
  21141226.492 6                 111097891.583 6  86569812.02648  21141232.48048
  22530173.609 5  22530187.863 8 118396845.916 5  92257297.818 8  22530187.70747
  19820260.320 7  19820270.516 9 104156168.563 7  81160688.274 9  19820269.84449
  23698388.938 4  23698408.504 8 124535869.814 4  97041020.908 8  23698405.77346
  23129194.273 6  23129214.109 8 121544721.198 6  94710246.836 8  23129213.10947
 23  3 10  2 56 57.0000000  0  7G04G08G16G26G27G28G31               
  21246746.578 6  21246755.566 9 111652400.365 6  87001903.628 9  21246755.40247
  20995919.156 6  20995932.207 9 110334297.955 6  85974834.923 9  20995931.03949
  21141442.516 6                 111099026.325 6  86570696.22948  21141448.78548
  22530528.953 5  22530543.758 8 118398715.948 5  92258754.977 8  22530543.46947
  19820239.367 7  19820248.961 9 104156057.245 7  81160601.529 9  19820248.07449
  23698863.281 4  23698883.699 8 124538367.165 4  97042966.887 8  23698881.10246
  23129591.117 6  23129611.758 8 121546811.044 6  94711875.264 8  23129610.50447
 23  3 10  2 56 58.0000000  0  7G04G08G16G26G27G28G31               
  21246622.430 6  21246631.902 9 111651748.921 6  87001396.003 9  21246631.77747
  20995499.672 6  20995513.309 9 110332093.489 6  85973117.167 9  20995511.77049
  21141658.453 6                 111100161.473 6  86571580.76948  21141664.86748
  22530885.008 5  22530899.316 8 118400586.261 5  92260212.363 8  22530899.03147
  19820218.242 7  19820227.961 9 104155946.933 7  81160515.572 9  19820227.12949
  23699338.688 5  23699359.336 8 124540865.102 5  97044913.338 8  23699356.74646
  23129989.523 6  23130009.898 8 121548901.464 6  94713504.161 8  23130008.60547
 23  3 10  2 56 59.0000000  0  7G04G08G16G26G27G28G31               
  21246498.430 6  21246507.863 9 111651098.184 6  87000888.936 9  21246507.50847
  20995080.336 6  20995093.891 9 110329889.583 6  85971399.836 9  20995092.31349
  21141874.492 6                 111101296.818 6  86572465.44048  21141880.82448
  22531241.563 5  22531255.695 9 118402456.596 5  92261669.757 9  22531255.49247
  19820197.094 7  19820207.508 9 104155837.342 7  81160430.181 9  19820206.58249
  23699813.563 5  23699833.973 8 124543363.313 5  97046859.994 8  23699831.77346
  23130387.477 6  23130407.688 8 121550992.196 6  94715133.289 8  23130406.36747
 23  3 10  2 57  0.0000000  0  7G04G08G16G26G27G28G31               
  21246375.227 6  21246384.012 9 111650448.178 6  87000382.442 9  21246383.73447
  20994661.141 6  20994674.465 9 110327686.369 6  85969683.041 9  20994673.05149
  21142090.758 6                 111102432.434 6  86573350.33648  21142097.31348
  22531596.938 5  22531612.207 9 118404327.063 5  92263127.256 9  22531611.95347
  19820176.805 7  19820186.523 9 104155728.527 7  81160345.394 9  19820185.64149
  23700289.094 5  23700309.352 8 124545861.956 5  97048806.990 8  23700307.26646
  23130785.367 6  23130805.938 8 121553083.369 6  94716762.768 8  23130804.41447
 23  3 10  2 57  1.0000000  0  7G04G08G16G26G27G28G31               
  21246250.883 6  21246260.641 9 111649799.035 6  86999876.620 9  21246260.32047
  20994242.133 6  20994255.441 9 110325483.886 6  85967966.821 9  20994254.12949
  21142306.516 6                 111103568.378 6  86574235.47948  21142313.38348
  22531953.109 5  22531967.715 9 118406197.690 5  92264584.881 9  22531967.62947
  19820156.078 7  19820166.320 9 104155620.620 7  81160261.307 9  19820165.41049
  23700765.117 5  23700784.875 8 124548361.144 5  97050754.410 8  23700783.01646
  23131182.859 6  23131203.129 8 121555174.998 6  94718392.606 8  23131201.73047
 23  3 10  2 57  2.0000000  0  7G04G08G16G26G27G28G31               
  21246127.547 6  21246137.480 9 111649150.489 6  86999371.246 9  21246137.27347
  20993822.828 6  20993836.578 9 110323281.872 6  85966250.973 9  20993835.12149
  21142523.375 6                 111104704.410 6  86575120.70348  21142529.77748
  22532308.711 5  22532323.305 9 118408068.296 5  92266042.488 9  22532323.28547
  19820135.891 7  19820145.602 9 104155513.347 7  81160177.717 9  19820145.03149
  23701239.844 5  23701260.516 8 124550860.510 5  97052701.964 8  23701259.11746
  23131581.023 6  23131601.402 8 121557266.848 6  94720022.617 8  23131600.05547
 23  3 10  2 57  3.0000000  0  7G04G08G16G26G27G28G31               
  21246004.570 6  21246013.695 9 111648502.776 6  86998866.533 9  21246013.45347
  20993404.164 6  20993417.422 9 110321080.588 6  85964535.683 9  20993416.05149
  21142739.328 6                 111105840.808 6  86576006.21047  21142745.39847
  22532665.586 5  22532679.797 9 118409939.038 5  92267500.208 9  22532679.41047
  19820115.570 7  19820125.203 9 104155406.960 7  81160094.815 9  19820124.46549
  23701716.125 4  23701735.992 8 124553360.371 4  97054649.913 8  23701734.58246
  23131978.766 6  23131999.676 8 121559359.161 6  94721652.986 8  23131998.53147
 23  3 10  2 57  4.0000000  0  7G04G08G16G26G27G28G31               
  21245881.547 6  21245891.000 9 111647855.811 6  86998362.402 9  21245890.65247
  20992984.945 6  20992998.750 9 110318879.952 6  85962820.907 9  20992997.17649
  21142955.570 6                 111106977.450 6  86576891.89648  21142962.04748
  22533021.695 5  22533035.738 9 118411809.925 5  92268958.027 9  22533035.61747
  19820095.594 7  19820105.387 9 104155301.372 7  81160012.531 9  19820104.51249
  23702190.969 4  23702212.305 8 124555860.688 4  97056598.213 8  23702210.80946
  23132377.594 6  23132398.547 8 121561451.908 6  94723283.697 8  23132396.93447
 23  3 10  2 57  5.0000000  0  7G04G08G16G26G27G28G31               
  21245758.656 6  21245767.820 9 111647209.647 6  86997858.889 9  21245767.53947
  20992566.664 6  20992580.230 9 110316679.994 6  85961106.653 9  20992578.85549
  21143171.969 6                 111108114.406 6  86577777.82748  21143178.53548
  22533377.305 5  22533391.758 9 118413680.961 5  92270415.980 9  22533391.32447
  19820075.406 7  19820085.289 9 104155196.618 7  81159930.903 9  19820084.54749
  23702666.703 4  23702688.063 8 124558361.376 4  97058546.810 8  23702686.71946
  23132775.789 6  23132796.559 8 121563545.055 6  94724914.715 8  23132794.80947
 23  3 10  2 57  6.0000000  0  7G04G08G16G26G27G28G31               
  21245635.844 6  21245645.066 9 111646564.193 6  86997355.935 9  21245644.98847
  20992148.078 6  20992161.832 9 110314480.647 6  85959392.884 9  20992160.05549
  21143388.359 6                 111109251.527 6  86578663.89448  21143395.09848
  22533734.063 5  22533748.504 9 118415552.005 5  92271873.929 9  22533747.79747
  19820056.211 7  19820065.754 9 104155092.622 7  81159849.871 9  19820064.91049
  23703141.539 3  23703163.559 8 124560862.445 3  97060495.694 8  23703162.67246
  23133174.289 6  23133194.926 8 121565638.603 6  94726546.041 8  23133193.82047
 23  3 10  2 57  7.0000000  0  7G04G08G16G26G27G28G31               
  21245512.969 6  21245522.957 9 111645919.558 6  86996853.614 9  21245522.63347
  20991729.758 6  20991742.945 9 110312281.972 6  85957679.629 9  20991741.50449
  21143604.633 6                 111110389.029 6  86579550.25848  21143611.21148
  22534089.695 5  22534104.379 9 118417423.217 5  92273332.011 9  22534103.70347
  19820035.961 7  19820045.656 9 104154989.484 7  81159769.502 9  19820044.91849
  23703617.398 4  23703639.273 8 124563363.953 4  97062444.939 8  23703638.27346
  23133572.516 6  23133592.875 8 121567732.554 6  94728177.683 8  23133591.82447
 23  3 10  2 57  8.0000000  0  7G04G08G16G26G27G28G31               
  21245390.820 6  21245399.879 8 111645275.869 6  86996352.030 8  21245399.89547
  20991311.063 6  20991324.520 9 110310084.114 6  85955967.013 9  20991323.00849
  21143821.625 6                 111111526.915 6  86580436.90547  21143827.71547
  22534445.297 5  22534459.984 8 118419294.753 5  92274790.341 8  22534459.26647
  19820016.445 7  19820026.242 9 104154887.324 7  81159689.895 9  19820025.51649
  23704093.102 3  23704115.844 8 124565866.076 3  97064394.662 8  23704114.68445
  23133971.039 6  23133991.363 8 121569827.071 6  94729809.772 8  23133990.43447
 23  3 10  2 57  9.0000000  0  7G04G08G16G26G27G28G31               
  21245268.047 6  21245277.840 9 111644632.798 6  86995850.938 9  21245277.41847
  20990893.563 6  20990906.922 9 110307886.750 6  85954254.778 9  20990905.41049
  21144037.414 6                 111112664.975 6  86581323.70848  21144044.18048
  22534802.586 5  22534815.816 8 118421166.253 5  92276248.635 8  22534815.42247
  19819997.523 7  19820007.207 9 104154785.811 7  81159610.784 9  19820006.22749
  23704570.008 3  23704592.008 8 124568368.404 3  97066344.529 8  23704590.87945
  23134370.164 6  23134389.938 8 121571921.887 6  94731442.097 8  23134389.15647
 23  3 10  2 57 10.0000000  0  7G04G08G16G26G27G28G31               
  21245146.086 6  21245155.512 9 111643990.533 6  86995350.480 9  21245154.97747
  20990475.344 6  20990488.664 9 110305690.093 6  85952543.095 9  20990486.97749
  21144254.859 6                 111113803.331 6  86582210.73448  21144260.80548
  22535157.789 5  22535172.090 8 118423037.895 5  92277707.042 8  22535171.95347
  19819978.445 7  19819988.152 9 104154685.189 7  81159532.382 9  19819987.25449
  23705045.375 2  23705068.016 8 124570871.283 2  97068294.840 8  23705067.16046
  23134768.797 6  23134788.906 8 121574017.105 6  94733074.731 8  23134787.87947
 23  3 10  2 57 11.0000000  0  7G04G08G16G26G27G28G31               
  21245024.336 6  21245033.789 9 111643349.096 6  86994850.657 9  21245033.09447
  20990057.781 6  20990070.895 9 110303494.188 6  85950832.000 9  20990069.47349
  21144471.078 6                 111114942.022 6  86583098.02248  21144477.85948
  22535514.172 5  22535528.770 9 118424909.688 5  92279165.559 9  22535528.19947
  19819959.094 7  19819969.156 9 104154585.437 7  81159454.651 9  19819968.17249
  23705523.219 2  23705544.371 8 124573374.564 2  97070245.468 8  23705543.53946
  23135167.195 6  23135188.082 8 121576112.853 6  94734707.768 8  23135186.89147
 23  3 10  2 57 12.0000000  0  7G04G08G16G26G27G28G31               
  21244902.070 6  21244911.465 9 111642708.489 6  86994351.479 9  21244911.15247
  20989639.547 6  20989652.754 9 110301298.961 6  85949121.434 9  20989651.02349
  21144687.773 6                 111116081.014 6  86583985.54147  21144694.35247
  22535870.383 6  22535884.941 9 118426781.691 6  92280624.267 9  22535884.60247
  19819940.438 7  19819950.129 9 104154486.522 7  81159377.567 9  19819949.31649
  23705999.398 2  23706020.906 8 124575878.330 2  97072196.482 8  23706020.06646
  23135566.531 6  23135586.934 8 121578209.008 6  94736341.130 8  23135585.89547
 23  3 10  2 57 13.0000000  0  7G04G08G16G26G27G28G31               
  21244780.477 6  21244789.613 9 111642068.689 6  86993852.921 9  21244789.53147
  20989221.391 6  20989235.281 9 110299104.479 6  85947411.441 9  20989233.64549
  21144904.414 6                 111117220.316 6  86584873.30748  21144911.09448
  22536227.008 6  22536240.691 9 118428653.824 6  92282083.062 9  22536240.54747
  19819921.750 7  19819931.664 9 104154388.496 7  81159301.178 9  19819930.76649
  23706475.828 2  23706497.398 8 124578382.547 2  97074147.841 8  23706496.41846
  23135965.195 6  23135985.758 8 121580305.632 6  94737974.846 8  23135984.84847
 23  3 10  2 57 14.0000000  0  7G04G08G16G26G27G28G31               
  21244658.695 6  21244668.758 9 111641429.793 6  86993355.079 9  21244668.31347
  20988804.570 6  20988817.688 9 110296910.772 6  85945702.061 9  20988816.46549
  21145122.102 6                 111118360.052 6  86585761.41348  21145128.19948
  22536583.273 5  22536597.465 9 118430526.258 5  92283542.103 9  22536597.21547
  19819903.336 7  19819913.363 9 104154291.416 7  81159225.525 9  19819912.38749
  23706953.984 2  23706974.234 8 124580887.349 2  97076099.652 8  23706972.93846
  23136364.344 6  23136385.012 8 121582402.828 6  94739609.019 8  23136383.53547
 23  3 10  2 57 15.0000000  0  7G04G08G16G26G27G28G31               
  21244537.281 6  21244547.223 9 111640791.714 6  86992857.875 9  21244546.89547
  20988387.141 6  20988400.234 9 110294717.714 6  85943993.186 9  20988398.67249
  21145338.609 6                 111119500.087 6  86586649.74548  21145344.85548
  22536938.852 5  22536953.566 9 118432398.780 5  92285001.192 9  22536953.18047
  19819884.594 7  19819894.609 9 104154195.146 7  81159150.512 9  19819893.83649
  23707432.047 3  23707450.602 8 124583392.563 3  97078051.789 8  23707449.41445
  23136762.617 5  23136784.336 8 121584500.429 5  94741243.506 8  23136782.78547
 23  3 10  2 57 16.0000000  0  7G04G08G16G26G27G28G31               
  21244416.227 6  21244425.594 9 111640154.329 6  86992361.210 9  21244425.32847
  20987970.273 6  20987983.605 9 110292525.289 6  85942284.811 9  20987981.91449
  21145555.148 6                 111120640.321 6  86587538.23948  21145562.47348
  22537295.969 5  22537310.121 9 118434271.412 5  92286460.370 9  22537309.56347
  19819866.961 7  19819876.879 9 104154099.675 7  81159076.118 9  19819875.82849
  23707908.508 3  23707927.793 8 124585898.177 3  97080004.224 8  23707926.41845
  23137162.742 5  23137183.023 8 121586598.399 5  94742878.286 8  23137181.78147
 23  3 10  2 57 17.0000000  0  7G04G08G16G26G27G28G31               
  21244294.805 6  21244304.398 9 111639517.732 6  86991865.162 9  21244304.06647
  20987553.055 6  20987566.434 9 110290333.505 6  85940576.927 9  20987564.50449
  21145772.500 6                 111121780.839 6  86588426.95048  21145779.23048
  22537651.898 5  22537666.574 9 118436144.161 5  92287919.649 9  22537666.06347
  19819848.383 7  19819858.223 9 104154004.992 7  81159002.335 9  19819857.25449
  23708386.500 4  23708405.164 8 124588404.212 4  97081956.981 8  23708403.48446
  23137561.211 5  23137582.129 8 121588696.779 5  94744513.386 8  23137581.18847
 23  3 10  2 57 18.0000000  0  7G04G08G16G26G27G28G31               
  21244173.883 6  21244183.793 9 111638881.868 6  86991369.675 9  21244183.42647
  20987136.063 6  20987148.965 9 110288142.346 6  85938869.534 9  20987147.31649
  21145989.469 6                 111122921.602 6  86589315.86248  21145996.37948
  22538008.383 5  22538023.262 9 118438016.957 5  92289378.953 9  22538022.53547
  19819830.938 7  19819840.371 9 104153911.104 7  81158929.180 9  19819839.60249
  23708863.523 5  23708882.020 8 124590910.641 5  97083910.046 8  23708880.18446
  23137961.000 5  23137982.168 8 121590795.525 5  94746148.769 8  23137980.65247
 23  3 10  2 57 19.0000000  0  7G04G08G16G26G27G28G31               
  21244053.266 6  21244062.660 9 111638246.955 6  86990874.938 9  21244062.18447
  20986719.070 6  20986732.563 9 110285952.036 6  85937162.798 9  20986730.95349
  21146206.828 6                 111124062.827 6  86590205.12448  21146213.47348
  22538365.109 5  22538379.461 8 118439890.092 5  92290838.528 8  22538378.90247
  19819813.047 7  19819822.758 9 104153818.217 7  81158856.804 9  19819822.17249
  23709340.789 5  23709359.465 8 124593417.651 5  97085863.522 8  23709357.30145
  23138360.398 5  23138381.113 8 121592894.868 5  94747784.618 8  23138379.93447
 23  3 10  2 57 20.0000000  0  7G04G08G16G26G27G28G31               
  21243932.758 6  21243942.145 8 111637612.677 6  86990380.701 8  21243941.61747
  20986302.656 6  20986315.645 9 110283762.233 6  85935456.464 9  20986314.02049
  21146424.328 6                 111125204.164 6  86591094.46848  21146430.57448
  22538721.031 5  22538735.574 8 118441763.168 5  92292298.054 8  22538735.14847
  19819795.336 7  19819805.320 9 104153725.994 7  81158784.942 9  19819804.33249
  23709817.242 5  23709836.375 8 124595924.956 5  97087817.257 8  23709833.98446
  23138760.469 5  23138780.754 8 121594994.470 5  94749420.675 8  23138779.30947
 23  3 10  2 57 21.0000000  0  7G04G08G16G26G27G28G31               
  21243811.945 6  21243821.711 9 111636979.188 6  86989887.067 9  21243820.96147
  20985885.938 6  20985899.441 9 110281573.102 6  85933750.645 9  20985897.78149
  21146641.406 6                 111126345.793 6  86591984.05248  21146648.12548
  22539077.320 5  22539092.098 9 118443636.398 5  92293757.705 9  22539091.89147
  19819778.313 7  19819787.848 9 104153634.619 7  81158713.737 9  19819787.20749
  23710294.922 5  23710314.000 8 124598432.697 5  97089771.331 8  23710311.14146
  23139159.297 5  23139180.871 8 121597094.521 5  94751057.069 8  23139179.73447
 23  3 10  2 57 22.0000000  0  7G04G08G16G26G27G28G31               
  21243691.609 6  21243700.910 9 111636346.563 6  86989394.111 9  21243700.59847
  20985469.266 6  20985482.977 9 110279384.729 6  85932045.421 9  20985481.04349
  21146858.531 6                 111127487.786 6  86592873.91748  21146865.06648
  22539434.117 5  22539448.266 9 118445509.865 5  92295217.551 9  22539448.09847
  19819761.039 7  19819771.012 9 104153544.142 7  81158643.234 9  19819770.08649
  23710771.273 5  23710791.191 8 124600940.955 5  97091725.803 8  23710788.28546
  23139560.070 5  23139580.328 8 121599195.082 5  94752693.857 8  23139579.30547
 23  3 10  2 57 23.0000000  0  7G04G08G16G26G27G28G31               
  21243571.758 6  21243580.793 9 111635714.690 6  86988901.744 9  21243580.35947
  20985053.445 6  20985066.633 9 110277197.006 6  85930340.703 9  20985065.00049
  21147075.898 6                 111128630.032 6  86593763.97748  21147082.68448
  22539790.773 6  22539805.250 8 118447383.392 6  92296677.421 8  22539804.78547
  19819744.172 7  19819753.996 9 104153454.445 7  81158573.335 9  19819753.31349
  23711248.828 5  23711268.594 8 124603449.594 5  97093680.562 8  23711265.66846
  23139959.883 5  23139980.004 8 121601296.009 5  94754330.940 8  23139979.03547
 23  3 10  2 57 24.0000000  0  7G04G08G16G26G27G28G31               
  21243450.922 6  21243460.598 9 111635083.632 6  86988409.997 9  21243460.40647
  20984637.445 6  20984650.531 9 110275009.952 6  85928636.515 9  20984648.82449
  21147293.063 6                 111129772.569 6  86594654.26848  21147300.18048
  22540147.047 5  22540162.109 9 118449257.084 5  92298137.436 9  22540161.66447
  19819726.930 7  19819737.141 9 104153365.611 7  81158504.117 9  19819736.21549
  23711726.016 5  23711746.090 8 124605958.709 5  97095635.704 8  23711743.02346
  23140359.539 6  23140379.684 8 121603397.380 6  94755968.361 8  23140378.97347
 23  3 10  2 57 25.0000000  0  7G04G08G16G26G27G28G31               
  21243331.297 6  21243340.645 9 111634453.249 6  86987918.793 9  21243340.34447
  20984221.008 6  20984234.363 9 110272823.503 6  85926932.789 9  20984232.83649
  21147510.836 6                 111130915.300 6  86595544.70648  21147517.81648
  22540503.445 5  22540518.645 9 118451130.804 5  92299597.469 9  22540518.13347
  19819710.469 7  19819719.855 9 104153277.516 7  81158435.467 9  19819718.96149
  23712203.555 5  23712223.422 8 124608468.130 5  97097591.093 8  23712220.50446
  23140758.984 5  23140779.164 8 121605499.091 5  94757606.049 8  23140778.80947
 23  3 10  2 57 26.0000000  0  7G04G08G16G26G27G28G31               
  21243211.648 6  21243220.926 9 111633823.723 6  86987428.251 9  21243220.20747
  20983805.555 6  20983818.566 9 110270637.761 6  85925229.613 9  20983816.94549
  21147727.922 6                 111132058.410 6  86596435.42947  21147734.90647
  22540860.648 5  22540874.977 9 118453004.729 5  92301057.657 9  22540874.77747
  19819693.227 7  19819703.020 9 104153190.295 7  81158367.498 9  19819702.38349
  23712680.773 5  23712701.066 8 124610978.061 5  97099546.884 8  23712698.14546
  23141159.414 5  23141179.719 8 121607601.271 5  94759244.111 8  23141179.20347
 23  3 10  2 57 27.0000000  0  7G04G08G16G26G27G28G31               
  21243092.266 6  21243101.324 9 111633195.041 6  86986938.365 9  21243100.70347
  20983389.063 6  20983402.539 9 110268452.764 6  85923527.021 9  20983401.09849
  21147945.953 6                 111133201.848 6  86597326.41947  21147952.54347
  22541216.992 5  22541232.023 9 118454878.825 5  92302517.985 9  22541231.32847
  19819677.477 7  19819687.375 9 104153103.972 7  81158300.241 9  19819686.16849
  23713158.430 5  23713178.535 8 124613488.473 5  97101503.047 8  23713176.09446
  23141559.586 5  23141579.777 8 121609703.982 5  94760882.585 8  23141578.89847
 23  3 10  2 57 28.0000000  0  7G04G08G16G26G27G28G31               
  21242972.953 6  21242981.641 9 111632567.066 6  86986449.039 9  21242980.93447
  20982973.773 6  20982987.555 9 110266268.355 6  85921824.889 9  20982985.78149
  21148163.453 6                 111134345.503 6  86598217.56748  21148170.02348
  22541574.094 5  22541588.590 9 118456753.024 5  92303978.396 9  22541588.13347
  19819660.953 7  19819670.477 9 104153018.401 7  81158233.559 9  19819669.69949
  23713635.727 5  23713656.422 8 124615999.257 5  97103459.508 8  23713653.89546
  23141959.375 5  23141980.320 8 121611807.006 5  94762521.299 8  23141979.18447
 23  3 10  2 57 29.0000000  0  7G04G08G16G26G27G28G31               
  21242853.258 6  21242862.512 9 111631939.827 6  86985960.277 9  21242861.52047
  20982558.094 6  20982571.609 9 110264084.536 6  85920123.211 9  20982570.23049
  21148380.883 6                 111135489.388 6  86599108.91448  21148387.81348
  22541930.086 5  22541944.836 9 118458627.278 5  92305438.838 9  22541944.27047
  19819644.773 7  19819654.895 9 104152933.601 7  81158167.473 9  19819653.88749
  23714112.742 5  23714134.473 8 124618510.414 5  97105416.256 8  23714132.03146
  23142360.156 5  23142380.883 8 121613910.382 5  94764160.287 8  23142379.79347
 23  3 10  2 57 30.0000000  0  7G04G08G16G26G27G28G31               
  21242733.672 6  21242743.559 9 111631313.373 6  86985472.129 9  21242742.60947
  20982142.250 6  20982156.656 9 110261901.432 6  85918422.093 9  20982155.07449
  21148598.297 6                 111136633.565 6  86600000.46547  21148605.59847
  22542287.109 5  22542301.895 8 118460501.676 5  92306899.401 8  22542300.85247
  19819629.039 7  19819638.633 9 104152849.639 7  81158102.049 9  19819637.68849
  23714590.477 5  23714612.098 8 124621021.984 5  97107373.317 8  23714609.83646
  23142760.586 5  23142780.961 8 121616014.186 5  94765799.611 8  23142779.85547
 23  3 10  2 57 31.0000000  0  7G04G08G16G26G27G28G31               
  21242614.703 6  21242624.035 8 111630687.729 6  86984984.612 8  21242623.32847
  20981726.992 6  20981740.914 9 110259718.997 6  85916721.480 9  20981739.30549
  21148816.781 6                 111137778.067 6  86600892.28247  21148823.62147
  22542643.430 5  22542658.293 8 118462376.226 5  92308360.076 8  22542657.52047
  19819613.133 7  19819622.531 9 104152766.514 7  81158037.273 9  19819621.74249
  23715067.805 5  23715090.137 8 124623534.031 5  97109330.755 8  23715088.14846
  23143160.281 5  23143180.633 8 121618118.489 5  94767439.323 8  23143179.67247
 23  3 10  2 57 32.0000000  0  7G04G08G16G26G27G28G31               
  21242495.609 6  21242504.711 8 111630062.719 6  86984497.587 8  21242504.35947
  20981311.828 6  20981325.559 9 110257537.100 6  85915021.308 9  20981324.09849
  21149034.227 6                 111138922.662 6  86601784.16748  21149041.30948
  22543000.180 5  22543015.426 8 118464250.721 5  92309820.724 8  22543014.57047
  19819597.211 7  19819606.805 9 104152684.074 7  81157973.042 9  19819606.06649
  23715546.203 4  23715567.707 8 124626046.347 4  97111288.423 8  23715566.00446
  23143560.727 5  23143581.160 8 121620223.006 5  94769079.195 8  23143580.50047
 23  3 10  2 57 33.0000000  0  7G04G08G16G26G27G28G31               
  21242377.273 6  21242386.027 8 111629438.565 6  86984011.226 8  21242385.32047
  20980897.078 6  20980910.910 9 110255355.926 6  85913321.688 9  20980909.51249
  21149252.461 6                 111140067.650 6  86602676.35848  21149258.94148
  22543357.273 5  22543372.047 8 118466125.427 5  92311281.527 8  22543370.71547
  19819581.984 7  19819591.824 9 104152602.543 7  81157909.504 9  19819590.94549
  23716024.438 4  23716045.629 8 124628559.153 4  97113246.468 8  23716044.42246
  23143961.703 5  23143982.082 8 121622328.012 5  94770719.453 8  23143981.25447
 23  3 10  2 57 34.0000000  0  7G04G08G16G26G27G28G31               
  21242258.719 6  21242267.340 9 111628815.261 6  86983525.526 9  21242266.80947
  20980481.906 6  20980495.535 9 110253175.524 6  85911622.684 9  20980494.33249
  21149470.219 6                 111141212.988 6  86603568.82448  21149477.00848
  22543713.742 5  22543728.938 9 118468000.356 5  92312742.498 9  22543727.53147
  19819566.773 7  19819576.383 9 104152521.907 7  81157846.675 9  19819575.66049
  23716501.758 4  23716524.070 8 124631072.475 4  97115204.918 8  23716522.94146
  23144362.031 5  23144382.547 8 121624433.544 5  94772360.125 8  23144381.60947
 23  3 10  2 57 35.0000000  0  7G04G08G16G26G27G28G31               
  21242139.789 6  21242149.234 9 111628192.741 6  86983040.447 9  21242148.32047
  20980067.461 6  20980080.734 9 110250995.773 6  85909924.167 9  20980079.20349
  21149688.133 6                 111142358.588 6  86604461.49948  21149694.73848
  22544070.945 5  22544085.758 8 118469875.402 5  92314203.573 8  22544084.45747
  19819551.531 7  19819561.652 9 104152442.088 7  81157784.470 9  19819560.87149
  23716979.672 3  23717002.102 8 124633586.225 3  97117163.700 8  23717001.09846
  23144763.281 5  23144782.898 8 121626539.476 5  94774001.110 8  23144782.02347
 23  3 10  2 57 36.0000000  0  7G04G08G16G26G27G28G31               
  21242021.734 6  21242030.621 9 111627570.993 6  86982555.963 9  21242029.99247
  20979652.352 6  20979666.227 9 110248816.654 6  85908226.147 9  20979664.98449
  21149906.531 6                 111143504.454 6  86605354.37448  21149913.05948
  22544427.281 5  22544442.527 9 118471750.543 5  92315664.708 9  22544441.50847
  19819536.430 7  19819545.926 9 104152363.061 7  81157722.892 9  19819545.21549
  23717458.578 3  23717480.988 8 124636100.372 3  97119122.792 8  23717479.99646
  23145163.734 5  23145184.109 8 121628645.824 5  94775642.417 8  23145183.39847
 23  3 10  2 57 37.0000000  0  7G04G08G16G26G27G28G31               
  21241903.430 6  21241912.512 9 111626949.977 6  86982072.045 9  21241911.68447
  20979238.172 6  20979251.324 9 110246638.177 6  85906528.642 9  20979250.25449
  21150124.766 6                 111144650.589 6  86606247.45848  21150131.09448
  22544783.820 5  22544798.770 9 118473625.790 5  92317125.922 9  22544797.70747
  19819521.492 7  19819530.727 9 104152284.839 7  81157661.938 9  19819529.92249
  23717938.227 3  23717959.539 8 124638614.890 3  97121082.185 8  23717958.55546
  23145565.023 5  23145585.395 8 121630752.574 5  94777284.030 8  23145584.53547
 23  3 10  2 57 38.0000000  0  7G04G08G16G26G27G28G31               
  21241785.445 6  21241794.672 9 111626329.736 6  86981588.738 9  21241793.95347
  20978823.313 6  20978837.047 9 110244460.348 6  85904831.630 9  20978836.03149
  21150342.914 6                 111145796.956 6  86607140.72248  21150349.42248
  22545141.125 5  22545155.852 9 118475501.161 5  92318587.239 9  22545154.72747
  19819506.711 7  19819516.492 9 104152207.412 7  81157601.604 9  19819515.64849
  23718417.656 3  23718438.273 8 124641129.823 3  97123041.906 8  23718437.17246
  23145965.898 5  23145986.215 8 121632859.676 5  94778925.925 8  23145985.30547
 23  3 10  2 57 39.0000000  0  7G04G08G16G26G27G28G31               
  21241667.641 6  21241676.523 9 111625710.327 6  86981106.079 9  21241675.78947
  20978408.883 6  20978423.082 9 110242283.285 6  85903135.227 9  20978421.98849
  21150561.063 6                 111146943.673 6  86608034.26848  21150566.96148
  22545498.023 5  22545512.992 9 118477376.722 5  92320048.712 9  22545511.75847
  19819492.320 7  19819502.199 9 104152130.881 7  81157541.971 9  19819501.34049
  23718895.828 3  23718916.824 8 124643645.257 3  97125002.003 8  23718915.81646
  23146366.570 5  23146387.164 8 121634967.275 5  94780568.204 8  23146385.88347
 23  3 10  2 57 40.0000000  0  7G04G08G16G26G27G28G31               
  21241550.039 6  21241559.270 9 111625091.754 6  86980624.068 9  21241558.29347
  20977994.703 6  20978008.938 9 110240106.887 6  85901439.338 9  20978007.87149
  21150779.336 6                 111148090.740 6  86608928.09048  21150785.75048
  22545855.000 5  22545869.691 9 118479252.398 5  92321510.266 9  22545868.63347
  19819477.875 7  19819487.715 9 104152055.229 7  81157483.021 9  19819487.12149
  23719375.047 4  23719395.723 8 124646161.163 4  97126962.473 8  23719394.81346
  23146768.023 5  23146788.707 8 121637075.372 5  94782210.874 8  23146787.42247
 23  3 10  2 57 41.0000000  0  7G04G08G16G26G27G28G31               
  21241432.156 6  21241441.176 9 111624473.867 6  86980142.595 9  21241440.23447
  20977581.102 6  20977594.578 9 110237931.068 6  85899743.897 9  20977593.36749
  21150997.578 6                 111149237.963 6  86609822.03048  21151004.00048
  22546212.102 5  22546226.961 9 118481128.190 5  92322971.924 9  22546225.67647
  19819463.273 7  19819473.070 9 104151980.298 7  81157424.631 9  19819472.16049
  23719855.234 4  23719874.402 8 124648677.390 4  97128923.192 8  23719873.86746
  23147169.383 5  23147189.492 8 121639183.748 5  94783853.771 8  23147188.55547
 23  3 10  2 57 42.0000000  0  7G04G08G16G26G27G28G31               
  21241315.125 6  21241324.313 9 111623856.702 6  86979661.687 9  21241323.13347
  20977167.273 6  20977180.891 9 110235755.847 6  85898048.925 9  20977179.78149
  21151215.961 6                 111150385.401 6  86610716.12948  21151222.52048
  22546569.398 5  22546583.703 8 118483004.014 5  92324433.590 8  22546582.47747
  19819449.258 7  19819458.766 9 104151906.106 7  81157366.816 9  19819458.28549
  23720334.789 4  23720352.867 8 124651194.020 4  97130884.210 8  23720352.44546
  23147570.641 5  23147590.902 8 121641292.463 5  94785496.921 8  23147589.78147
 23  3 10  2 57 43.0000000  0  7G04G08G16G26G27G28G31               
  21241197.531 6  21241206.797 9 111623240.343 6  86979181.405 9  21241206.06347
  20976753.352 6  20976767.262 9 110233581.333 6  85896354.498 9  20976766.28149
  21151434.805 6                 111151533.184 6  86611610.50148  21151440.79348
  22546925.625 5  22546940.633 8 118484879.976 5  92325895.370 8  22546939.42647
  19819435.641 7  19819445.281 9 104151832.792 7  81157309.692 9  19819444.42249
  23720814.273 4  23720831.992 8 124653711.084 4  97132845.563 8  23720831.76246
  23147971.992 5  23147992.520 8 121643401.668 5  94787140.458 8  23147991.11347
 23  3 10  2 57 44.0000000  0  7G04G08G16G26G27G28G31               
  21241080.344 6  21241089.402 9 111622624.766 6  86978701.728 9  21241088.57447
  20976339.914 6  20976353.148 9 110231407.512 6  85894660.620 9  20976352.36749
  21151652.945 6                 111152681.235 6  86612505.08547  21151659.34047
  22547283.547 5  22547298.063 8 118486756.093 5  92327357.265 8  22547296.54347
  19819421.734 7  19819431.453 9 104151760.299 7  81157253.202 9  19819430.45349
  23721293.414 5  23721310.824 8 124656228.626 5  97134807.291 8  23721310.35946
  23148373.680 5  23148393.406 8 121645511.319 5  94788784.339 8  23148392.33247
 23  3 10  2 57 45.0000000  0  7G04G08G16G26G27G28G31               
  21240963.281 6  21240972.242 9 111622010.022 6  86978222.704 9  21240971.10947
  20975925.836 6  20975939.535 9 110229234.391 6  85892967.280 9  20975938.70749
  21151871.313 6                 111153829.583 6  86613399.89748  21151877.56348
  22547640.156 5  22547654.750 8 118488632.368 5  92328819.280 8  22547653.06647
  19819408.234 7  19819417.984 9 104151688.677 7  81157197.391 9  19819417.11349
  23721773.203 5  23721790.363 8 124658746.615 5  97136769.359 8  23721789.71546
  23148774.859 5  23148795.137 8 121647621.396 5  94790428.562 8  23148794.37547
 23  3 10  2 57 46.0000000  0  7G04G08G16G26G27G28G31               
  21240846.594 6  21240856.043 9 111621396.150 6  86977744.359 9  21240854.94947
  20975512.766 6  20975525.945 9 110227062.030 6  85891274.529 9  20975525.12149
  21152089.906 6                 111154978.363 6  86614295.04548  21152096.26648
  22547997.164 5  22548011.637 8 118490508.855 5  92330281.466 8  22548010.18447
  19819394.500 7  19819404.266 9 104151617.943 7  81157142.273 9  19819403.39549
  23722251.586 5  23722269.371 8 124661265.096 5  97138731.803 8  23722268.78546
  23149177.328 5  23149196.773 8 121649732.013 5  94792073.192 8  23149196.10947
 23  3 10  2 57 47.0000000  0  7G04G08G16G26G27G28G31               
  21240729.688 6  21240738.719 9 111620783.113 6  86977266.670 9  21240737.56347
  20975099.477 6  20975112.828 9 110224890.414 6  85889582.365 9  20975112.15649
  21152308.672 6                 111156127.419 6  86615190.41748  21152315.64848
  22548354.586 5  22548368.996 8 118492385.532 5  92331743.800 8  22548367.88347
  19819381.352 7  19819391.137 9 104151548.124 7  81157087.868 9  19819390.33249
  23722731.664 5  23722749.004 8 124663784.109 5  97140694.676 8  23722748.36346
  23149578.523 5  23149598.277 8 121651843.064 5  94793718.170 8  23149597.53947
 23  3 10  2 57 48.0000000  0  7G04G08G16G26G27G28G31               
  21240613.750 6  21240621.875 9 111620170.688 6  86976789.449 9  21240620.99247
  20974686.219 6  20974699.664 9 110222719.268 6  85887890.567 9  20974698.72749
  21152527.016 6                 111157276.647 6  86616085.90848  21152533.70748
  22548711.172 5  22548725.930 9 118494262.205 5  92333206.131 9  22548724.70747
  19819368.063 7  19819377.434 9 104151478.952 7  81157033.970 9  19819376.78949
  23723210.969 5  23723228.184 8 124666303.327 5  97142657.687 8  23723227.47346
  23149980.508 5  23150000.461 8 121653954.395 5  94795363.354 8  23149999.89847
 23  3 10  2 57 49.0000000  0  7G04G08G16G26G27G28G31               
  21240497.008 6  21240505.910 9 111619558.962 6  86976312.774 9  21240505.10247
  20974272.945 6  20974287.148 9 110220548.711 6  85886199.226 9  20974286.05549
  21152746.109 6                 111158426.038 6  86616981.52548  21152752.59448
  22549068.883 5  22549082.980 8 118496138.868 5  92334668.460 8  22549081.50447
  19819355.281 7  19819364.668 9 104151410.519 7  81156980.639 9  19819363.68449
  23723691.164 5  23723708.211 8 124668822.934 5  97144621.002 8  23723707.20346
  23150382.531 5  23150401.891 8 121656066.075 5  94797008.823 8  23150401.39547
 23  3 10  2 57 50.0000000  0  7G04G08G16G26G27G28G31               
  21240380.992 6  21240389.336 9 111618948.101 6  86975836.776 9  21240388.65647
  20973860.406 6  20973873.887 9 110218378.928 6  85884508.492 9  20973872.92649
  21152964.883 6                 111159575.803 6  86617877.44848  21152971.46148
  22549426.617 5  22549440.574 9 118498015.795 5  92336130.993 9  22549439.06347
  19819342.164 7  19819351.648 9 104151342.980 7  81156928.009 9  19819350.90649
  23724170.930 5  23724188.125 8 124671343.005 5  97146584.683 8  23724186.64146
  23150784.242 5  23150804.059 8 121658178.208 5  94798654.628 8  23150803.37547
 23  3 10  2 57 51.0000000  0  7G04G08G16G26G27G28G31               
  21240264.344 6  21240273.770 9 111618338.155 6  86975361.486 9  21240272.68047
  20973447.828 6  20973461.328 9 110216209.972 6  85882818.394 9  20973460.17649
  21153183.578 6                 111160725.975 6  86618773.69048  21153190.03148
  22549783.352 5  22549797.207 9 118499892.934 5  92337593.693 9  22549795.71547
  19819329.656 7  19819339.145 9 104151276.419 7  81156876.140 9  19819338.53949
  23724649.961 5  23724668.523 8 124673863.694 5  97148548.852 8  23724665.91446
  23151186.250 5  23151206.285 8 121660290.931 5  94800300.899 8  23151205.21947
 23  3 10  2 57 52.0000000  0  7G04G08G16G26G27G28G31               
  21240148.977 6  21240157.609 9 111617728.888 6  86974886.739 9  21240156.56647
  20973034.797 6  20973048.715 9 110214041.560 6  85881128.726 9  20973047.70349
  21153402.578 6                 111161876.307 6  86619670.04748  21153409.19548
  22550140.742 5  22550154.617 8 118501770.106 5  92339056.428 8  22550153.03147
  19819317.164 7  19819326.723 9 104151210.570 7  81156824.827 9  19819325.97749
  23725129.367 5  23725148.094 8 124676384.682 5  97150513.244 8  23725145.71546
  23151588.070 5  23151608.148 8 121662404.003 5  94801947.443 8  23151607.18847
 23  3 10  2 57 53.0000000  0  7G04G08G16G26G27G28G31               
  21240033.047 6  21240041.879 9 111617120.195 6  86974412.434 9  21240040.87547
  20972622.297 6  20972636.344 9 110211873.632 6  85879439.432 9  20972635.12549
  21153621.563 6                 111163026.726 6  86620566.46948  21153628.18448
  22550498.344 5  22550512.234 9 118503647.193 5  92340519.069 9  22550510.43847
  19819304.461 7  19819314.531 9 104151145.340 7  81156773.999 9  19819313.69149
  23725608.336 5  23725628.000 8 124678905.900 5  97152477.801 8  23725624.95346
  23151990.586 6  23152010.258 8 121664517.210 6  94803594.092 8  23152009.30147
 23  3 10  2 57 54.0000000  0  7G04G08G16G26G27G28G31               
  21239917.602 6  21239926.039 9 111616512.404 6  86973938.828 9  21239924.99647
  20972210.055 6  20972223.379 9 110209706.457 6  85877750.726 9  20972222.45749
  21153840.406 6                 111164177.541 6  86621463.20548  21153846.86348
  22550855.117 5  22550869.129 8 118505524.580 5  92341981.953 8  22550867.71947
  19819292.305 7  19819302.051 9 104151081.042 7  81156723.893 9  19819301.34049
  23726087.500 5  23726107.883 8 124681427.652 5  97154442.778 8  23726104.52046
  23152392.156 5  23152412.570 8 121666631.013 5  94805241.200 8  23152411.52347
 23  3 10  2 57 55.0000000  0  7G04G08G16G26G27G28G31               
  21239802.086 6  21239810.496 9 111615905.476 6  86973465.893 9  21239809.56347
  20971797.539 6  20971811.055 9 110207540.042 6  85876062.616 9  20971810.22349
  21154059.883 6                 111165328.705 6  86622360.21548  21154066.18848
  22551212.438 5  22551226.676 8 118507402.102 5  92343444.944 8  22551225.11347
  19819280.008 7  19819289.672 9 104151017.640 7  81156674.490 9  19819289.06649
  23726566.695 5  23726588.027 8 124683949.888 5  97156408.150 8  23726584.67246
  23152795.211 6  23152814.859 8 121668745.279 6  94806888.677 8  23152814.08247
 23  3 10  2 57 56.0000000  0  7G04G08G16G26G27G28G31               
  21239686.563 6  21239695.441 9 111615299.226 6  86972993.484 9  21239694.34447
  20971385.242 6  20971398.801 9 110205374.223 6  85874374.961 9  20971397.98049
  21154278.977 6                 111166480.033 6  86623257.35948  21154285.42648
  22551569.922 5  22551584.137 8 118509279.664 5  92344907.979 8  22551582.60247
  19819268.328 7  19819278.055 9 104150954.972 7  81156625.651 9  19819277.00049
  23727046.172 5  23727067.781 8 124686472.481 5  97158373.787 8  23727064.51646
  23153197.414 6  23153217.270 8 121670859.869 6  94808536.402 8  23153216.32047
 23  3 10  2 57 57.0000000  0  7G04G08G16G26G27G28G31               
  21239571.563 6  21239579.836 9 111614693.700 6  86972521.645 9  21239579.16047
  20970973.766 6  20970986.641 9 110203209.007 6  85872687.782 9  20970985.65649
  21154497.727 6                 111167631.630 6  86624154.69848  21154504.46548
  22551926.750 5  22551941.426 8 118511157.350 5  92346371.095 8  22551940.11347
  19819256.633 7  19819266.250 9 104150893.074 7  81156577.417 9  19819265.44949
  23727526.500 5  23727547.723 8 124688995.433 5  97160339.714 8  23727544.52346
  23153600.180 6  23153619.883 8 121672974.841 6  94810184.425 8  23153618.79747
 23  3 10  2 57 58.0000000  0  7G04G08G16G26G27G28G31               
  21239456.453 6  21239465.176 9 111614088.918 6  86972050.378 9  21239464.14147
  20970561.578 6  20970574.754 9 110201044.373 6  85871001.051 9  20970573.66449
  21154717.039 6                 111168783.428 6  86625052.20148  21154724.01648
  22552284.375 5  22552298.875 8 118513035.070 5  92347834.244 8  22552297.54747
  19819245.000 7  19819254.438 9 104150831.972 7  81156529.800 9  19819253.83249
  23728006.102 5  23728027.957 8 124691518.774 5  97162305.951 8  23728025.02746
  23154002.289 6  23154022.152 8 121675090.168 6  94811832.727 8  23154021.10547
 23  3 10  2 57 59.0000000  0  7G04G08G16G26G27G28G31               
  21239341.078 6  21239350.199 9 111613484.963 6  86971579.760 9  21239349.24247
  20970149.664 6  20970163.301 9 110198880.535 6  85869314.945 9  20970162.27349
  21154936.570 6                 111169935.592 6  86625949.98848  21154942.74248
  22552641.516 5  22552655.289 9 118514913.008 5  92349297.563 9  22552654.28147
  19819233.570 7  19819243.238 9 104150771.741 7  81156482.868 9  19819242.41849
  23728486.414 5  23728507.910 8 124694042.582 5  97164272.563 8  23728505.31646
  23154405.102 6  23154424.707 8 121677205.992 6  94813481.411 8  23154423.92647
 23  3 10  2 58  0.0000000  0  7G04G08G16G26G27G28G31               
  21239226.313 6  21239235.313 9 111612881.664 6  86971109.654 9  21239234.10547
  20969737.703 6  20969751.691 9 110196717.152 6  85867629.197 9  20969750.62549
  21155155.867 6                 111171087.866 6  86626847.86248  21155162.14848
  22552999.180 5  22553013.129 9 118516790.877 5  92350760.829 9  22553011.98447
  19819222.008 7  19819231.613 9 104150712.154 7  81156436.432 9  19819230.80949
  23728966.133 5  23728987.883 8 124696566.662 5  97166239.377 8  23728985.89546
  23154807.383 6  23154827.625 8 121679322.051 6  94815130.281 8  23154826.75847
 23  3 10  2 58  1.0000000  0  7G04G08G16G26G27G28G31               
  21239112.078 6  21239120.652 9 111612279.162 6  86970640.169 9  21239119.61747
  20969326.625 6  20969340.535 9 110194554.545 6  85865944.045 9  20969339.12549
  21155374.781 6                 111172240.484 6  86627746.00648  21155381.87548
  22553356.648 5  22553370.809 9 118518668.979 5  92352224.271 9  22553369.64147
  19819211.461 7  19819220.961 9 104150653.474 7  81156390.714 9  19819220.19149
  23729445.906 4  23729467.723 8 124699091.252 4  97168206.604 8  23729466.39546
  23155210.648 6  23155230.566 8 121681438.615 6  94816779.538 8  23155229.68847
 23  3 10  2 58  2.0000000  0  7G04G08G16G26G27G28G31               
  21238997.336 6  21239006.523 9 111611677.368 6  86970171.241 9  21239005.52747
  20968915.133 6  20968928.695 9 110192392.466 6  85864259.311 9  20968927.20749
  21155594.180 6                 111173393.266 6  86628644.27548  21155601.25448
  22553713.734 5  22553728.137 9 118520547.066 5  92353687.704 9  22553727.13347
  19819199.969 7  19819209.320 9 104150595.501 7  81156345.534 9  19819208.53149
  23729926.008 4  23729947.996 8 124701616.110 4  97170174.033 8  23729946.43846
  23155612.883 6  23155632.848 8 121683555.487 6  94818429.035 8  23155632.03947
 23  3 10  2 58  3.0000000  0  7G04G08G16G26G27G28G31               
  21238883.016 6  21238892.059 9 111611076.507 6  86969703.031 9  21238891.23847
  20968503.711 6  20968517.344 9 110190231.229 6  85862575.231 9  20968516.00849
  21155813.758 6                 111174546.516 6  86629542.91048  21155820.43048
  22554071.398 5  22554085.566 9 118522425.446 5  92355151.370 9  22554084.56347
  19819188.734 7  19819198.426 9 104150538.511 7  81156301.129 9  19819197.54349
  23730407.148 4  23730428.586 8 124704141.603 4  97172141.965 8  23730427.31646
  23156015.672 5  23156035.840 8 121685672.918 5  94820078.976 8  23156035.16447
 23  3 10  2 58  4.0000000  0  7G04G08G16G26G27G28G31               
  21238768.695 6  21238777.566 9 111610476.284 6  86969235.325 9  21238776.61747
  20968092.539 6  20968106.359 9 110188070.513 6  85860891.555 9  20968105.11349
  21156033.148 6                 111175699.849 6  86630441.59848  21156039.93048
  22554428.391 5  22554443.105 9 118524303.803 5  92356615.013 9  22554442.16847
  19819178.039 7  19819188.039 9 104150482.179 7  81156257.230 9  19819187.02749
  23730888.188 3  23730909.164 8 124706667.348 3  97174110.102 8  23730907.89146
  23156419.078 6  23156439.250 8 121687790.626 6  94821729.130 8  23156438.39847
 23  3 10  2 58  5.0000000  0  7G04G08G16G26G27G28G31               
  21238654.516 6  21238663.605 9 111609876.746 6  86968768.147 9  21238662.57447
  20967681.414 6  20967695.066 9 110185910.349 6  85859208.317 9  20967693.72349
  21156252.492 6                 111176853.397 6  86631340.46448  21156259.74248
  22554785.648 5  22554800.613 9 118526182.222 5  92358078.705 9  22554799.59447
  19819167.477 7  19819177.527 9 104150426.612 7  81156213.929 9  19819176.70749
  23731368.180 3  23731390.586 8 124709193.387 3  97176078.469 8  23731389.05546
  23156821.984 5  23156842.934 8 121689908.665 5  94823379.544 8  23156841.53147
 23  3 10  2 58  6.0000000  0  7G04G08G16G26G27G28G31               
  21238540.492 6  21238549.520 9 111609278.039 6  86968301.621 9  21238548.55147
  20967270.781 6  20967284.152 9 110183750.923 6  85857525.654 9  20967282.76649
  21156472.492 6                 111178007.297 6  86632239.60648  21156478.80148
  22555143.250 5  22555158.078 8 118528060.797 5  92359542.519 8  22555157.24647
  19819157.586 7  19819167.414 9 104150371.918 7  81156171.311 9  19819166.67649
  23731849.320 3  23731871.020 8 124711719.947 3  97178047.242 8  23731869.87546
  23157224.859 5  23157245.773 8 121692027.201 5  94825030.346 8  23157244.66847
 23  3 10  2 58  7.0000000  0  7G04G08G16G26G27G28G31               
  21238426.344 6  21238435.758 9 111608680.170 6  86967835.755 9  21238434.95747
  20966859.633 6  20966873.543 9 110181592.182 6  85855843.520 9  20966872.40649
  21156691.766 6                 111179161.493 6  86633138.97148  21156699.16448
  22555501.141 5  22555515.535 8 118529939.528 5  92361006.457 8  22555514.56347
  19819147.016 7  19819156.641 9 104150318.059 7  81156129.343 9  19819155.80149
  23732330.703 3  23732351.945 8 124714246.996 3  97180016.402 8  23732350.85546
  23157628.094 5  23157649.016 8 121694146.166 5  94826681.483 8  23157647.82447
 23  3 10  2 58  8.0000000  0  7G04G08G16G26G27G28G31               
  21238313.070 6  21238322.234 9 111608083.084 6  86967370.486 9  21238321.16447
  20966448.734 6  20966463.000 9 110179434.163 6  85854161.952 9  20966461.62549
  21156911.531 6                 111180315.996 6  86634038.58248  21156918.75048
  22555858.680 5  22555872.879 8 118531818.446 5  92362470.540 8  22555872.14147
  19819137.055 7  19819146.785 9 104150265.069 7  81156088.058 9  19819145.88749
  23732812.898 3  23732833.094 8 124716774.458 3  97181985.873 8  23732832.06346
  23158031.219 5  23158052.238 8 121696265.605 5  94828332.989 8  23158051.51647
 23  3 10  2 58  9.0000000  0  7G04G08G16G26G27G28G31               
  21238199.305 6  21238208.777 9 111607486.715 6  86966905.783 9  21238207.81347
  20966038.570 6  20966052.711 9 110177276.726 6  85852480.838 9  20966051.11749
  21157130.984 6                 111181470.692 6  86634938.34248  21157138.40648
  22556216.258 5  22556231.152 8 118533697.379 5  92363934.624 8  22556230.07847
  19819127.063 7  19819136.898 9 104150212.812 7  81156047.334 9  19819135.80949
  23733294.203 4  23733314.305 8 124719302.290 4  97183955.630 8  23733313.46146
  23158434.672 5  23158455.320 8 121698385.327 5  94829984.719 8  23158454.84447
 23  3 10  2 58 10.0000000  0  7G04G08G16G26G27G28G31               
  21238086.031 6  21238095.887 9 111606891.090 6  86966441.654 9  21238094.96947
  20965628.164 6  20965642.184 9 110175119.960 6  85850800.245 9  20965640.48049
  21157351.266 6                 111182625.649 6  86635838.30348  21157358.33248
  22556573.336 6  22556588.383 8 118535576.411 6  92365398.796 8  22556587.20347
  19819117.141 7  19819127.102 9 104150161.350 7  81156007.233 9  19819126.14149
  23733775.773 4  23733794.859 8 124721830.508 4  97185925.685 8  23733794.40246
  23158838.461 5  23158858.883 8 121700505.497 5  94831636.794 8  23158858.24647
 23  3 10  2 58 11.0000000  0  7G04G08G16G26G27G28G31               
  21237973.094 6  21237981.574 9 111606296.076 6  86965978.010 9  21237980.96147
  20965217.359 6  20965232.027 9 110172963.655 6  85849120.012 9  20965230.07449
  21157570.758 6                 111183780.697 6  86636738.34048  21157577.83648
  22556931.602 5  22556946.230 8 118537455.424 5  92366862.953 8  22556945.06347
  19819107.555 7  19819117.227 9 104150110.537 7  81155967.635 9  19819116.38749
  23734257.547 5  23734275.969 8 124724358.991 5  97187895.940 8  23734275.60246
  23159242.008 5  23159262.531 8 121702625.889 5  94833289.048 8  23159261.65247
 23  3 10  2 58 12.0000000  0  7G04G08G16G26G27G28G31               
  21237859.938 6  21237868.813 9 111605701.948 6  86965515.050 9  21237867.98447
  20964807.125 6  20964821.074 9 110170808.147 6  85847440.395 9  20964819.48849
  21157791.195 6                 111184936.129 6  86637638.68048  21157797.96148
  22557288.883 6  22557303.465 8 118539334.642 6  92368327.271 8  22557302.27747
  19819098.234 7  19819107.488 9 104150060.649 7  81155928.765 9  19819106.93449
  23734738.188 5  23734757.723 8 124726888.000 5  97189866.600 8  23734757.43046
  23159645.508 5  23159666.355 8 121704746.787 5  94834941.695 8  23159665.47347
 23  3 10  2 58 13.0000000  0  7G04G08G16G26G27G28G31               
  21237747.297 6  21237756.164 9 111605108.581 6  86965052.688 9  21237755.21147
  20964397.164 6  20964411.059 9 110168653.272 6  85845761.271 9  20964409.58249
  21158010.828 6                 111186091.861 6  86638539.24448  21158017.95748
  22557646.453 5  22557661.488 9 118541213.995 5  92369791.699 9  22557660.26247
  19819088.633 7  19819098.305 9 104150011.582 7  81155890.530 9  19819097.54349
  23735219.867 5  23735238.711 8 124729417.451 5  97191837.607 8  23735238.55146
  23160049.484 5  23160069.273 8 121706868.114 5  94836594.680 8  23160068.52747
 23  3 10  2 58 14.0000000  0  7G04G08G16G26G27G28G31               
  21237634.578 6  21237643.203 9 111604515.870 6  86964590.830 9  21237642.30147
  20963987.422 6  20964001.008 9 110166498.957 6  85844082.585 9  20963999.71549
  21158230.977 6                 111187247.683 6  86639439.87748  21158237.98848
  22558004.375 6  22558019.074 9 118543093.300 6  92371256.076 9  22558017.86747
  19819079.664 7  19819089.117 9 104149963.191 7  81155852.817 9  19819088.28549
  23735701.469 5  23735720.227 8 124731947.167 5  97193808.813 8  23735720.35546
  23160453.039 5  23160473.742 8 121708989.704 5  94838247.866 8  23160472.78547
 23  3 10  2 58 15.0000000  0  7G04G08G16G26G27G28G31               
  21237521.883 6  21237531.191 9 111603924.008 6  86964129.630 9  21237530.45347
  20963577.836 6  20963591.664 9 110164345.357 6  85842404.460 9  20963590.08249
  21158451.211 6                 111188403.892 6  86640340.82148  21158458.10948
  22558362.086 6  22558376.883 9 118544972.831 6  92372720.646 9  22558375.53947
  19819070.500 7  19819080.629 9 104149915.671 7  81155815.793 9  19819079.60549
  23736183.289 5  23736201.387 8 124734477.394 5  97195780.422 8  23736201.89146
  23160856.719 5  23160877.324 8 121711111.779 5  94839901.438 8  23160876.28547
 23  3 10  2 58 16.0000000  0  7G04G08G16G26G27G28G31               
  21237409.500 6  21237417.820 9 111603333.016 6  86963669.114 9  21237417.21947
  20963168.008 6  20963181.895 9 110162192.487 6  85840726.893 9  20963180.03149
  21158671.203 6                 111189560.450 6  86641242.03448  21158677.85548
  22558719.578 5  22558734.324 9 118546852.581 5  92374185.379 9  22558733.10947
  19819061.945 7  19819071.480 9 104149869.098 7  81155779.502 9  19819070.66049
  23736664.617 5  23736682.930 8 124737008.123 5  97197752.418 8  23736683.78546
  23161261.063 5  23161281.855 8 121713234.368 5  94841555.404 8  23161280.37147
 23  3 10  2 58 17.0000000  0  7G04G08G16G26G27G28G31               
  21237296.758 6  21237305.625 9 111602742.644 6  86963209.082 9  21237305.10547
  20962758.500 6  20962772.355 9 110160040.131 6  85839049.734 9  20962770.63749
  21158891.227 6                 111190717.143 6  86642143.35148  21158898.41448
  22559077.320 5  22559091.566 9 118548732.271 5  92375650.058 9  22559090.44547
  19819052.961 7  19819062.750 9 104149823.158 7  81155743.695 9  19819061.82849
  23737145.766 5  23737164.832 8 124739539.121 5  97199724.622 8  23737165.20746
  23161665.250 6  23161685.805 8 121715357.232 6  94843209.586 8  23161684.67647
 23  3 10  2 58 18.0000000  0  7G04G08G16G26G27G28G31               
  21237184.938 6  21237193.941 9 111602153.120 6  86962749.714 9  21237193.19947
  20962349.195 6  20962362.785 9 110157888.498 6  85837373.136 9  20962361.18449
  21159111.422 6                 111191874.164 6  86643044.92248  21159118.15248
  22559434.945 5  22559449.766 9 118550612.186 5  92377114.914 9  22559448.80947
  19819044.445 7  19819054.109 9 104149778.120 7  81155708.604 9  19819053.12549
  23737626.852 5  23737646.023 8 124742070.617 5  97201697.214 8  23737646.82846
  23162069.141 6  23162089.660 8 121717480.553 6  94844864.119 8  23162088.57447
 23  3 10  2 58 19.0000000  0  7G04G08G16G26G27G28G31               
  21237072.547 6  21237081.906 8 111601564.290 6  86962290.882 8  21237081.00447
  20961939.453 6  20961953.430 9 110155737.461 6  85835697.000 9  20961951.98449
  21159331.922 6                 111193031.355 6  86643946.63448  21159338.68048
  22559792.586 5  22559807.945 8 118552492.117 5  92378579.788 8  22559806.80947
  19819036.055 7  19819045.500 9 104149733.798 7  81155674.063 9  19819044.51249
  23738109.047 5  23738127.762 8 124744602.428 5  97203670.056 8  23738128.34846
  23162473.750 6  23162493.109 8 121719604.229 6  94846518.932 8  23162492.35247
 23  3 10  2 58 20.0000000  0  7G04G08G16G26G27G28G31               
  21236960.672 5  21236969.508 9 111600976.176 5  86961832.603 9  21236968.71947
  20961530.484 6  20961543.863 9 110153587.034 6  85834021.347 9  20961542.27349
  21159551.945 6                 111194188.801 6  86644848.53348  21159558.94548
  22560149.867 5  22560164.945 8 118554372.112 5  92380044.708 8  22560163.97347
  19819027.516 7  19819037.156 9 104149690.264 7  81155640.141 9  19819036.14549
  23738590.328 5  23738609.930 8 124747134.646 5  97205643.214 8  23738610.16046
  23162876.938 6  23162897.641 8 121721728.233 6  94848173.993 8  23162896.78947
 23  3 10  2 58 21.0000000  0  7G04G08G16G26G27G28G31               
  21236849.367 6  21236857.980 9 111600388.955 6  86961375.022 9  21236857.07847
  20961121.250 6  20961135.473 9 110151437.376 6  85832346.291 9  20961133.74649
  21159772.039 6                 111195346.598 6  86645750.70748  21159779.23848
  22560507.906 5  22560523.297 9 118556252.332 5  92381509.809 9  22560522.28547
  19819019.883 7  19819029.016 9 104149647.639 7  81155606.925 9  19819028.18049
  23739072.070 5  23739091.777 8 124749667.358 5  97207616.748 8  23739092.05146
  23163282.273 6  23163301.227 8 121723852.765 6  94849829.477 8  23163300.78147
 23  3 10  2 58 22.0000000  0  7G04G08G16G26G27G28G31               
  21236738.102 6  21236746.352 9 111599802.302 6  86960917.883 9  21236745.18047
  20960712.430 6  20960726.031 9 110149288.180 6  85830671.593 9  20960724.32849
  21159991.984 6                 111196504.454 6  86646652.93548  21159999.56648
  22560865.367 5  22560881.152 9 118558132.472 5  92382974.848 9  22560880.02047
  19819011.703 7  19819021.883 9 104149605.619 7  81155574.181 9  19819020.76649
  23739554.266 5  23739573.707 8 124752200.282 5  97209590.454 8  23739573.63746
  23163686.188 6  23163706.043 8 121725977.514 6  94851485.122 8  23163705.60247
 23  3 10  2 58 23.0000000  0  7G04G08G16G26G27G28G31               
  21236626.055 6  21236635.035 9 111599216.376 6  86960461.314 9  21236633.85947
  20960303.500 6  20960317.168 9 110147139.623 6  85828997.393 9  20960315.39849
  21160212.836 6                 111197662.562 6  86647555.35348  21160220.31648
  22561223.086 5  22561238.992 9 118560012.703 5  92384439.955 9  22561237.99247
  19819003.820 7  19819013.430 9 104149564.389 7  81155542.048 9  19819012.55149
  23740035.867 5  23740055.805 8 124754733.607 5  97211564.473 8  23740055.32846
  23164090.844 6  23164110.406 8 121728102.627 6  94853141.046 8  23164109.78547
 23  3 10  2 58 24.0000000  0  7G04G08G16G26G27G28G31               
  21236514.602 6  21236523.359 9 111598631.398 6  86960005.479 9  21236522.23047
  20959895.109 6  20959908.570 9 110144991.938 6  85827323.870 9  20959906.78149
  21160433.344 6                 111198821.132 6  86648458.13148  21160440.56648
  22561581.367 5  22561596.457 9 118561893.188 5  92385905.260 9  22561595.59447
  19818996.242 7  19819005.688 9 104149524.141 7  81155510.688 9  19819005.00049
  23740517.523 5  23740538.250 8 124757267.478 5  97213538.900 8  23740537.75846
  23164494.969 6  23164514.477 8 121730228.333 6  94854797.439 8  23164513.82047
 23  3 10  2 58 25.0000000  0  7G04G08G16G26G27G28G31               
  21236403.336 6  21236412.598 9 111598047.157 6  86959550.223 9  21236411.49247
  20959486.242 6  20959499.848 9 110142844.835 6  85825650.804 9  20959498.12949
  21160653.531 6                 111199979.896 6  86649361.05848  21160660.85948
  22561938.719 5  22561954.664 9 118563773.761 5  92387370.633 9  22561953.78147
  19818988.688 7  19818998.047 9 104149484.653 7  81155479.918 9  19818997.25049
  23740999.164 4  23741020.805 8 124759801.750 4  97215513.653 8  23741019.85545
  23164900.023 6  23164919.723 8 121732354.418 6  94856454.124 8  23164918.69947
 23  3 10  2 58 26.0000000  0  7G04G08G16G26G27G28G31               
  21236292.172 6  21236301.285 9 111597463.610 6  86959095.504 9  21236300.09447
  20959078.180 6  20959091.457 9 110140698.328 6  85823978.199 9  20959089.79749
  21160874.117 6                 111201138.877 6  86650264.15548  21160881.37948
  22562296.328 5  22562312.621 9 118565654.415 5  92388836.074 9  22562311.61747
  19818981.609 7  19818990.988 9 104149445.938 7  81155449.749 9  19818990.02049
  23741481.078 4  23741503.301 8 124762336.368 4  97217488.674 8  23741502.08646
  23165303.828 6  23165324.441 8 121734480.798 6  94858111.043 8  23165323.53147
 23  3 10  2 58 27.0000000  0  7G04G08G16G26G27G28G31               
  21236181.211 6  21236190.582 9 111596880.823 6  86958641.389 9  21236189.37147
  20958670.000 6  20958683.523 9 110138552.477 6  85822306.107 9  20958681.69149
  21161094.758 6                 111202298.126 6  86651167.46248  21161101.89848
  22562654.727 5  22562670.730 9 118567535.170 5  92390301.587 9  22562669.68447
  19818974.063 7  19818983.520 9 104149408.010 7  81155420.187 9  19818982.63349
  23741963.133 4  23741985.582 8 124764871.400 4  97219464.019 8  23741983.84046
  23165709.477 6  23165729.309 8 121736607.629 6  94859768.305 8  23165728.43847
 23  3 10  2 58 28.0000000  0  7G04G08G16G26G27G28G31               
  21236070.680 6  21236080.176 9 111596298.861 6  86958187.905 9  21236078.59447
  20958261.523 6  20958275.246 9 110136407.295 6  85820634.538 9  20958273.47749
  21161315.000 6                 111203457.679 6  86652071.00748  21161322.31348
  22563012.469 5  22563028.469 9 118569416.051 5  92391767.202 9  22563027.33247
  19818967.109 7  19818976.691 9 104149370.914 7  81155391.279 9  19818975.65249
  23742445.539 3  23742468.680 8 124767406.872 3  97221439.698 8  23742466.63746
  23166113.781 6  23166133.539 8 121738734.864 6  94861425.883 8  23166132.99247
 23  3 10  2 58 29.0000000  0  7G04G08G16G26G27G28G31               
  21235959.555 6  21235969.191 9 111595717.580 6  86957734.953 9  21235967.61747
  20957853.609 6  20957867.203 9 110134262.703 6  85818963.431 9  20957865.50049
  21161536.125 6                 111204617.382 6  86652974.66448  21161543.33248
  22563370.297 5  22563386.262 9 118571296.978 5  92393232.856 9  22563385.19147
  19818959.945 7  19818970.016 9 104149334.569 7  81155362.958 9  19818968.90649
  23742928.008 3  23742951.129 8 124769942.656 3  97223415.632 8  23742948.99645
  23166518.672 6  23166538.668 8 121740862.443 6  94863083.732 8  23166537.94147
 23  3 10  2 58 30.0000000  0  7G04G08G16G26G27G28G31               
  21235849.617 5  21235858.434 9 111595136.871 5  86957282.447 9  21235856.94147
  20957445.125 6  20957458.727 9 110132118.596 6  85817292.695 9  20957457.09049
  21161756.414 6                 111205777.197 6  86653878.41048  21161763.80148
  22563728.172 5  22563744.145 8 118573177.827 5  92394698.446 8  22563743.00847
  19818953.250 7  19818963.074 9 104149298.839 7  81155335.110 9  19818962.27749
  23743410.078 2  23743434.160 8 124772478.684 2  97225391.756 8  23743431.59845
  23166923.898 6  23166943.715 8 121742990.234 6  94864741.750 8  23166942.90647
 23  3 10  2 58 31.0000000  0  7G04G08G16G26G27G28G31               
  21235739.156 5  21235748.434 8 111594557.080 5  86956830.658 8  21235746.79347
  20957037.625 6  20957051.199 9 110129975.307 6  85815622.608 9  20957049.44149
  21161977.625 6                 111206937.430 6  86654782.48347  21161984.61747
  22564086.086 5  22564101.887 8 118575058.940 5  92396164.244 8  22564100.78147
  19818946.617 7  19818956.621 9 104149264.072 7  81155308.019 9  19818955.77049
  23743892.992 2  23743916.434 8 124775015.272 2  97227368.314 8  23743913.84045
  23167328.719 6  23167348.563 8 121745118.593 6  94866400.211 8  23167347.62147
 23  3 10  2 58 32.0000000  0  7G04G08G16G26G27G28G31               
  21235628.766 6  21235638.098 8 111593977.867 6  86956379.320 8  21235636.73447
  20956629.586 6  20956643.273 9 110127832.442 6  85813952.842 9  20956641.57849
  21162198.266 6                 111208097.690 6  86655686.58047  21162204.92247
  22564443.719 5  22564460.211 8 118576939.968 5  92397629.969 8  22564459.09047
  19818940.000 7  19818949.992 9 104149229.892 7  81155281.377 9  19818948.90649
  23744376.094 2  23744399.453 8 124777552.007 2  97229345.000 8  23744396.69945
  23167733.594 6  23167753.691 8 121747247.138 6  94868058.807 8  23167752.62147
 23  3 10  2 58 33.0000000  0  7G04G08G16G26G27G28G31               
  21235519.117 6  21235528.113 8 111593399.446 6  86955928.603 8  21235526.59047
  20956222.055 6  20956235.582 9 110125690.286 6  85812283.627 9  20956233.63349
  21162419.320 6                 111209258.272 6  86656590.92248  21162426.26248
  22564801.523 5  22564818.031 8 118578821.135 5  92399095.797 8  22564816.94547
  19818933.781 7  19818943.273 9 104149196.560 7  81155255.405 9  19818942.17649
  23744859.617 2  23744882.195 8 124780089.271 2  97231322.093 8  23744879.44945
  23168139.102 6  23168158.855 8 121749376.137 6  94869717.755 8  23168157.76647
 23  3 10  2 58 34.0000000  0  7G04G08G16G26G27G28G31               
  21235408.820 6  21235418.004 9 111592821.880 6  86955478.546 9  21235416.60547
  20955814.586 6  20955828.617 9 110123548.891 6  85810615.008 9  20955826.41849
  21162640.258 6                 111210419.184 6  86657495.52548  21162647.21948
  22565160.313 5  22565176.172 8 118580702.475 5  92400561.774 8  22565175.10247
  19818927.492 7  19818937.531 9 104149164.127 7  81155230.134 9  19818936.56649
  23745343.961 2  23745364.871 8 124782626.988 2  97233299.561 8  23745362.18845
  23168543.992 6  23168564.547 8 121751505.568 6  94871377.044 8  23168563.12547
 23  3 10  2 58 35.0000000  0  7G04G08G16G26G27G28G31               
  21235299.125 6  21235308.094 9 111592245.017 6  86955029.036 9  21235306.87547
  20955407.336 6  20955420.758 9 110121408.061 6  85808946.836 9  20955418.93849
  21162860.992 6                 111211580.302 6  86658400.29248  21162867.85548
  22565518.672 5  22565533.984 8 118582583.894 5  92402027.809 8  22565532.85947
  19818921.703 7  19818931.063 9 104149132.431 7  81155205.433 9  19818930.07849
  23745826.227 3  23745847.488 8 124785165.035 3  97235277.282 8  23745844.83645
  23168948.828 6  23168969.715 8 121753635.370 6  94873036.638 8  23168968.22747
 23  3 10  2 58 36.0000000  0  7G04G08G16G26G27G28G31               
  21235189.320 5  21235198.598 9 111591669.054 5  86954580.226 9  21235197.15247
  20955000.133 6  20955014.141 9 110119268.027 6  85807279.274 9  20955012.13349
  21163082.102 6                 111212741.829 6  86659305.37948  21163089.19948
  22565876.313 5  22565892.156 9 118584465.588 5  92403494.052 9  22565890.84847
  19818915.836 7  19818925.406 9 104149101.692 7  81155181.474 9  19818924.53149
  23746309.883 3  23746330.641 8 124787703.684 3  97237255.458 8  23746328.27345
  23169354.313 6  23169374.969 8 121755765.732 6  94874696.655 8  23169373.58247
 23  3 10  2 58 37.0000000  0  7G04G08G16G26G27G28G31               
  21235079.711 5  21235089.055 9 111591093.784 5  86954131.967 9  21235087.80547
  20954592.734 6  20954606.418 9 110117128.600 6  85805612.191 9  20954604.30949
  21163303.422 6                 111213903.575 6  86660210.63148  21163310.28148
  22566234.625 5  22566250.371 9 118586347.278 5  92404960.300 9  22566249.27347
  19818909.852 7  19818919.555 9 104149071.689 7  81155158.095 9  19818918.59449
  23746793.281 4  23746813.508 8 124790242.688 4  97239233.902 8  23746811.50446
  23169760.031 6  23169780.656 8 121757896.441 6  94876356.942 8  23169779.43847
 23  3 10  2 58 38.0000000  0  7G04G08G16G26G27G28G31               
  21234970.688 5  21234980.164 9 111590519.423 5  86953684.400 9  21234979.00447
  20954185.875 6  20954199.203 9 110114989.922 6  85803945.695 9  20954197.57449
  21163524.797 6                 111215065.699 6  86661116.17348  21163531.25048
  22566592.555 5  22566608.113 9 118588229.235 5  92406426.746 9  22566607.17247
  19818904.477 7  19818914.402 9 104149042.609 7  81155135.430 9  19818913.29749
  23747277.344 4  23747296.645 8 124792782.204 4  97241212.753 8  23747294.67246
  23170164.844 6  23170186.277 8 121760027.646 6  94878017.627 8  23170185.01247
 23  3 10  2 58 39.0000000  0  7G04G08G16G26G27G28G31               
  21234861.500 5  21234870.570 9 111589945.860 5  86953237.468 9  21234869.79747
  20953779.359 6  20953792.730 9 110112851.953 6  85802279.743 9  20953790.93849
  21163745.898 6                 111216228.107 6  86662021.94648  21163752.70748
  22566950.875 5  22566966.781 9 118590111.317 5  92407893.297 9  22566965.63747
  19818899.422 7  19818909.031 9 104149014.378 7  81155113.434 9  19818908.35549
  23747760.008 5  23747779.742 8 124795322.181 5  97243191.965 8  23747777.96946
  23170571.047 6  23170591.820 8 121762159.287 6  94879678.639 8  23170590.37147
 23  3 10  2 58 40.0000000  0  7G04G08G16G26G27G28G31               
  21234752.914 5  21234761.961 9 111589373.114 5  86952791.174 9  21234760.79747
  20953372.633 6  20953386.227 9 110110714.715 6  85800614.365 9  20953384.32449
  21163967.023 6                 111217390.857 6  86662927.97948  21163973.64148
  22567309.047 5  22567324.996 9 118591993.591 5  92409359.989 9  22567324.00847
  19818894.156 7  19818903.398 9 104148987.014 7  81155092.111 9  19818902.57049
  23748244.508 5  23748263.469 8 124797862.633 5  97245171.541 8  23748261.96946
  23170976.391 6  23170997.637 8 121764291.416 6  94881340.036 8  23170995.93047
 23  3 10  2 58 41.0000000  0  7G04G08G16G26G27G28G31               
  21234643.695 5  21234653.230 9 111588800.950 5  86952345.327 9  21234652.05947
  20952966.172 6  20952979.414 9 110108577.915 6  85798949.329 9  20952977.53549
  21164188.406 6                 111218553.637 6  86663834.03548  21164194.92248
  22567666.984 5  22567683.289 8 118593875.768 5  92410826.610 8  22567682.01647
  19818888.805 7  19818898.332 9 104148960.237 7  81155071.242 9  19818897.59049
  23748727.641 5  23748746.609 8 124800403.260 5  97247151.260 8  23748745.59046
  23171382.484 6  23171403.434 8 121766423.753 6  94883001.593 8  23171401.55147
 23  3 10  2 58 42.0000000  0  7G04G08G16G26G27G28G31               
  21234535.258 6  21234543.977 9 111588229.407 6  86951899.962 9  21234543.10547
  20952559.617 6  20952572.547 9 110106441.653 6  85797284.712 9  20952570.83249
  21164409.820 6                 111219716.566 6  86664740.21048  21164416.02348
  22568024.563 5  22568041.113 9 118595757.894 5  92412293.200 9  22568039.77047
  19818884.086 7  19818893.238 9 104148934.167 7  81155050.926 9  19818892.52049
  23749211.445 5  23749230.086 8 124802944.208 5  97249131.224 8  23749229.08646
  23171788.477 6  23171809.098 8 121768556.303 6  94884663.309 8  23171807.23047
 23  3 10  2 58 43.0000000  0  7G04G08G16G26G27G28G31               
  21234427.016 6  21234435.621 8 111587658.607 6  86951455.181 8  21234434.59447
  20952152.875 6  20952166.375 9 110104305.993 6  85795620.563 9  20952164.35249
  21164630.984 6                 111220879.704 6  86665646.54847  21164637.53947
  22568383.813 5  22568399.637 8 118597640.098 5  92413759.844 8  22568398.35247
  19818878.984 7  19818888.172 9 104148908.829 7  81155031.183 9  19818887.52349
  23749694.773 5  23749713.898 8 124805485.506 5  97251111.456 8  23749712.70746
  23172194.750 5  23172215.086 8 121770689.248 5  94886325.336 8  23172213.38347
 23  3 10  2 58 44.0000000  0  7G04G08G16G26G27G28G31               
  21234318.188 6  21234326.852 8 111587088.561 6  86951010.990 8  21234325.60547
  20951746.859 6  20951760.020 9 110102170.991 6  85793956.921 9  20951758.16049
  21164852.695 6                 111222043.133 6  86666553.11148  21164858.98048
  22568741.609 5  22568757.832 8 118599522.442 5  92415226.601 8  22568756.71547
  19818874.172 7  19818883.754 9 104148884.347 7  81155012.101 9  19818882.97349
  23750178.406 5  23750197.676 8 124808027.236 5  97253092.031 8  23750196.53546
  23172600.203 5  23172621.027 8 121772822.601 5  94887987.688 8  23172619.35947
 23  3 10  2 58 45.0000000  0  7G04G08G16G26G27G28G31               
  21234209.961 6  21234218.953 9 111586519.355 6  86950567.455 9  21234217.66847
  20951340.836 6  20951353.691 9 110100036.725 6  85792293.860 9  20951351.99649
  21165073.734 6                 111223206.858 6  86667459.90548  21165080.48048
  22569100.133 5  22569116.105 8 118601404.981 5  92416693.504 8  22569114.78547
  19818870.039 7  19818879.672 9 104148860.691 7  81154993.669 9  19818878.93849
  23750662.547 5  23750680.633 8 124810569.421 5  97255072.956 8  23750679.84445
  23173006.430 5  23173027.215 8 121774956.414 5  94889650.395 8  23173025.35547
 23  3 10  2 58 46.0000000  0  7G04G08G16G26G27G28G31               
  21234101.680 6  21234111.039 9 111585950.985 6  86950124.567 9  21234109.88347
  20950934.805 6  20950948.211 9 110097903.211 6  85790631.380 9  20950946.43849
  21165295.203 6                 111224370.943 6  86668366.98148  21165301.87948
  22569458.609 5  22569474.059 9 118603287.682 5  92418160.537 9  22569472.86747
  19818865.375 7  19818874.902 9 104148837.954 7  81154975.952 9  19818874.43049
  23751145.563 5  23751164.660 8 124813112.101 5  97257054.276 8  23751163.80945
  23173412.523 6  23173433.266 8 121777090.725 6  94891313.485 8  23173431.39547
 23  3 10  2 58 47.0000000  0  7G04G08G16G26G27G28G31               
  21233993.953 6  21234002.535 9 111585383.374 6  86949682.268 9  21234001.40247
  20950529.273 6  20950542.176 9 110095770.323 6  85788969.392 9  20950540.36349
  21165517.406 6                 111225535.266 6  86669274.25248  21165523.19948
  22569817.188 5  22569832.832 9 118605170.472 5  92419627.642 9  22569831.57847
  19818861.453 7  19818871.055 9 104148815.981 7  81154958.822 9  19818870.28549
  23751629.914 5  23751648.719 8 124815655.161 5  97259035.884 8  23751647.82845
  23173818.797 6  23173840.094 8 121779225.396 6  94892976.863 8  23173838.00847
 23  3 10  2 58 48.0000000  0  7G04G08G16G26G27G28G31               
  21233886.133 6  21233895.254 9 111584816.536 6  86949240.571 9  21233894.12947
  20950123.422 6  20950136.832 9 110093638.092 6  85787307.910 9  20950135.02049
  21165739.008 6                 111226699.833 6  86670181.70048  21165745.10548
  22570175.992 5  22570191.199 9 118607053.363 5  92421094.818 9  22570189.90647
  19818857.289 7  19818867.648 9 104148794.824 7  81154942.336 9  19818866.72349
  23752113.773 5  23752132.672 8 124818198.649 5  97261017.829 8  23752131.79746
  23174224.836 6  23174245.746 8 121781360.487 6  94894640.567 8  23174243.89547
 23  3 10  2 58 49.0000000  0  7G04G08G16G26G27G28G31               
  21233778.531 6  21233786.699 9 111584250.454 6  86948799.465 9  21233785.98847
  20949717.531 6  20949730.695 9 110091506.516 6  85785646.951 9  20949728.92649
  21165960.219 6                 111227864.670 6  86671089.35848  21165967.01248
  22570533.297 5  22570549.430 9 118608936.379 5  92422562.097 9  22570548.11347
  19818853.484 7  19818863.379 9 104148774.477 7  81154926.482 9  19818862.43849
  23752596.992 5  23752616.711 8 124820742.548 5  97263000.093 8  23752615.82846
  23174631.727 6  23174652.332 8 121783495.962 6  94896304.574 8  23174650.44547
 23  3 10  2 58 50.0000000  0  7G04G08G16G26G27G28G31               
  21233670.867 6  21233679.313 9 111583685.152 6  86948358.962 9  21233678.48847
  20949312.211 6  20949325.336 9 110089375.603 6  85783986.497 9  20949323.63349
  21166181.797 6                 111229029.774 6  86671997.22548  21166188.24248
  22570891.656 5  22570907.641 9 118610819.521 5  92424029.476 9  22570906.30147
  19818850.039 7  19818858.977 9 104148754.940 7  81154911.259 9  19818858.42649
  23753080.328 4  23753101.145 8 124823286.886 4  97264982.687 8  23753100.17646
  23175038.500 6  23175058.637 8 121785631.876 6  94897968.922 8  23175056.92647
 23  3 10  2 58 51.0000000  0  7G04G08G16G26G27G28G31               
  21233563.180 6  21233572.234 9 111583120.598 6  86947919.048 9  21233571.71547
  20948906.695 6  20948920.164 9 110087245.322 6  85782326.536 9  20948918.56649
  21166403.906 6                 111230195.117 6  86672905.28448  21166410.17248
  22571250.570 5  22571266.109 9 118612702.759 5  92425496.913 9  22571265.10547
  19818846.641 7  19818855.988 9 104148736.182 7  81154896.643 9  19818855.07049
  23753564.430 4  23753585.395 8 124825831.618 4  97266965.594 8  23753584.48046
  23175444.711 6  23175465.375 8 121787768.146 6  94899633.547 8  23175463.48447
 23  3 10  2 58 52.0000000  0  7G04G08G16G26G27G28G31               
  21233456.195 6  21233464.449 9 111582556.786 6  86947479.714 9  21233464.01647
  20948501.102 6  20948514.457 9 110085115.691 6  85780667.081 9  20948512.80149
  21166625.508 6                 111231360.714 6  86673813.53848  21166631.93048
  22571608.688 5  22571624.164 9 118614586.042 5  92426964.393 9  22571623.54747
  19818842.539 7  19818852.445 9 104148718.210 7  81154882.636 9  19818851.57849
  23754047.766 4  23754069.336 8 124828376.679 4  97268948.762 8  23754068.48046
  23175851.117 6  23175872.012 8 121789904.823 6  94901298.488 8  23175869.87147
 23  3 10  2 58 53.0000000  0  7G04G08G16G26G27G28G31               
  21233348.867 6  21233357.480 9 111581993.684 6  86947040.925 9  21233356.95347
  20948095.930 6  20948109.609 9 110082986.655 6  85779008.096 9  20948108.07049
  21166847.398 6                 111232526.504 6  86674721.94147  21166853.89847
  22571967.063 5  22571982.984 9 118616469.428 5  92428431.962 9  22571982.50047
  19818839.922 7  19818849.516 9 104148701.001 7  81154869.225 9  19818848.40649
  23754531.922 3  23754553.762 8 124830922.120 3  97270932.220 8  23754552.84445
  23176257.750 6  23176278.797 9 121792041.818 6  94902963.668 9  23176276.69547
 23  3 10  2 58 54.0000000  0  7G04G08G16G26G27G28G31               
  21233241.508 6  21233250.707 9 111581431.310 6  86946602.708 9  21233250.00047
  20947691.211 6  20947704.297 9 110080858.254 6  85777349.603 9  20947702.77049
  21167069.219 6                 111233692.540 6  86675630.53848  21167075.21548
  22572325.953 5  22572341.215 9 118618352.854 5  92429899.561 9  22572340.77347
  19818836.336 7  19818846.215 9 104148684.557 7  81154856.416 9  19818845.36349
  23755015.914 2  23755038.141 8 124833467.947 2  97272915.980 8  23755037.28945
  23176664.617 6  23176685.320 8 121794179.211 6  94904629.170 8  23176683.47747
 23  3 10  2 58 55.0000000  0  7G04G08G16G26G27G28G31               
  21233135.086 6  21233143.613 9 111580869.630 6  86946165.036 9  21233143.08647
  20947286.188 6  20947299.891 9 110078730.432 6  85775691.563 9  20947298.06349
  21167291.281 6                 111234858.755 6  86676539.26947  21167297.47347
  22572684.227 5  22572699.539 8 118620236.339 5  92431367.197 8  22572699.07847
  19818833.359 7  19818842.906 9 104148668.867 7  81154844.184 9  19818842.13349
  23755501.141 2  23755523.309 8 124836014.070 2  97274899.972 8  23755522.04745
  23177071.047 6  23177092.637 8 121796316.931 6  94906294.914 8  23177090.66047
 23  3 10  2 58 56.0000000  0  7G04G08G16G26G27G28G31               
  21233028.125 6  21233037.129 9 111580308.985 6  86945728.170 9  21233036.40247
  20946881.602 6  20946895.039 9 110076603.542 6  85774034.246 9  20946893.29349
  21167512.992 6                 111236025.490 6  86677448.41548  21167519.66448
  22573042.406 5  22573058.016 8 118622120.222 5  92432835.151 8  22573057.75447
  19818830.430 7  19818840.305 9 104148654.234 7  81154832.784 9  19818839.39849
  23755985.930 2  23756008.590 8 124838560.903 2  97276884.514 8  23756006.69145
  23177478.594 6  23177499.344 8 121798455.309 6  94907961.183 8  23177497.57847
 23  3 10  2 58 57.0000000  0  7G04G08G16G26G27G28G31               
  21232921.453 6  21232930.297 9 111579749.138 6  86945291.928 9  21232929.73447
  20946477.453 6  20946490.508 9 110074477.315 6  85772377.451 9  20946488.84849
  21167735.180 6                 111237192.533 6  86678357.78847  21167741.73047
  22573401.313 5  22573416.375 8 118624004.216 5  92434303.194 8  22573416.38347
  19818827.977 7  19818837.953 9 104148640.415 7  81154822.012 9  19818837.16049
  23756470.172 1  23756493.008 8 124841108.136 1  97278869.399 8  23756491.21545
  23177885.477 5  23177906.059 8 121800594.097 5  94909627.769 8  23177904.47347
 23  3 10  2 58 58.0000000  0  7G04G08G16G26G27G28G31               
  21232815.461 6  21232824.602 9 111579189.925 6  86944856.179 9  21232823.69947
  20946072.469 6  20946086.000 9 110072351.604 6  85770721.052 9  20946084.52349
  21167957.125 6                 111238359.702 6  86679267.26448  21167963.50448
  22573759.891 6  22573775.027 9 118625888.200 6  92435771.226 9  22573775.11747
  19818825.891 7  19818834.867 9 104148627.287 7  81154811.782 9  19818834.05149
  23756954.242 1  23756977.828 7 124843655.741 1  97280854.530 7  23756975.72345
  23178292.102 6  23178313.098 8 121802733.177 6  94911294.578 8  23178311.48447
 23  3 10  2 58 59.0000000  0  7G04G08G16G26G27G28G31               
  21232708.938 6  21232718.215 9 111578631.367 6  86944420.936 9  21232717.48847
  20945667.828 6  20945681.391 9 110070226.420 6  85769065.068 9  20945679.78949
  21168179.602 6                 111239526.997 6  86680176.84447  21168186.14147
  22574118.508 5  22574133.535 9 118627772.164 5  92437239.242 9  22574133.59447
  19818823.570 7  19818832.941 9 104148614.858 7  81154802.096 9  19818832.14149
  23757440.523 1  23757462.559 8 124846203.491 1  97282839.792 8  23757460.37945
  23178700.258 6  23178720.340 9 121804872.546 6  94912961.619 9  23178718.72747
 23  3 10  2 59  0.0000000  0  7G04G08G16G26G27G28G31               
  21232602.773 6  21232611.793 9 111578073.515 6  86943986.250 9  21232611.30147
  20945264.039 6  20945277.332 9 110068101.847 6  85767409.563 9  20945275.47349
  21168401.445 6                 111240694.508 6  86681086.59548  21168408.29748
  22574476.695 6  22574492.336 9 118629656.195 6  92438707.308 9  22574491.92647
  19818820.789 7  19818830.438 9 104148603.142 7  81154792.963 9  19818829.62149
  23757926.641 2  23757947.816 8 124848751.677 2  97284825.418 8  23757945.02745
  23179106.570 6  23179127.926 9 121807012.263 6  94914628.928 9  23179126.25447
 23  3 10  2 59  1.0000000  0  7G04G08G16G26G27G28G31               
  21232496.664 5  21232506.211 9 111577516.627 5  86943552.304 9  21232505.80947
  20944859.422 6  20944873.227 9 110065978.116 6  85765754.704 9  20944871.64149
  21168623.836 6                 111241862.466 6  86681996.68847  21168630.56347
  22574835.242 5  22574850.531 9 118631540.518 5  92440175.603 9  22574850.24647
  19818818.703 7  19818828.391 9 104148592.465 7  81154784.648 9  19818827.57449
  23758411.109 1  23758432.836 8 124851300.459 1  97286811.474 8  23758429.71145
  23179514.172 6  23179534.629 9 121809152.561 6  94916296.684 9  23179533.14847
 23  3 10  2 59  2.0000000  0  7G04G08G16G26G27G28G31               
  21232390.984 6  21232399.551 9 111576960.475 6  86943118.938 9  21232399.23047
  20944455.711 6  20944468.652 9 110063855.004 6  85764100.339 9  20944467.39149
  21168846.203 6                 111243030.662 6  86682906.96148  21168852.97748
  22575194.430 5  22575209.340 9 118633424.939 5  92441643.971 9  22575209.32847
  19818817.586 7  19818827.043 9 104148582.550 7  81154776.923 9  19818826.31649
  23758896.898 2  23758918.203 8 124853849.678 2  97288797.875 8  23758914.89545
  23179921.563 6  23179942.012 9 121811293.241 6  94917964.737 9  23179940.70747
 23  3 10  2 59  3.0000000  0  7G04G08G16G26G27G28G31               
  21232285.031 6  21232293.953 9 111576405.038 6  86942686.131 9  21232293.86747
  20944052.266 6  20944065.199 9 110061732.518 6  85762446.449 9  20944063.60249
  21169068.961 6                 111244199.075 6  86683817.41348  21169075.55948
  22575552.641 5  22575567.734 9 118635309.423 5  92443112.390 9  22575567.60247
  19818815.906 7  19818825.254 9 104148573.408 7  81154769.794 9  19818824.30149
  23759382.766 3  23759403.598 8 124856399.167 3  97290784.488 8  23759400.24245
  23180328.930 6  23180349.242 9 121813434.286 6  94919633.085 9  23180348.09847
 23  3 10  2 59  4.0000000  0  7G04G08G16G26G27G28G31               
  21232179.422 6  21232188.965 9 111575850.496 6  86942254.018 9  21232188.30147
  20943648.070 6  20943660.988 9 110059610.783 6  85760793.156 9  20943659.76249
  21169291.477 6                 111245367.854 6  86684728.14748  21169297.93848
  22575910.594 5  22575926.625 9 118637194.110 5  92444580.965 9  22575926.55147
  19818814.219 7  19818823.332 9 104148565.168 7  81154763.378 9  19818822.45749
  23759867.891 3  23759888.984 8 124858949.234 3  97292771.550 8  23759885.82446
  23180736.008 6  23180757.211 9 121815575.844 6  94921301.831 9  23180756.18447
 23  3 10  2 59  5.0000000  0  7G04G08G16G26G27G28G31               
  21232073.844 5  21232083.641 9 111575296.513 5  86941822.336 9  21232083.03947
  20943244.383 6  20943257.477 9 110057489.519 6  85759140.221 9  20943256.09449
  21169513.414 6                 111246536.706 6  86685638.94348  21169520.18448
  22576269.906 5  22576285.223 9 118639078.728 5  92446049.490 9  22576285.13347
  19818812.625 7  19818821.703 9 104148557.545 7  81154757.432 9  19818821.03549
  23760353.148 4  23760373.906 8 124861499.525 4  97294758.774 8  23760371.04746
  23181143.813 6  23181164.531 9 121817717.594 6  94922970.716 9  23181163.41447
 23  3 10  2 59  6.0000000  0  7G04G08G16G26G27G28G31               
  21231968.750 6  21231978.254 9 111574743.305 6  86941391.266 9  21231977.64547
  20942840.859 6  20942854.227 9 110055368.932 6  85757487.821 9  20942852.73049
  21169735.945 6                 111247705.849 6  86686549.95248  21169742.16848
  22576628.602 5  22576644.469 9 118640963.467 5  92447518.107 9  22576644.11747
  19818811.352 7  19818820.684 9 104148550.729 7  81154752.120 9  19818819.76649
  23760838.539 4  23760859.020 8 124864050.208 4  97296746.315 8  23760856.64145
  23181551.391 6  23181572.453 8 121819859.769 6  94924639.942 8  23181571.05547
 23  3 10  2 59  7.0000000  0  7G04G08G16G26G27G28G31               
  21231863.531 6  21231873.188 8 111574190.892 6  86940960.805 8  21231872.41447
  20942437.398 6  20942450.645 9 110053249.038 6  85755835.951 9  20942449.32049
  21169958.664 6                 111248875.230 6  86687461.14947  21169964.98847
  22576986.711 5  22577002.570 8 118642848.328 5  92448986.816 8  22577002.50447
  19818809.609 7  19818819.473 9 104148544.755 7  81154747.464 9  19818818.73849
  23761323.781 4  23761343.863 8 124866601.362 4  97298734.237 8  23761342.02745
  23181958.414 6  23181979.527 8 121822002.387 6  94926309.512 8  23181978.59447
 23  3 10  2 59  8.0000000  0  7G04G08G16G26G27G28G31               
  21231759.063 6  21231767.949 9 111573639.233 6  86940530.942 9  21231767.46947
  20942033.820 6  20942047.203 9 110051129.778 6  85754184.580 9  20942045.96549
  21170180.766 6                 111250044.866 6  86688372.55648  21170187.59448
  22577345.844 5  22577361.316 8 118644733.296 5  92450455.617 8  22577361.31347
  19818809.320 7  19818818.875 9 104148539.561 7  81154743.418 9  19818817.76649
  23761809.859 4  23761829.363 8 124869152.876 4  97300722.412 8  23761828.16445
  23182366.711 6  23182387.789 8 121824145.367 6  94927979.366 8  23182386.85547
 23  3 10  2 59  9.0000000  0  7G04G08G16G26G27G28G31               
  21231654.086 6  21231663.148 9 111573088.312 6  86940101.651 9  21231662.51247
  20941630.758 6  20941644.297 9 110049011.129 6  85752533.687 9  20941642.89149
  21170403.516 6                 111251214.754 6  86689284.14748  21170409.88748
  22577703.789 5  22577720.109 9 118646618.378 5  92451924.503 9  22577720.11347
  19818808.031 7  19818817.230 9 104148535.158 7  81154739.983 9  19818816.57049
  23762294.688 5  23762315.063 8 124871704.772 5  97302710.903 8  23762313.51246
  23182774.328 6  23182795.711 8 121826288.751 6  94929649.534 8  23182794.69947
 23  3 10  2 59 10.0000000  0  7G04G08G16G26G27G28G31               
  21231549.266 6  21231558.441 9 111572538.262 6  86939673.039 9  21231557.83647
  20941228.188 6  20941241.223 9 110046893.269 6  85750883.410 9  20941239.88749
  21170626.328 6                 111252385.014 6  86690196.04448  21170632.85248
  22578062.945 5  22578078.879 9 118648503.639 5  92453393.525 9  22578078.69947
  19818807.461 7  19818816.750 9 104148531.656 7  81154737.249 9  19818816.13749
  23762781.094 5  23762800.895 8 124874257.224 5  97304699.823 8  23762799.54345
  23183182.680 6  23183203.500 8 121828432.627 6  94931320.085 8  23183202.62547
 23  3 10  2 59 11.0000000  0  7G04G08G16G26G27G28G31               
  21231444.531 5  21231454.184 9 111571988.926 5  86939244.985 9  21231453.53147
  20940824.914 6  20940838.785 9 110044775.982 6  85749233.581 9  20940837.38749
  21170848.898 6                 111253555.452 6  86691108.06748  21170855.14548
  22578422.031 5  22578437.508 9 118650388.979 5  92454862.609 9  22578437.49247
  19818806.820 7  19818816.250 9 104148528.917 7  81154735.112 9  19818815.48049
  23763266.211 5  23763286.457 8 124876809.980 5  97306688.984 8  23763285.54745
  23183590.367 6  23183611.859 9 121830576.838 6  94932990.895 9  23183610.82447
 23  3 10  2 59 12.0000000  0  7G04G08G16G26G27G28G31               
  21231340.063 6  21231349.723 9 111571440.300 6  86938817.482 9  21231349.13347
  20940422.227 6  20940435.762 9 110042659.300 6  85747584.215 9  20940434.12149
  21171071.664 6                 111254726.107 6  86692020.26348  21171078.21548
  22578780.461 5  22578795.836 9 118652274.327 5  92456331.708 9  22578796.05547
  19818806.672 7  19818815.938 9 104148526.906 7  81154733.541 9  19818815.31349
  23763752.625 5  23763772.156 8 124879363.110 5  97308678.440 8  23763771.48045
  23183998.164 6  23184019.031 8 121832721.386 6  94934661.966 8  23184018.40247
 23  3 10  2 59 13.0000000  0  7G04G08G16G26G27G28G31               
  21231235.953 6  21231245.273 9 111570892.314 6  86938390.474 9  21231244.38347
  20940019.305 6  20940033.059 9 110040543.132 6  85745935.258 9  20940031.63749
  21171294.492 6                 111255896.890 6  86692932.55548  21171301.10248
  22579139.305 5  22579155.172 9 118654159.727 5  92457800.837 9  22579155.24247
  19818806.422 7  19818815.922 9 104148525.586 7  81154732.513 9  19818815.22349
  23764237.844 4  23764257.852 8 124881916.541 4  97310668.124 8  23764257.41845
  23184406.242 6  23184427.961 9 121834866.246 6  94936333.283 9  23184427.15247
 23  3 10  2 59 14.0000000  0  7G04G08G16G26G27G28G31               
  21231132.047 6  21231141.156 9 111570345.126 6  86937964.090 9  21231140.52347
  20939616.867 6  20939630.406 9 110038427.664 6  85744286.838 9  20939629.04349
  21171517.352 6                 111257067.970 6  86693845.07848  21171524.18048
  22579498.047 5  22579514.105 9 118656045.191 5  92459270.016 9  22579513.83247
  19818806.391 7  19818815.461 9 104148525.094 7  81154732.131 9  19818814.77349
  23764723.664 4  23764744.008 8 124884470.390 4  97312658.128 8  23764743.86745
  23184814.859 6  23184835.871 9 121837011.492 6  94938004.909 9  23184834.88747
 23  3 10  2 59 15.0000000  0  7G04G08G16G26G27G28G31               
  21231027.625 6  21231037.020 9 111569798.481 6  86937538.137 9  21231036.39147
  20939214.477 6  20939228.258 9 110036312.665 6  85742638.789 9  20939226.59449
  21171740.375 6                 111258239.124 6  86694757.66848  21171746.53948
  22579856.922 5  22579872.285 9 118657930.609 5  92460739.162 9  22579872.52747
  19818806.625 7  19818815.695 9 104148525.216 7  81154732.224 9  19818814.99649
  23765209.836 4  23765229.727 8 124887024.458 4  97314648.318 8  23765229.69545
  23185223.000 6  23185244.492 9 121839156.968 6  94939676.703 9  23185243.21147
 23  3 10  2 59 16.0000000  0  7G04G08G16G26G27G28G31               
  21230923.883 5  21230932.898 9 111569252.827 5  86937112.938 9  21230932.84447
  20938812.219 6  20938825.734 9 110034198.523 6  85740991.405 9  20938824.32449
  21171963.148 6                 111259410.697 6  86695670.57848  21171969.55548
  22580215.852 5  22580231.301 9 118659816.314 5  92462208.534 9  22580231.44147
  19818806.477 7  19818815.836 9 104148526.324 7  81154733.086 9  19818815.15649
  23765695.859 4  23765715.715 8 124889579.104 4  97316638.955 8  23765715.66845
  23185631.344 6  23185652.449 9 121841303.031 6  94941348.963 9  23185651.19547
 23  3 10  2 59 17.0000000  0  7G04G08G16G26G27G28G31               
  21230820.117 5  21230829.145 9 111568707.873 5  86936688.304 9  21230828.85247
  20938409.930 6  20938423.605 9 110032084.970 6  85739344.481 9  20938422.07049
  21172186.141 6                 111260582.483 6  86696583.65148  21172192.95348
  22580575.000 5  22580590.645 9 118661702.109 5  92463677.979 9  22580590.79747
  19818806.719 7  19818815.973 9 104148528.189 7  81154734.541 9  19818815.37949
  23766182.734 4  23766202.289 8 124892134.137 4  97318629.883 8  23766202.36345
  23186040.336 6  23186062.008 9 121843449.445 6  94943021.490 9  23186060.68047
 23  3 10  2 59 18.0000000  0  7G04G08G16G26G27G28G31               
  21230716.922 6  21230725.543 9 111568163.747 6  86936264.304 9  21230725.14547
  20938007.852 6  20938021.391 9 110029972.155 6  85737698.132 9  20938020.21949
  21172409.188 6                 111261754.594 6  86697496.98048  21172415.53148
  22580933.609 5  22580949.047 9 118663588.051 5  92465147.529 9  22580949.06647
  19818807.602 7  19818817.164 9 104148530.924 7  81154736.671 9  19818816.40249
  23766667.484 3  23766689.195 8 124894689.580 3  97320621.139 8  23766689.27045
  23186448.961 6  23186469.891 8 121845596.321 6  94944694.376 8  23186468.42647
 23  3 10  2 59 19.0000000  0  7G04G08G16G26G27G28G31               
  21230613.375 6  21230622.340 8 111567620.433 6  86935840.937 8  21230621.85947
  20937605.852 6  20937619.438 9 110027860.069 6  85736052.350 9  20937617.96149
  21172632.359 6                 111262927.021 6  86698410.56147  21172638.75447
  22581293.086 5  22581308.434 8 118665474.111 5  92466617.185 8  22581308.27347
  19818807.844 7  19818817.504 9 104148534.501 7  81154739.458 9  19818816.62149
  23767153.156 3  23767175.063 8 124897245.525 3  97322612.796 8  23767175.42645
  23186857.195 6  23186878.672 8 121847743.668 6  94946367.630 8  23186877.09047
 23  3 10  2 59 20.0000000  0  7G04G08G16G26G27G28G31               
  21230510.008 6  21230519.340 8 111567077.952 6  86935418.225 8  21230518.80947
  20937204.102 6  20937217.660 9 110025748.691 6  85734407.117 9  20937216.32849
  21172855.422 6                 111264099.732 6  86699324.35847  21172862.15647
  22581651.516 5  22581667.500 8 118667360.393 5  92468087.002 8  22581667.39847
  19818808.781 7  19818818.309 9 104148538.928 7  81154742.908 9  19818817.65249
  23767639.375 2  23767661.102 8 124899801.896 2  97324604.774 8  23767661.35245
  23187266.484 6  23187287.566 8 121849891.441 6  94948041.220 8  23187286.11747
 23  3 10  2 59 21.0000000  0  7G04G08G16G26G27G28G31               
  21230407.297 5  21230416.176 9 111566536.039 5  86934995.947 9  21230415.51247
  20936802.477 6  20936816.410 9 110023637.790 6  85732762.259 9  20936815.14849
  21173078.852 6                 111265272.557 6  86700238.24448  21173085.23848
  22582010.633 5  22582026.313 8 118669246.580 5  92469556.754 8  22582025.94947
  19818809.508 7  19818819.512 9 104148544.008 7  81154746.864 9  19818818.63749
  23768125.742 1  23768147.629 8 124902358.527 1  97326596.961 8  23768148.14545
  23187674.930 6  23187695.965 8 121852039.439 6  94949714.973 8  23187694.68047
 23  3 10  2 59 22.0000000  0  7G04G08G16G26G27G28G31               
  21230304.453 6  21230313.219 9 111565994.640 6  86934574.069 9  21230312.52047
  20936400.922 6  20936414.551 9 110021527.277 6  85731117.705 9  20936413.12949
  21173301.656 6                 111266445.366 6  86701152.11748  21173308.57848
  22582369.320 5  22582385.047 9 118671132.628 5  92471026.395 9  22582384.68047
  19818811.117 7  19818820.402 9 104148549.627 7  81154751.239 9  19818819.70749
  23768611.531 1  23768634.488 8 124904915.293 1  97328589.264 8  23768634.98445
  23188083.750 6  23188105.059 8 121854187.600 6  94951388.867 8  23188103.61347
 23  3 10  2 59 23.0000000  0  7G04G08G16G26G27G28G31               
  21230201.039 6  21230210.250 9 111565454.097 6  86934152.863 9  21230209.69947
  20935999.102 6  20936013.449 9 110019417.509 6  85729473.732 9  20936012.49649
  21173525.133 6                 111267618.501 6  86702066.24848  21173531.60248
  22582728.156 5  22582743.660 9 118673018.845 5  92472496.156 9  22582743.73847
  19818812.023 7  19818821.594 9 104148556.124 7  81154756.305 9  19818820.98449
  23769097.016 1  23769120.621 8 124907472.535 1  97330581.920 8  23769121.56645
  23188492.828 6  23188513.453 8 121856336.212 6  94953063.108 8  23188511.97747
 23  3 10  2 59 24.0000000  0  7G04G08G16G26G27G28G31               
  21230098.250 6  21230107.633 9 111564914.239 6  86933732.187 9  21230106.57847
  20935597.703 6  20935611.715 9 110017308.322 6  85727830.207 9  20935610.69149
  21173748.578 6                 111268791.824 6  86702980.52148  21173754.91848
  22583087.109 5  22583102.945 9 118674905.102 5  92473965.956 9  22583102.85547
  19818813.641 7  19818822.934 9 104148563.344 7  81154761.930 9  19818822.17649
  23769582.250 1  23769607.789 8 124910030.120 1  97332574.859 8  23769608.44945
  23188901.828 6  23188922.605 9 121858485.141 6  94954737.588 9  23188921.13347
 23  3 10  2 59 25.0000000  0  7G04G08G16G26G27G28G31               
  21229995.711 6  21230005.035 9 111564375.314 6  86933312.239 9  21230004.25047
  20935196.523 6  20935210.371 9 110015199.978 6  85726187.338 9  20935209.11349
  21173971.641 6                 111269965.580 6  86703895.14048  21173978.39848
  22583446.430 5  22583461.770 9 118676791.642 5  92475435.974 9  22583461.30547
  19818815.188 7  19818824.809 9 104148571.554 7  81154768.322 9  19818824.00849
  23770067.750 1  23770094.668 8 124912588.249 1  97334568.241 8  23770095.21945
  23189310.797 6  23189331.691 8 121860634.695 6  94956412.563 8  23189330.36747
 23  3 10  2 59 26.0000000  0  7G04G08G16G26G27G28G31               
  21229893.180 6  21229902.738 9 111563837.133 6  86932892.873 9  21229901.65247
  20934795.320 6  20934808.984 9 110013092.279 6  85724544.981 9  20934807.71949
  21174194.922 6                 111271139.558 6  86704809.92048  21174201.89148
  22583805.430 5  22583820.785 9 118678678.271 5  92476906.062 9  22583820.32447
  19818816.805 7  19818826.469 9 104148580.512 7  81154775.305 9  19818825.66049
  23770554.695 1  23770581.457 8 124915146.746 1  97336561.918 8  23770581.99645
  23189720.172 6  23189740.344 9 121862784.581 6  94958087.795 9  23189739.07047
 23  3 10  2 59 27.0000000  0  7G04G08G16G26G27G28G31               
  21229790.688 6  21229800.066 9 111563299.623 6  86932474.036 9  21229799.05947
  20934394.406 6  20934408.113 9 110010985.118 6  85722903.042 9  20934406.71149
  21174418.539 6                 111272313.715 6  86705724.84948  21174425.23448
  22584164.758 5  22584179.434 9 118680564.923 5  92478376.181 9  22584179.38347
  19818819.031 7  19818827.898 9 104148590.219 7  81154782.867 9  19818827.09449
  23771043.469 1  23771068.914 8 124917705.528 1  97338555.819 8  23771069.03945
  23190128.891 6  23190149.770 9 121864934.814 6  94959763.300 9  23190148.26647
 23  3 10  2 59 28.0000000  0  7G04G08G16G26G27G28G31               
  21229688.828 6  21229698.559 9 111562762.746 6  86932055.677 9  21229697.34047
  20933993.500 6  20934007.305 9 110008878.487 6  85721261.514 9  20934006.13349
  21174641.711 6                 111273488.007 6  86706639.87648  21174649.05148
  22584523.953 5  22584538.629 9 118682451.564 5  92479846.283 9  22584538.36347
  19818820.609 7  19818829.883 9 104148600.592 7  81154790.952 9  19818829.19549
  23771532.117 1  23771555.207 8 124920264.733 1  97340550.028 8  23771555.32045
  23190538.539 6  23190559.203 9 121867085.274 6  94961438.979 9  23190557.46947
 23  3 10  2 59 29.0000000  0  8G04G08G09G16G26G27G28G31            
  21229587.070 6  21229596.250 9 111562226.814 6  86931638.062 9  21229595.41847
  20933592.789 6  20933606.336 9 110006772.646 6  85719620.597 9  20933605.04749
  23404842.156 1                                                
  21174865.391 6                 111274662.707 6  86707555.22248  21174871.84048
  22584882.742 5  22584897.711 8 118684338.467 5  92481316.587 8  22584897.22347
  19818823.313 7  19818832.223 9 104148611.931 7  81154799.787 9  19818831.49649
  23772021.086 1  23772042.828 8 124922824.415 1  97342544.600 8  23772042.71545
  23190947.313 6  23190968.613 8 121869236.305 6  94963115.098 8  23190966.97347
 23  3 10  2 59 30.0000000  0  8G04G08G09G16G26G27G28G31            
  21229484.984 6  21229494.465 9 111561691.593 6  86931220.999 9  21229493.66047
  20933192.344 6  20933206.215 9 110004667.444 6  85717980.178 9  20933205.05949
  23404426.930 1                                                
  21175089.109 6                 111275837.639 6  86708470.74748  21175095.72748
  22585241.547 5  22585256.570 8 118686225.414 5  92482786.923 8  22585256.35547
  19818825.516 7  19818834.301 9 104148624.033 7  81154809.215 9  19818833.60949
  23772509.063 2  23772529.734 8 124925384.493 2  97344539.461 8  23772529.59045
  23191357.484 6  23191377.922 8 121871387.722 6  94964791.519 8  23191376.39847
 23  3 10  2 59 31.0000000  0  8G04G08G09G16G26G27G28G31            
  21229383.555 6  21229392.816 8 111561157.188 6  86930804.581 8  21229392.21947
  20932792.148 6  20932805.715 9 110002562.929 6  85716340.303 9  20932804.30149
  23404014.945 1                 122988948.027 1                
  21175312.172 6                 111277012.847 6  86709386.48947  21175319.27747
  22585601.039 5  22585615.770 8 118688112.525 5  92484257.388 8  22585615.18847
  19818827.844 7  19818837.191 9 104148636.952 7  81154819.287 9  19818836.40649
  23772996.844 2  23773017.195 8 124927944.994 2  97346534.650 8  23773017.11745
  23191766.984 6  23191787.777 8 121873539.549 6  94966468.268 8  23191786.12547
 23  3 10  2 59 32.0000000  0  8G04G08G09G16G26G27G28G31            
  21229281.938 6  21229290.832 9 111560623.433 6  86930388.659 9  21229290.10947
  20932391.672 6  20932404.941 9 110000458.942 6  85714700.839 9  20932403.37549
  23403602.648 1                                                
  21175536.250 6                 111278188.211 6  86710302.35647  21175542.84447
  22585959.719 5  22585974.586 8 118689999.644 5  92485727.870 8  22585974.06347
  19818830.547 7  19818839.516 9 104148650.594 7  81154829.911 9  19818838.73449
  23773483.555 3  23773504.590 8 124930505.872 3  97348530.135 8  23773504.16845
  23192175.711 6  23192197.418 8 121875691.685 6  94968145.245 8  23192195.73047
 23  3 10  2 59 33.0000000  0  8G04G08G09G16G26G27G28G31            
  21229180.539 6  21229189.828 9 111560090.520 6  86929973.391 9  21229188.81647
  20931991.617 6  20932004.930 9 109998355.723 6  85713061.969 9  20932003.66849
  23403189.648 1                                                
  21175760.008 6                 111279363.896 6  86711218.47147  21175766.98447
  22586319.000 5  22586334.191 8 118691886.971 5  92487198.502 8  22586333.30947
  19818832.859 7  19818842.320 9 104148665.123 7  81154841.236 9  19818841.61349
  23773970.828 3  23773992.070 8 124933067.131 3  97350525.912 8  23773991.63745
  23192585.539 6  23192606.816 9 121877844.291 6  94969822.602 9  23192604.87547
 23  3 10  2 59 34.0000000  0  8G04G08G09G16G26G27G28G31            
  21229079.445 6  21229088.582 9 111559558.297 6  86929558.664 9  21229087.68047
  20931591.516 6  20931604.680 9 109996253.085 6  85711423.555 9  20931603.33249
  23402777.148 1                                                
  21175983.719 6                 111280539.804 6  86712134.75748  21175990.79348
  22586678.453 5  22586692.754 8 118693774.283 5  92488669.118 8  22586692.10247
  19818836.086 7  19818845.027 9 104148680.360 7  81154853.105 9  19818844.26249
  23774458.492 3  23774479.441 8 124935628.806 3  97352522.021 8  23774479.53145
  23192995.328 6  23193016.594 9 121879997.222 6  94971500.204 9  23193014.62147
 23  3 10  2 59 35.0000000  0  8G04G08G09G16G26G27G28G31            
  21228978.141 6  21228987.133 9 111559026.920 6  86929144.604 9  21228986.50047
  20931191.195 6  20931204.914 9 109994151.177 6  85709785.707 9  20931203.67649
  23402367.039 1                                                
  21176207.719 6                 111281716.024 6  86713051.29648  21176214.37948
  22587037.219 5  22587052.172 8 118695661.814 5  92490139.903 8  22587051.38747
  19818838.961 7  19818848.578 9 104148696.499 7  81154865.677 9  19818847.57449
  23774945.758 3  23774967.520 8 124938190.966 3  97354518.504 8  23774966.94145
  23193405.008 6  23193426.035 9 121882150.624 6  94973178.175 9  23193424.50047
 23  3 10  2 59 36.0000000  0  8G04G08G09G16G26G27G28G31            
  21228877.703 6  21228886.496 9 111558496.264 6  86928731.109 9  21228885.73047
  20930791.789 6  20930804.715 9 109992049.872 6  85708148.335 9  20930803.50049
  23401954.727 1                                                
  21176431.727 6                 111282892.446 6  86713967.97747  21176438.48447
  22587396.633 6  22587411.902 9 118697549.382 6  92491610.724 9  22587410.70747
  19818842.336 7  19818851.527 9 104148713.354 7  81154878.813 9  19818850.61349
  23775433.672 3  23775454.559 8 124940753.441 3  97356515.221 8  23775454.22345
  23193815.023 6  23193835.773 9 121884304.400 6  94974856.436 9  23193834.17247
 23  3 10  2 59 37.0000000  0  8G04G08G09G16G26G27G28G31            
  21228776.281 5  21228785.742 9 111557966.568 5  86928318.359 9  21228784.75047
  20930391.508 6  20930405.289 9 109989949.439 6  85706511.642 9  20930404.02049
  23401543.867 1                 122975952.66511                
  21176655.078 6                 111284069.338 6  86714885.02947  21176662.25047
  22587756.375 6  22587771.063 9 118699437.272 6  92493081.800 9  22587770.19147
  19818845.414 7  19818855.063 9 104148731.258 7  81154892.760 9  19818854.23849
  23775921.664 3  23775942.594 8 124943316.604 3  97358512.478 8  23775942.27745
  23194224.766 6  23194246.273 9 121886458.760 6  94976535.151 9  23194244.41447
 23  3 10  2 59 38.0000000  0  8G04G08G09G16G26G27G28G31            
  21228676.078 6  21228684.887 9 111557437.396 6  86927906.012 9  21228684.07447
  20929992.141 6  20930006.395 9 109987849.446 6  85704875.284 9  20930004.49649
  23401132.234 1                 122973788.854 1                
  21176879.086 6                 111285246.267 6  86715802.12648  21176886.09048
  22588115.180 6  22588130.145 9 118701325.040 6  92494552.781 9  22588129.41847
  19818849.188 7  19818858.484 9 104148749.705 7  81154907.131 9  19818857.69149
  23776409.992 3  23776430.215 8 124945879.811 3  97360509.787 8  23776430.14545
  23194634.859 6  23194656.008 9 121888613.295 6  94978214.004 9  23194654.61347
 23  3 10  2 59 39.0000000  0  8G04G08G09G16G26G27G28G31            
  21228575.172 6  21228584.508 9 111556908.901 6  86927494.194 9  21228584.05947
  20929593.070 6  20929606.559 9 109985750.027 6  85703239.381 9  20929605.04749
  23400719.219 1                 122971625.456 1                
  21177103.289 6                 111286423.309 6  86716719.30047  21177109.97347
  22588474.523 6  22588489.391 9 118703212.809 6  92496023.765 9  22588488.57447
  19818853.070 7  19818861.996 9 104148768.860 7  81154922.062 9  19818861.30949
  23776897.336 3  23776918.098 8 124948443.427 3  97362507.413 8  23776917.82445
  23195045.000 6  23195065.801 9 121890768.120 6  94979893.088 9  23195064.46947
 23  3 10  2 59 40.0000000  0  8G04G08G09G16G26G27G28G31            
  21228474.961 6  21228484.043 9 111556381.314 6  86927083.091 9  21228483.21547
  20929193.391 6  20929206.992 9 109983651.382 6  85701604.073 9  20929205.35949
  23400307.148 1                 122969462.928 1                
  21177327.219 6                 111287600.773 6  86717636.79948  21177334.48048
  22588833.836 6  22588848.734 9 118705100.829 6  92497494.943 9  22588847.71947
  19818856.594 7  19818866.039 9 104148788.970 7  81154937.731 9  19818865.32449
  23777384.500 3  23777406.457 8 124951007.549 3  97364505.422 8  23777405.94145
  23195454.563 6  23195475.828 9 121892923.498 6  94981572.604 9  23195474.62147
 23  3 10  2 59 41.0000000  0  8G04G08G09G16G26G27G28G31            
  21228374.211 6  21228384.063 9 111555854.539 6  86926672.612 9  21228383.10547
  20928794.102 6  20928807.777 9 109981553.445 6  85699969.316 9  20928806.17649
  23399895.461 1                 122967301.003 1                
  21177550.992 6                 111288778.564 6  86718554.55947  21177558.08247
  22589193.125 5  22589208.152 9 118706989.025 5  92498966.255 9  22589206.77747
  19818860.555 7  19818869.723 9 104148809.923 7  81154954.050 9  19818868.82449
  23777872.352 3  23777894.051 8 124953572.171 3  97366503.815 8  23777894.15645
  23195865.070 6  23195886.121 9 121895079.323 6  94983252.460 9  23195884.87147
 23  3 10  2 59 42.0000000  0  8G04G08G09G16G26G27G28G31            
  21228274.344 6  21228283.980 9 111555328.399 6  86926262.628 9  21228283.10247
  20928394.992 6  20928409.027 9 109979456.015 6  85698334.956 9  20928407.04349
  23399484.211 1                 122965139.507 1                
  21177775.672 6                 111289956.478 6  86719472.41747  21177782.50047
  22589552.820 6  22589567.738 8 118708877.185 6  92500437.539 8  22589566.36747
  19818864.406 7  19818873.777 9 104148831.552 7  81154970.908 9  19818873.09049
  23778360.867 3  23778382.375 8 124956136.990 3  97368502.376 8  23778382.30945
  23196276.250 6  23196296.605 8 121897235.457 6  94984932.564 8  23196295.33647
 23  3 10  2 59 43.0000000  0  8G04G08G09G16G26G27G28G31            
  21228174.102 6  21228184.066 9 111554802.988 6  86925853.215 9  21228182.84847
  20927995.758 6  20928009.664 9 109977359.203 6  85696701.071 9  20928007.98849
  23399072.672 1                 122962978.627 1                
  21177999.891 6                 111291134.599 6  86720390.42447  21178006.49247
  22589912.453 6  22589926.656 8 118710765.418 6  92501908.876 8  22589925.48447
  19818868.711 7  19818878.480 9 104148853.964 7  81154988.367 9  19818877.56349
  23778849.117 2  23778870.695 8 124958702.265 2  97370501.287 8  23778870.58245
  23196686.109 6  23196706.840 8 121899391.921 6  94986612.919 8  23196705.63347
 23  3 10  2 59 44.0000000  0  8G04G08G09G16G26G27G28G31            
  21228074.703 6  21228084.180 9 111554278.279 6  86925444.348 9  21228083.17647
  20927596.977 6  20927610.879 9 109975262.980 6  85695067.656 9  20927609.18449
  23398660.125 1                 122960818.249 1                
  21178223.891 6                 111292312.891 6  86721308.57147  21178230.98447
  22590271.625 6  22590285.891 8 118712653.682 6  92503380.242 8  22590284.90247
  19818873.063 7  19818882.840 9 104148877.067 7  81155006.374 9  19818881.89849
  23779335.930 2  23779358.594 8 124961267.862 2  97372500.451 8  23779358.50845
  23197096.352 6  23197117.555 8 121901548.721 6  94988293.538 8  23197116.24647
 23  3 10  2 59 45.0000000  0  8G04G08G09G16G26G27G28G31            
  21227974.656 6  21227984.434 9 111553754.224 6  86925035.993 9  21227983.32447
  20927197.977 6  20927212.242 9 109973167.323 6  85693434.681 9  20927210.65249
  23398248.656 1                 122958658.395 1                
  21178448.320 6                 111293491.340 6  86722226.84647  21178455.03547
  22590630.547 6  22590644.980 8 118714541.982 6  92504851.634 8  22590644.03547
  19818877.680 7  19818887.113 9 104148900.904 7  81155024.942 9  19818886.12149
  23779823.813 1  23779846.797 8 124963833.715 1  97374499.832 8  23779846.74645
  23197506.953 6  23197528.133 9 121903705.830 6  94989974.398 9  23197526.66047
 23  3 10  2 59 46.0000000  0  8G04G08G09G16G26G27G28G31            
  21227875.281 6  21227884.625 9 111553230.924 6  86924628.229 9  21227883.84047
  20926799.484 6  20926813.176 9 109971072.322 6  85691802.220 9  20926811.58649
  23397838.258 1                 122956499.189 1                
  21178672.180 6                 111294670.059 6  86723145.32348  21178679.30548
  22590989.711 6  22591004.555 8 118716430.335 6  92506323.077 8  22591003.44947
  19818882.055 7  19818892.109 9 104148925.525 7  81155044.126 9  19818891.37949
  23780312.008 1  23780335.785 8 124966399.938 1  97376499.487 8  23780335.92245
  23197918.195 6  23197938.801 9 121905863.300 6  94991655.538 9  23197937.39547
 23  3 10  2 59 47.0000000  0  8G04G08G09G16G26G27G28G31            
  21227775.641 6  21227785.723 9 111552708.165 6  86924220.881 9  21227784.79747
  20926401.172 6  20926414.637 9 109968977.731 6  85690170.071 9  20926412.80149
  23397427.367 1                 122954340.271 1                
  21178896.758 6                 111295848.782 6  86724063.81447  21178903.81647
  22591349.336 6  22591364.152 8 118718318.608 6  92507794.441 8  22591363.10547
  19818887.281 7  19818896.855 9 104148950.718 7  81155063.759 9  19818895.98449
  23780799.359 1  23780823.566 8 124968966.412 1  97378499.353 8  23780823.59045
  23198328.070 6  23198349.020 9 121908020.966 6  94993336.840 9  23198347.88347
 23  3 10  2 59 48.0000000  0  8G04G08G09G16G26G27G28G31            
  21227676.531 6  21227686.340 9 111552186.249 6  86923814.189 9  21227685.39547
  20926002.367 6  20926016.031 9 109966883.885 6  85688538.504 9  20926014.71949
  23397016.781 1                 122952182.029 1                
  21179120.867 6                 111297027.856 6  86724982.57347  21179128.13747
  22591709.102 6  22591723.473 9 118720207.051 6  92509265.947 9  22591722.01647
  19818891.984 7  19818901.203 9 104148976.787 7  81155084.070 9  19818900.59449
  23781287.094 1  23781312.148 8 124971533.266 1  97380499.529 8  23781312.23845
  23198738.781 6  23198760.078 9 121910179.069 6  94995018.479 9  23198758.65647
 23  3 10  2 59 49.0000000  0  8G04G08G09G16G26G27G28G31            
  21227577.148 6  21227586.563 9 111551665.188 6  86923408.165 9  21227585.98047
  20925604.172 6  20925618.238 9 109964790.806 6  85686907.532 9  20925616.59049
  23396605.773 1                 122950024.531 1                
  21179346.023 6                 111298207.258 6  86725901.58548  21179352.43848
  22592068.148 6  22592083.031 8 118722095.672 6  92510737.584 8  22592081.51247
  19818897.367 7  19818907.172 9 104149003.745 7  81155105.074 9  19818906.23449
  23781774.906 1  23781801.105 8 124974100.640 1  97382500.113 8  23781801.52045
  23199149.898 6  23199170.414 9 121912337.722 6  94996700.547 9  23199169.22347
 23  3 10  2 59 50.0000000  0  8G04G08G09G16G26G27G28G31            
  21227478.133 6  21227487.652 9 111551144.808 6  86923002.666 9  21227487.11347
  20925206.180 6  20925220.238 9 109962698.278 6  85685276.994 9  20925218.56649
  23396195.086 1                 122947867.470 1                
  21179569.813 6                 111299386.877 6  86726820.75448  21179577.14848
  22592427.461 6  22592442.152 9 118723984.345 6  92512209.271 9  22592440.56347
  19818902.477 7  19818912.133 9 104149031.438 7  81155126.650 9  19818911.00849
  23782262.852 1  23782289.172 8 124976668.433 1  97384501.047 8  23782289.34845
  23199560.625 6  23199581.594 9 121914496.642 6  94998382.820 9  23199580.40247
 23  3 10  2 59 51.0000000  0  8G04G08G09G16G26G27G28G31            
  21227379.023 6  21227388.445 9 111550624.806 6  86922597.464 9  21227387.91447
  20924808.352 6  20924821.465 9 109960606.019 6  85683646.671 9  20924819.98049
  23395784.188 1                 122945710.728 1                
  21179794.539 6                 111300566.324 6  86727739.80447  21179801.48047
  22592786.977 6  22592801.469 8 118725872.718 6  92513680.717 8  22592799.96547
  19818907.930 7  19818917.168 9 104149059.543 7  81155148.555 9  19818916.27349
  23782752.195 1                                                
  23199971.617 6  23199992.379 9 121916655.625 6  95000065.150 9  23199991.36347
 23  3 10  2 59 52.0000000  0  8G04G08G09G16G26G27G28G31            
  21227280.711 6  21227290.047 9 111550105.743 6  86922192.999 9  21227289.47747
  20924410.141 6  20924423.793 9 109958514.608 6  85682016.996 9  20924422.40649
  23395374.164 1                 122943554.696 1                
  21180019.414 6                 111301746.226 6  86728659.21047  21180026.35547
  22593145.789 6  22593160.672 8 118727761.398 6  92515152.403 8  22593159.32447
  19818913.289 7  19818922.840 9 104149088.614 7  81155171.205 9  19818921.77749
  23783240.398 1                                                
  23200382.266 6  23200403.336 9 121918815.134 6  95001747.885 9  23200402.18847
 23  3 10  2 59 53.0000000  0  8G04G08G09G16G26G27G28G31            
  21227181.969 6  21227191.469 9 111549587.314 6  86921789.026 9  21227190.79747
  20924012.031 6  20924025.684 9 109956423.697 6  85680387.724 9  20924023.91849
  23394963.469 1                 122941399.213 1                
  21180243.703 6                 111302926.240 6  86729578.69347  21180250.81347
  22593505.352 6  22593520.359 8 118729650.015 6  92516624.041 8  22593518.86747
  19818918.594 7  19818928.813 9 104149118.358 7  81155194.377 9  19818927.79349
  23783730.328 1                                                
  23200793.469 6  23200814.008 9 121920974.948 6  95003430.854 9  23200813.21547
 23  3 10  2 59 54.0000000  0  8G04G08G09G16G26G27G28G31            
  21227083.477 6  21227092.977 9 111549069.703 6  86921385.693 9  21227092.30147
  20923614.016 6  20923627.840 9 109954333.486 6  85678758.994 9  20923626.49649
  23394551.938 1                 122939244.287 1                
  21180468.359 6                 111304106.565 6  86730498.42147  21180475.23047
  22593864.805 6  22593879.855 8 118731538.824 6  92518095.830 8  22593878.12547
  19818924.633 7  19818934.707 9 104149148.952 7  81155218.220 9  19818933.82049
  23784219.289 1                                                
  23201204.531 6  23201224.746 9 121923135.203 6  95005114.164 9  23201224.05547
 23  3 10  2 59 55.0000000  0  8G04G08G09G16G26G27G28G31            
  21226985.492 6  21226994.996 9 111548552.943 6  86920983.017 9  21226994.44547
  20923216.523 6  20923230.113 9 109952244.051 6  85677130.862 9  20923228.69549
  23394141.992 1                 122937090.140 1                
  21180692.773 6                 111305287.249 6  86731418.43147  21180699.77747
  22594224.055 6  22594239.520 8 118733427.840 6  92519567.782 8  22594238.15647
  19818930.391 7  19818940.332 9 104149180.460 7  81155242.769 9  19818939.33649
  23784709.984 1  23784733.410 8 124989511.66611  97394508.87118  23784733.93445
  23201615.672 6  23201636.457 8 121925295.988 6  95006797.896 8  23201635.68047
 23  3 10  2 59 56.0000000  0  8G04G08G09G16G26G27G28G31            
  21226886.938 6  21226896.434 9 111548037.062 6  86920581.032 9  21226895.64147
  20922818.813 6  20922832.809 9 109950155.331 6  85675503.288 9  20922831.28549
  23393731.844 1                 122934936.674 1                
  21180917.852 6                 111306468.282 6  86732338.71747  21180924.32047
  22594583.547 5  22594598.809 8 118735317.035 5  92521039.874 8  22594597.05547
  19818937.039 7  19818946.582 9 104149212.856 7  81155268.012 9  19818945.63749
  23785199.789 1  23785221.758 8 124992081.762 1  97396511.549 8  23785222.86345
  23202027.477 6  23202047.785 8 121927457.203 6  95008481.962 8  23202046.73447
 23  3 10  2 59 57.0000000  0  8G04G08G09G16G26G27G28G31            
  21226789.266 6  21226798.305 9 111547522.037 6  86920179.712 9  21226797.74647
  20922421.688 6  20922435.465 9 109948067.385 6  85673876.317 9  20922433.69549
  23393322.258 1                 122932783.938 1                
  21181142.477 6                 111307649.666 6  86733259.27947  21181149.23847
  22594943.461 6  22594958.219 8 118737206.456 6  92522512.137 8  22594956.73447
  19818943.461 7  19818952.859 9 104149246.154 7  81155293.957 9  19818951.82849
  23785689.172 1  23785711.422 8 124994652.358 1  97398514.602 8  23785712.40245
  23202438.805 6  23202459.203 9 121929618.959 6  95010166.440 9  23202457.73447
 23  3 10  2 59 58.0000000  0  8G04G08G09G16G26G27G28G31            
  21226691.453 6  21226700.355 9 111547007.757 6  86919778.979 9  21226699.88347
  20922024.750 6  20922037.988 9 109945980.065 6  85672249.839 9  20922036.80549
  23392912.133 1                                                
  21181367.320 6                 111308831.268 6  86734180.00648  21181374.52048
  22595303.125 6  22595318.078 8 118739095.969 6  92523984.482 8  22595316.37947
  19818949.859 7  19818959.035 9 104149280.226 7  81155320.502 9  19818958.11349
  23786177.664 1  23786200.539 8 124997223.320 1  97400517.935 8  23786201.43845
  23202850.164 6  23202870.680 9 121931781.078 6  95011851.209 9  23202869.44147
 23  3 10  2 59 59.0000000  0  8G04G08G09G16G26G27G28G31            
  21226593.805 6  21226602.938 9 111546494.148 6  86919378.762 9  21226602.27747
  20921627.398 6  20921641.289 9 109943893.312 6  85670623.793 9  20921639.50849
  23392503.383 1                                                
  21181592.398 6                 111310013.047 6  86735100.86647  21181599.48447
  22595662.336 6  22595677.270 8 118740985.446 6  92525456.795 8  22595675.55147
  19818956.484 7  19818966.125 9 104149315.020 7  81155347.607 9  19818964.96549
  23786667.867 2  23786689.840 8 124999794.618 2  97402521.543 8  23786690.90645
  23203261.680 6  23203282.223 8 121933943.515 6  95013536.228 8  23203280.84447
 23  3 10  3  0  0.0000000  0  8G04G08G09G16G26G27G28G31            
  21226496.422 6  21226505.406 9 111545981.232 6  86918979.080 9  21226504.93847
  20921230.320 6  20921244.090 9 109941807.146 6  85668998.216 9  20921242.57849
  23392093.727 1                                                
  21181817.297 6                 111311194.997 6  86736021.86047  21181823.94147
  22596022.695 5  22596036.867 8 118742874.984 5  92526929.154 8  22596035.11747
  19818963.438 7  19818972.773 9 104149350.530 7  81155375.279 9  19818971.76649
  23787156.906 2  23787178.859 8 125002366.214 2  97404525.375 8  23787180.02045
  23203672.891 6  23203693.441 9 121936106.261 6  95015221.477 9  23203692.30947
 23  3 10  3  0  1.0000000  0  8G04G08G09G16G26G27G28G31            
  21226398.414 6  21226408.039 9 111545469.047 6  86918579.973 9  21226407.64147
  20920833.570 6  20920847.410 9 109939721.623 6  85667373.131 9  20920845.75049
  23391683.711 1                 122924178.34411                
  21182042.359 6                 111312377.193 6  86736943.05547  21182049.36747
  22596381.578 5  22596396.547 8 118744764.634 5  92528401.587 8  22596394.86347
  19818970.383 7  19818979.539 9 104149386.828 7  81155403.562 9  19818978.24649
  23787647.602 3  23787668.082 8 125004938.254 3  97406529.554 8  23787669.40245
  23204084.766 6  23204104.754 9 121938269.369 6  95016907.018 9  23204103.87547
 23  3 10  3  0  2.0000000  0  8G04G08G09G16G26G27G28G31            
  21226301.125 6  21226310.785 9 111544957.755 6  86918181.565 9  21226310.30947
  20920436.461 6  20920450.473 9 109937636.874 6  85665748.656 9  20920448.82049
  23391275.008 1                 122922028.415 1                
  21182267.484 6                 111313559.755 6  86737864.53447  21182274.37147
  22596741.352 6  22596756.230 8 118746654.498 6  92529874.205 8  22596754.49647
  19818977.063 7  19818986.797 9 104149424.053 7  81155432.567 9  19818985.67249
  23788136.359 3  23788157.910 8 125007510.799 3  97408534.119 8  23788158.87545
  23204496.414 6  23204516.484 9 121940433.034 6  95018592.992 9  23204515.86347
 23  3 10  3  0  3.0000000  0  8G04G08G09G16G26G27G28G31            
  21226204.086 6  21226213.414 9 111544447.118 6  86917783.664 9  21226213.10247
  20920040.516 6  20920054.172 9 109935552.676 6  85664124.614 9  20920052.63349
  23390866.414 1  23390881.820 7 122919879.077 1  95781748.53217
  21182491.984 6                 111314742.480 6  86738786.13347  21182499.51647
  22597101.023 6  22597115.758 8 118748544.364 6  92531346.823 8  22597114.08647
  19818984.672 7  19818994.250 9 104149461.939 7  81155462.087 9  19818993.14149
  23788627.156 3  23788647.316 8 125010083.583 3  97410538.876 8  23788648.19145
  23204908.102 6  23204928.273 9 121942596.957 6  95020279.170 9  23204927.36747
 23  3 10  3  0  4.0000000  0  8G04G08G09G16G26G27G28G31            
  21226106.969 6  21226116.395 9 111543937.167 6  86917386.300 9  21226116.08647
  20919643.953 6  20919657.242 9 109933469.044 6  85662501.004 9  20919655.71149
  23390456.828 1  23390473.285 7 122917730.213 1  95780074.099 7
  21182717.609 6                 111315925.340 6  86739707.84247  21182724.43847
  22597460.328 6  22597475.219 8 118750434.220 6  92532819.432 8  22597473.58247
  19818991.758 7  19819000.727 9 104149500.564 7  81155492.188 9  19818999.85249
  23789116.969 3  23789137.438 8 125012656.736 3  97412543.911 8  23789138.35245
  23205320.320 6  23205339.988 9 121944761.197 6  95021965.590 9  23205339.23847
 23  3 10  3  0  5.0000000  0  8G04G08G09G16G26G27G28G31            
  21226009.750 6  21226019.301 9 111543428.060 6  86916989.584 9  21226018.93847
  20919247.453 6  20919261.262 9 109931386.180 6  85660877.997 9  20919259.67249
  23390047.773 1  23390064.758 7 122915582.091 1  95778400.251 7
  21182943.094 6                 111317108.571 6  86740629.82647  21182949.79347
  22597820.523 6  22597834.906 8 118752324.298 6  92534292.203 8  22597833.37947
  19818999.344 7  19819008.746 9 104149540.069 7  81155522.967 9  19819007.70749
  23789607.164 3  23789627.266 8 125015230.351 3  97414549.315 8  23789628.10245
  23205731.422 6  23205751.902 8 121946925.933 6  95023652.394 8  23205750.82847
 23  3 10  3  0  6.0000000  0  8G04G08G09G16G26G27G28G31            
  21225913.758 6  21225922.723 9 111542919.629 6  86916593.404 9  21225922.29347
  20918851.344 6  20918865.188 9 109929303.874 6  85659255.423 9  20918863.67249
  23389637.156 1  23389656.074 7 122913434.490 1  95776726.806 7
  21183167.852 6                 111318291.982 6  86741551.96947  21183174.93047
  22598180.563 5  22598194.418 8 118754214.409 5  92535765.011 8  22598192.96147
  19819007.008 7  19819016.613 9 104149580.315 7  81155554.325 9  19819015.74649
  23790096.930 3  23790116.941 8 125017804.324 3  97416554.991 8  23790117.50045
  23206144.219 6  23206164.160 8 121949090.994 6  95025339.447 8  23206163.26247
 23  3 10  3  0  7.0000000  0  8G04G08G09G16G26G27G28G31            
  21225817.336 6  21225825.875 9 111542411.951 6  86916197.807 9  21225825.53547
  20918455.102 6  20918468.738 9 109927222.173 6  85657633.325 9  20918467.13749
  23389229.250 1  23389247.816 7 122911287.435 1  95775053.786 7
  21183393.148 6                 111319475.602 6  86742474.25947  21183400.03147
  22598539.734 5  22598554.313 8 118756104.578 5  92537237.862 8  22598552.85247
  19819014.586 7  19819024.520 9 104149621.317 7  81155586.273 9  19819023.41849
  23790586.031 3  23790606.879 8 125020378.665 3  97418560.966 8  23790607.15645
  23206555.586 6  23206576.168 8 121951256.415 6  95027026.788 8  23206574.99247
 23  3 10  3  0  8.0000000  0  8G04G08G09G16G26G27G28G31            
  21225720.242 6  21225729.645 9 111541904.988 6  86915802.767 9  21225728.86347
  20918059.328 6  20918072.660 9 109925141.097 6  85656011.705 9  20918071.22349
  23388820.508 1  23388839.777 7 122909140.991 1  95773381.233 7
  21183618.383 6                 111320659.408 6  86743396.70847  21183625.38347
  22598898.820 6  22598913.980 8 118757994.811 6  92538710.759 8  22598912.11747
  19819022.547 7  19819032.367 9 104149663.069 7  81155618.804 9  19819031.15649
  23791075.000 3  23791097.406 8 125022953.391 3  97420567.241 8  23791097.20345
  23206968.391 6  23206988.191 8 121953422.188 6  95028714.398 8  23206987.00847
 23  3 10  3  0  9.0000000  0  8G04G08G09G16G26G27G28G31            
  21225624.023 6  21225633.242 9 111541398.783 6  86915408.314 9  21225632.50847
  20917663.359 6  20917676.758 9 109923060.690 6  85654390.613 9  20917675.11749
  23388413.000 1  23388432.035 7 122906995.033 1  95771709.043 7
  21183843.570 6                 111321843.496 6  86744319.36947  21183850.96147
  22599258.945 6  22599273.895 8 118759885.160 6  92540183.749 8  22599271.82847
  19819030.922 7  19819040.496 9 104149705.629 7  81155651.966 9  19819039.16449
  23791563.875 2  23791587.055 8 125025528.473 2  97422573.789 8  23791586.96545
  23207379.852 6  23207400.520 8 121955588.371 6  95030402.331 8  23207399.13347
 23  3 10  3  0 10.0000000  0  8G04G08G09G16G26G27G28G31            
  21225527.953 6  21225536.996 9 111540893.252 6  86915014.393 9  21225536.32847
  20917267.641 6  20917281.406 9 109920980.852 6  85652769.969 9  20917279.69149
  23388004.195 1  23388023.523 7 122904849.658 1  95770037.324 7
  21184068.930 6                 111323027.750 6  86745242.16048  21184076.05148
  22599618.719 6  22599634.020 8 118761775.534 6  92541656.765 8  22599632.07847
  19819038.891 7  19819048.492 9 104149748.909 7  81155685.688 9  19819047.33649
  23792053.445 1  23792076.914 8 125028103.883 1  97424580.594 8  23792076.96945
  23207792.039 6  23207813.055 8 121957754.842 6  95032090.489 8  23207811.71947
 23  3 10  3  0 11.0000000  0  8G04G08G09G16G26G27G28G31            
  21225432.250 6  21225440.938 9 111540388.486 6  86914621.074 9  21225440.30147
  20916872.242 6  20916885.500 9 109918901.653 6  85651149.815 9  20916884.12149
  23387596.445 1                                                
  21184294.836 6                 111324212.232 6  86746165.12847  21184302.01647
  22599978.234 6  22599993.320 8 118763665.991 6  92543129.840 8  22599991.27347
  19819047.594 7  19819056.984 9 104149792.986 7  81155720.035 9  19819055.94949
  23792543.766 1  23792566.473 8 125030679.647 1  97426587.689 8  23792566.42644
  23208204.656 6  23208225.035 8 121959921.727 6  95033778.966 8  23208223.57447
 23  3 10  3  0 12.0000000  0  8G04G08G09G16G26G27G28G31            
  21225336.219 6  21225345.016 9 111539884.534 6  86914228.382 9  21225344.42247
  20916476.273 6  20916489.738 9 109916823.155 6  85649530.214 9  20916488.09449
  23387188.602 1  23387207.695 7 122900560.84311  95766695.42217
  21184520.047 6                 111325397.059 6  86747088.36547  21184527.23847
  22600337.664 6  22600352.879 8 118765556.631 6  92544603.055 8  22600350.89147
  19819056.023 7  19819065.742 9 104149837.915 7  81155755.046 9  19819064.83249
  23793034.328 1  23793057.281 8 125033255.960 1  97428595.206 8  23793057.12145
  23208616.992 6  23208637.488 8 121962089.055 6  95035467.796 8  23208636.09047
 23  3 10  3  0 13.0000000  0  8G04G08G09G16G26G27G28G31            
  21225240.102 6  21225249.809 9 111539381.401 6  86913836.322 9  21225249.11347
  20916080.875 6  20916094.625 9 109914745.387 6  85647911.171 9  20916092.82049
  23386781.570 1  23386799.785 7 122898417.340 1  95765025.138 7
  21184745.664 6                 111326582.131 6  86748011.80348  21184752.56648
  22600697.758 6  22600713.113 8 118767447.394 6  92546076.355 8  22600711.05147
  19819064.609 7  19819074.262 9 104149883.669 7  81155790.696 9  19819073.49649
  23793523.461 1  23793547.402 8 125035832.618 1  97430602.979 8  23793547.62545
  23209029.664 6  23209049.793 8 121964256.822 6  95037156.956 8  23209048.52347
 23  3 10  3  0 14.0000000  0  8G04G08G09G16G26G27G28G31            
  21225144.617 6  21225154.406 9 111538879.094 6  86913444.910 9  21225153.75447
  20915685.273 6  20915698.930 9 109912668.341 6  85646292.694 9  20915697.10249
  23386374.148 1                                                
  21184971.531 6                 111327767.554 6  86748935.50247  21184977.87947
  22601058.367 6  22601073.043 8 118769338.371 6  92547549.838 8  22601070.71547
  19819073.320 7  19819082.898 9 104149930.311 7  81155827.034 9  19819082.07449
  23794012.602 1  23794037.906 8 125038409.816 1  97432611.192 8  23794037.99645
  23209442.055 6  23209462.695 8 121966425.082 6  95038846.501 8  23209461.12547
 23  3 10  3  0 15.0000000  0  8G04G08G09G16G26G27G28G31            
  21225049.094 6  21225058.480 9 111538377.518 6  86913054.072 9  21225058.04347
  20915290.625 6  20915304.031 9 109910591.892 6  85644674.687 9  20915302.22349
  23385966.117 1  23385984.391 7 122894132.35811  95761686.19517  23385980.34045
  21185196.906 6                 111328953.178 6  86749859.36547  21185203.35947
  22601418.094 6  22601432.637 8 118771229.376 6  92549023.343 8  22601430.54347
  19819082.664 7  19819091.852 9 104149977.720 7  81155863.976 9  19819090.87149
  23794502.797 1  23794528.621 8 125040987.357 1  97434619.691 8  23794528.53945
  23209854.703 6  23209875.578 8 121968593.670 6  95040536.315 8  23209873.62947
 23  3 10  3  0 16.0000000  0  8G04G08G09G16G26G27G28G31            
  21224953.758 6  21224963.336 9 111537876.589 6  86912663.734 9  21224962.89847
  20914895.414 6  20914908.836 9 109908516.009 6  85643057.112 9  20914907.15249
  23385558.570 1  23385576.609 7 122891990.636 1  95760017.320 7  23385572.61746
  21185422.445 6                 111330138.950 6  86750783.34747  21185429.21547
  22601778.047 6  22601792.641 8 118773120.399 6  92550496.860 8  22601790.87947
  19819091.352 7  19819100.797 9 104150025.807 7  81155901.443 9  19819099.87149
  23794993.055 1                                                
  23210267.063 6  23210288.477 8 121970762.532 6  95042226.332 8  23210286.64147
 23  3 10  3  0 17.0000000  0  8G04G08G09G16G26G27G28G31            
  21224858.906 6  21224867.871 9 111537376.549 6  86912274.089 9  21224867.43847
  20914500.570 6  20914514.395 9 109906440.886 6  85641440.141 9  20914512.55949
  23385151.414 1  23385169.160 7 122889849.648 1  95758349.035 7  23385165.22745
  21185648.172 6                 111331325.109 6  86751707.62647  21185654.89547
  22602138.313 6  22602152.543 8 118775011.640 6  92551970.549 8  22602150.76647
  19819100.945 7  19819110.816 9 104150074.815 7  81155939.628 9  19819109.75049
  23795483.195 1  23795508.918 8 125046143.53611  97438637.56318  23795509.44945
  23210680.445 6  23210701.449 8 121972931.931 6  95043916.771 8  23210699.72347
 23  3 10  3  0 18.0000000  0  8G04G08G09G16G26G27G28G31            
  21224764.094 6  21224772.605 9 111536877.177 6  86911884.964 9  21224772.18447
  20914105.875 6  20914119.203 9 109904366.337 6  85639823.608 9  20914117.57049
  23384744.789 1  23384761.480 6 122887709.176 1  95756681.119 6  23384757.72345
  21185874.250 6                 111332511.418 6  86752632.01747  21185880.47747
  22602497.453 6  22602512.184 8 118776902.884 6  92553444.232 8  22602510.59047
  19819110.258 7  19819120.121 9 104150124.536 7  81155978.366 9  19819119.10549
  23795974.969 1  23795999.785 8 125048722.202 1  97440646.949 8  23796000.01645
  23211093.063 6  23211114.063 8 121975101.647 6  95045607.460 8  23211112.53147
 23  3 10  3  0 19.0000000  0  8G04G08G09G16G26G27G28G31            
  21224669.586 6  21224677.941 9 111536378.664 6  86911496.512 9  21224677.59047
  20913710.984 6  20913725.055 9 109902292.532 6  85638207.657 9  20913723.31649
  23384338.000 1  23384353.813 6 122885569.401 1  95755013.753 6  23384350.17245
  21186099.711 6                 111333698.079 6  86753556.67947  21186106.17647
  22602857.969 6  22602871.934 8 118778794.368 6  92554918.104 8  22602870.48447
  19819120.180 7  19819130.391 9 104150175.140 7  81156017.800 9  19819129.39549
  23796467.258 1  23796490.457 8 125051301.31511  97442656.69418  23796490.98845
  23211505.977 6  23211526.480 8 121977271.843 6  95047298.516 8  23211524.91047
 23  3 10  3  0 20.0000000  0  8G04G08G09G16G26G27G28G31            
  21224574.352 6  21224582.840 9 111535880.799 6  86911108.565 9  21224582.60247
  20913316.547 6  20913329.852 9 109900219.287 6  85636592.139 9  20913328.30549
  23383931.992 1  23383945.680 6 122883430.021 1  95753346.736 6  23383942.56345
  21186325.773 6                 111334884.864 6  86754481.45047  21186332.07447
  22603217.516 6  22603231.918 8 118780685.786 6  92556391.925 8  22603230.25047
  19819129.859 7  19819139.477 9 104150226.436 7  81156057.765 9  19819138.39149
  23796958.156 1  23796981.234 8 125053880.738 1  97444666.677 8  23796981.87145
  23211919.000 6  23211939.930 8 121979442.315 6  95048989.793 8  23211938.40247
 23  3 10  3  0 21.0000000  0  8G04G08G09G16G26G27G28G31            
  21224479.695 6  21224488.523 9 111535383.609 6  86910721.140 9  21224487.88747
  20912922.500 6  20912935.672 9 109898146.585 6  85634977.045 9  20912934.18049
  23383525.547 1                                                
  21186551.461 6                 111336071.843 6  86755406.36347  21186557.84047
  22603578.055 6  22603592.285 8 118782577.261 6  92557865.802 8  22603590.59847
  19819140.094 7  19819149.543 9 104150278.443 7  81156098.290 9  19819148.81649
  23797450.328 1  23797472.480 8 125056460.560 1  97446676.935 8  23797472.68045
  23212331.891 6  23212352.910 8 121981613.095 6  95050681.307 8  23212351.27047
 23  3 10  3  0 22.0000000  0  8G04G08G09G16G26G27G28G31            
  21224385.133 6  21224394.211 9 111534887.138 6  86910334.272 9  21224393.76247
  20912528.195 6  20912541.273 9 109896074.494 6  85633362.428 9  20912539.92649
  23383118.188 1                                                
  21186777.203 6                 111337258.995 6  86756331.41847  21186783.67247
  22603937.578 6  22603952.184 8 118784468.797 6  92559339.712 8  22603950.32447
  19819150.094 7  19819159.211 9 104150331.201 7  81156139.402 9  19819158.32849
  23797943.859 1  23797963.191 8 125059040.708 1  97448687.442 8  23797963.33245
  23212744.828 6  23212766.188 8 121983784.217 6  95052373.089 8  23212764.57447
 23  3 10  3  0 23.0000000  0  8G04G08G09G16G26G27G28G31            
  21224291.008 6  21224299.375 9 111534391.477 6  86909948.039 9  21224298.94947
  20912133.859 6  20912147.480 9 109894003.097 6  85631748.354 9  20912145.66049
  23382710.742 1                                                
  21187003.109 6                 111338446.458 6  86757256.70347  21187009.59447
  22604297.430 6  22604312.008 8 118786360.453 6  92560813.718 8  22604310.37547
  19819160.188 7  19819169.504 9 104150384.795 7  81156181.157 9  19819168.71949
  23798435.164 1  23798455.344 8 125061621.256 1  97450698.263 8  23798455.18045
  23213158.484 6  23213179.871 8 121985955.804 6  95054065.230 8  23213178.15647
 23  3 10  3  0 24.0000000  0  8G04G08G09G16G26G27G28G31            
  21224196.703 6  21224205.391 9 111533896.577 6  86909562.403 9  21224205.32047
  20911739.977 6  20911753.055 9 109891932.392 6  85630134.817 9  20911751.54349
  23382305.367 1                                                
  21187229.523 6                 111339634.206 6  86758182.22147  21187235.98847
  22604657.500 6  22604671.848 8 118788252.256 6  92562287.842 8  22604670.29747
  19819170.508 7  19819180.684 9 104150439.235 7  81156223.579 9  19819179.61749
  23798925.711 2  23798946.727 8 125064202.299 2  97452709.464 8  23798946.27045
  23213571.711 6  23213592.582 8 121988127.804 6  95055757.699 8  23213590.96147
 23  3 10  3  0 25.0000000  0  8G04G08G09G16G26G27G28G31            
  21224102.258 6  21224111.082 9 111533402.473 6  86909177.384 9  21224110.75047
  20911346.000 6  20911359.113 9 109889862.387 6  85628521.824 9  20911357.56349
  23381899.367 1  23381910.141 7 122872742.19911  95745018.56317  23381909.48845
  21187455.281 6                 111340822.198 6  86759107.92447  21187461.76247
  22605017.625 6  22605032.180 8 118790144.157 6  92563762.034 8  22605030.58247
  19819181.453 7  19819190.750 9 104150494.423 7  81156266.577 9  19819189.71149
  23799417.375 3  23799438.164 8 125066783.722 3  97454720.962 8  23799437.45345
  23213984.984 6  23214006.188 8 121990300.187 6  95057450.460 8  23214004.25447
 23  3 10  3  0 26.0000000  0  8G04G08G09G16G26G27G28G31            
  21224008.328 6  21224017.344 9 111532908.980 6  86908792.849 9  21224017.05547
  20910952.172 6  20910965.410 9 109887792.882 6  85626909.227 9  20910963.75049
  23381493.211 2  23381503.242 6 122870606.353 2  95743354.232 6  23381502.94145
  21187681.484 6                 111342010.302 6  86760033.71647  21187687.97747
  22605377.336 6  22605392.016 8 118792036.052 6  92565236.234 8  22605390.32847
  19819191.703 7  19819201.152 9 104150550.340 7  81156310.148 9  19819200.38749
  23799909.000 3  23799929.387 8 125069365.429 3  97456732.685 8  23799928.84445
  23214398.422 6  23214420.031 8 121992472.872 6  95059143.462 8  23214418.09047
 23  3 10  3  0 27.0000000  0  8G04G08G09G16G26G27G28G31            
  21223914.375 6  21223923.828 9 111532416.420 6  86908409.030 9  21223923.32447
  20910558.164 6  20910571.496 9 109885724.196 6  85625297.262 9  20910569.86349
  23381086.133 2  23381096.320 6 122868471.256 2  95741690.493 6  23381096.72346
  21187907.906 6                 111343198.811 6  86760959.82247  21187914.54747
  22605738.313 6  22605752.211 8 118793928.185 6  92566710.606 8  22605750.90247
  19819202.617 7  19819212.703 9 104150607.187 7  81156354.448 9  19819211.47349
  23800399.539 3  23800421.145 8 125071947.701 3  97458744.843 8  23800419.95345
  23214812.219 6  23214833.320 8 121994646.089 6  95060836.876 8  23214831.52047
 23  3 10  3  0 28.0000000  0  8G04G08G09G16G26G27G28G31            
  21223821.305 6  21223830.285 9 111531924.528 6  86908025.738 9  21223829.74647
  20910164.609 6  20910178.242 9 109883656.062 6  85623685.729 9  20910176.53549
  23380680.820 2  23380689.664 6 122866336.649 2  95740027.181 6  23380690.53546
  21188133.898 6                 111344387.504 6  86761886.06947  21188140.43847
  22606097.969 6  22606112.418 8 118795820.353 6  92568185.020 8  22606111.18847
  19819213.266 7  19819222.809 9 104150664.745 7  81156399.295 9  19819221.81649
  23800891.453 3  23800913.297 8 125074530.241 3  97460757.225 8  23800911.82845
  23215225.656 5  23215246.840 8 121996819.616 5  95062530.530 8  23215244.99647
 23  3 10  3  0 29.0000000  0  8G04G08G09G16G26G27G28G31            
  21223727.648 6  21223736.707 9 111531433.458 6  86907643.083 9  21223736.16447
  20909771.289 6  20909784.641 9 109881588.665 6  85622074.771 9  20909783.02749
  23380275.656 2  23380283.539 6 122864202.704 2  95738364.377 6  23380284.64545
  21188360.055 6                 111345576.509 6  86762812.56847  21188366.95747
  22606457.945 6  22606471.895 8 118797712.651 6  92569659.530 8  22606470.45747
  19819225.008 7  19819233.965 9 104150723.158 7  81156444.812 9  19819233.00849
  23801382.852 3  23801404.621 8 125077113.296 3  97462770.000 8  23801403.24645
  23215639.305 5  23215660.270 8 121998993.597 5  95064224.542 8  23215658.65247
 23  3 10  3  0 30.0000000  0  8G04G08G09G16G26G27G28G31            
  21223634.961 6  21223643.480 9 111530943.170 6  86907261.029 9  21223643.10247
  20909378.078 6  20909391.660 9 109879521.932 6  85620464.333 9  20909389.95749
  23379868.656 2  23379877.266 6 122862069.350 2  95736702.029 6  23379878.84045
  21188586.336 6                 111346765.762 6  86763739.24847  21188592.98447
  22606818.125 6  22606832.637 8 118799605.097 6  92571134.152 8  22606831.32047
  19819236.047 7  19819245.625 9 104150782.374 7  81156490.952 9  19819244.70749
  23801874.078 3  23801896.105 8 125079696.753 3  97464783.086 8  23801895.07445
  23216052.742 5  23216074.465 8 122001167.977 5  95065918.862 8  23216072.84847
 23  3 10  3  0 31.0000000  0  8G04G08G09G16G26G27G28G31            
  21223541.461 6  21223550.047 9 111530453.514 6  86906879.482 9  21223549.82447
  20908984.648 6  20908998.551 9 109877455.712 6  85618854.291 9  20908997.16449
  23379462.383 2  23379471.391 6 122859936.525 2  95735040.098 6  23379473.19946
  21188812.773 6                 111347955.147 6  86764666.04647  21188819.43047
  22607178.391 6  22607192.344 8 118801497.501 6  92572608.745 8  22607191.01247
  19819247.281 7  19819256.848 9 104150842.277 7  81156537.623 9  19819255.87149
  23802365.281 3  23802387.578 8 125082280.490 3  97466796.377 8  23802386.70745
  23216466.703 6  23216488.422 8 122003342.629 6  95067613.399 8  23216486.94147
 23  3 10  3  0 32.0000000  0  8G04G08G09G16G26G27G28G31            
  21223448.219 6  21223457.574 9 111529964.693 6  86906498.576 9  21223457.00847
  20908591.914 6  20908605.230 9 109875390.223 6  85617244.814 9  20908603.68449
  23379056.711 2  23379065.176 6 122857804.358 2  95733378.662 6  23379067.16045
  21189039.078 6                 111349144.832 6  86765593.06747  21189045.52047
  22607538.406 6  22607552.645 8 118803390.103 6  92574083.487 8  22607551.46147
  19819258.992 7  19819268.223 9 104150903.054 7  81156584.987 9  19819267.37949
  23802856.531 3  23802878.707 8 125084864.658 3  97468810.006 8  23802877.73845
  23216880.844 5  23216902.223 8 122005517.751 5  95069308.298 8  23216900.97347
 23  3 10  3  0 33.0000000  0  8G04G08G09G16G26G27G28G31            
  21223355.141 6  21223364.313 9 111529476.356 6  86906118.050 9  21223364.02347
  20908198.617 6  20908212.168 9 109873325.120 6  85615635.644 9  20908210.83249
  23378651.281 2  23378658.996 7 122855672.529 2  95731717.483 7  23378661.44946
  21189265.570 6                 111350334.524 6  86766520.08347  21189272.05147
  22607898.672 6  22607912.754 8 118805282.506 6  92575558.077 8  22607911.42247
  19819270.484 7  19819279.625 9 104150964.318 7  81156632.722 9  19819278.85249
  23803348.039 2  23803370.641 8 125087448.973 2  97470823.755 8  23803369.53545
  23217294.867 5  23217315.938 8 122007692.960 5  95071003.269 8  23217314.57847
 23  3 10  3  0 34.0000000  0  8G04G08G09G16G26G27G28G31            
  21223262.805 6  21223271.816 9 111528988.766 6  86905738.106 9  21223271.44947
  20907805.734 6  20907818.992 9 109871260.682 6  85614026.994 9  20907817.65649
  23378245.359 2  23378253.648 7 122853541.315 2  95730056.762 7  23378256.57045
  21189492.008 6                 111351524.454 6  86767447.31347  21189498.18047
  22608258.789 6  22608273.004 8 118807175.039 6  92577032.770 8  22608271.59847
  19819282.273 7  19819291.754 9 104151026.412 7  81156681.106 9  19819290.72749
  23803840.664 2  23803862.406 7 125090033.756 2  97472837.851 7  23803861.19945
  23217708.500 5  23217729.898 8 122009868.629 5  95072698.600 8  23217728.65247
 23  3 10  3  0 35.0000000  0  8G04G08G09G16G26G27G28G31            
  21223170.031 6  21223179.191 9 111528502.270 6  86905359.018 9  21223178.79747
  20907413.039 6  20907426.766 9 109869197.181 6  85612419.074 9  20907425.31349
  23377840.109 2  23377848.129 6 122851410.974 2  95728396.769 6  23377851.10945
  21189718.586 6                 111352714.950 6  86768374.96847  21189724.79747
  22608619.648 6  22608633.324 8 118809067.991 6  92578507.794 8  22608632.21947
  19819294.367 7  19819303.723 9 104151089.615 7  81156730.355 9  19819302.78149
  23804332.719 2  23804354.359 7 125092619.116 2  97474852.403 7  23804353.16045
  23218123.367 6  23218143.523 8 122012044.965 6  95074394.437 8  23218142.60247
 23  3 10  3  0 36.0000000  0  8G04G08G09G16G26G27G28G31            
  21223077.570 6  21223086.648 9 111528016.354 6  86904980.369 9  21223086.14847
  20907020.617 6  20907034.051 9 109867134.194 6  85610811.550 9  20907032.83249
  23377434.734 1  23377442.813 7 122849281.078 1  95726737.087 7  23377446.02746
  21189945.063 6                 111353905.513 6  86769302.67547  21189951.16847
  22608979.500 6  22608993.238 9 118810960.852 6  92579982.739 9  22608992.16847
  19819306.273 7  19819315.250 9 104151153.423 7  81156780.073 9  19819314.47749
  23804823.688 1  23804846.488 7 125095204.768 1  97476867.211 7  23804845.49645
  23218537.523 5  23218557.594 8 122014221.552 5  95076090.479 8  23218556.83247
 23  3 10  3  0 37.0000000  0  8G04G08G09G16G26G27G28G31            
  21222985.219 6  21222994.656 9 111527531.244 6  86904602.354 9  21222994.13347
  20906628.172 6  20906642.262 9 109865071.894 6  85609204.563 9  20906640.68849
  23377028.594 1  23377038.219 7 122847151.826 1  95725077.918 7  23377041.25846
  21190172.039 6                 111355096.352 6  86770230.60548  21190177.94948
  22609339.609 6  22609353.930 9 118812853.844 6  92581457.791 9  22609352.80947
  19819318.648 7  19819328.141 9 104151218.073 7  81156830.447 9  19819327.00049
  23805316.031 1  23805338.129 7 125097790.858 1  97478882.334 7  23805337.33645
  23218951.711 6  23218972.172 8 122016398.547 6  95077786.841 8  23218971.40647
 23  3 10  3  0 38.0000000  0  8G04G08G09G16G26G27G28G31            
  21222892.844 6  21222901.559 9 111527046.767 6  86904224.838 9  21222901.45747
  20906235.813 6  20906249.691 9 109863010.130 6  85607597.992 9  20906248.25449
  23376623.688 1  23376632.797 7 122845023.029 1  95723419.114 7  23376636.13346
  21190398.508 6                 111356287.333 6  86771158.63347  21190404.41847
  22609700.063 6  22609714.004 9 118814746.823 6  92582932.838 9  22609713.05947
  19819331.258 7  19819340.887 9 104151283.406 7  81156881.356 9  19819339.77049
  23805806.727 1  23805829.484 7 125100377.266 1  97480897.699 7  23805829.15645
  23219365.836 6  23219386.766 8 122018575.802 6  95079483.407 8  23219385.68447
 23  3 10  3  0 39.0000000  0  8G04G08G09G16G26G27G28G31            
  21222800.813 6  21222809.844 9 111526563.160 6  86903847.999 9  21222809.44947
  20905844.141 6  20905856.883 9 109860949.081 6  85605991.980 9  20905855.51249
  23376218.781 1  23376227.824 7 122842894.952 1  95721760.879 7  23376230.80546
  21190625.211 6                 111357478.656 6  86772086.93747  21190631.79347
  22610059.953 6  22610074.000 9 118816640.024 6  92584408.047 9  22610073.35947
  19819343.617 7  19819353.348 9 104151349.622 7  81156932.953 9  19819352.27349
  23806299.469 1  23806320.898 7 125102964.124 1  97482913.407 7  23806321.29345
  23219779.930 5  23219801.227 8 122020753.594 5  95081180.387 8  23219799.99247
 23  3 10  3  0 40.0000000  0  8G04G08G09G16G26G27G28G31            
  21222708.727 6  21222718.477 9 111526080.374 6  86903471.809 9  21222717.92247
  20905451.672 6  20905465.215 9 109858888.770 6  85604386.550 9  20905463.59049
  23375813.773 1  23375823.477 7 122840767.539 1  95720103.161 7  23375826.45746
  21190851.820 6                 111358670.277 6  86773015.47947  21190858.41047
  22610420.180 6  22610434.266 9 118818533.374 6  92585883.390 9  22610433.55947
  19819356.445 7  19819365.535 9 104151416.699 7  81156985.213 9  19819364.52049
  23806791.695 1  23806812.137 7 125105551.426 1  97484929.429 7  23806813.37945
  23220194.469 6  23220215.508 8 122022931.827 6  95082877.716 8  23220214.49647
 23  3 10  3  0 41.0000000  0  8G04G08G09G16G26G27G28G31            
  21222617.141 6  21222626.680 9 111525598.164 6  86903096.053 9  21222626.12547
  20905059.680 6  20905073.160 9 109856828.943 6  85602781.492 9  20905071.78549
  23375409.328 1  23375418.980 7 122838640.640 1  95718445.835 7  23375421.72746
  21191078.867 6                 111359862.018 6  86773944.10247  21191084.91447
  22610780.617 6  22610794.883 8 118820426.669 6  92587358.670 8  22610793.94547
  19819369.336 7  19819378.801 9 104151484.409 7  81157037.976 9  19819377.74249
  23807283.477 1  23807304.176 7 125108139.021 1  97486945.711 7  23807305.46145
  23220609.438 6  23220630.074 8 122025110.271 6  95084575.202 8  23220629.36347
 23  3 10  3  0 42.0000000  0  8G04G08G09G16G26G27G28G31            
  21222525.633 6  21222535.234 9 111525116.882 6  86902721.024 9  21222534.61347
  20904668.234 6  20904681.707 9 109854769.958 6  85601177.089 9  20904680.39849
  23375004.023 1  23375014.336 7 122836514.375 1  95716789.002 7  23375017.02346
  21191305.648 6                 111361054.146 6  86774873.03147  21191311.75847
  22611140.922 6  22611155.609 8 118822320.218 6  92588834.151 8  22611154.82447
  19819382.688 7  19819392.258 9 104151553.099 7  81157091.503 9  19819391.28949
  23807774.336 1  23807796.867 7 125110727.083 1  97488962.392 7  23807798.31645
  23221023.844 6  23221044.664 8 122027289.300 6  95086273.150 8  23221044.03547
 23  3 10  3  0 43.0000000  0  8G04G08G09G16G26G27G28G31            
  21222434.289 6  21222443.707 9 111524636.354 6  86902346.586 9  21222443.16847
  20904276.320 6  20904289.727 9 109852711.599 6  85599573.179 9  20904288.28549
  23374598.930 1  23374609.922 7 122834388.791 1  95715132.716 7  23374612.60946
  21191532.813 6                 111362246.504 6  86775802.14647  21191538.69147
  22611501.203 6  22611515.215 8 118824213.867 6  92590309.705 8  22611514.87147
  19819395.609 7  19819405.262 9 104151622.522 7  81157145.594 9  19819404.33249
  23808266.367 1  23808289.555 7 125113315.581 1  97490979.415 7  23808290.25045
  23221438.086 6  23221459.262 8 122029468.687 6  95087971.368 8  23221458.65647
 23  3 10  3  0 44.0000000  0  8G04G08G09G16G26G27G28G31            
  21222343.016 6  21222352.184 9 111524156.519 6  86901972.690 9  21222351.64847
  20903884.945 6  20903898.473 9 109850653.835 6  85597969.729 9  20903897.26649
  23374194.023 1  23374206.098 7 122832263.694 1  95713476.801 7  23374208.55146
  21191759.711 6                 111363439.042 6  86776731.38848  21191765.82448
  22611861.391 6  22611875.453 8 118826107.553 6  92591785.297 8  22611875.03147
  19819409.172 7  19819418.676 9 104151692.709 7  81157200.282 9  19819417.83649
  23808757.992 1  23808782.465 8 125115904.454 1  97492996.740 8  23808782.88345
  23221853.414 6  23221874.328 8 122031648.413 6  95089669.857 8  23221873.51247
 23  3 10  3  0 45.0000000  0  8G04G08G09G16G26G27G28G31            
  21222252.086 6  21222261.121 9 111523677.442 6  86901599.377 9  21222260.56647
  20903493.305 6  20903506.820 9 109848596.734 6  85596366.795 9  20903505.37949
  23373790.289 1  23373801.734 7 122830139.225 1  95711821.375 7  23373804.24646
  21191986.695 6                 111364631.833 6  86777660.83147  21191992.48847
  22612221.695 6  22612236.016 8 118828001.350 6  92593260.967 8  22612235.59847
  19819422.836 7  19819432.473 9 104151763.684 7  81157255.588 9  19819431.42649
  23809251.609 1  23809274.785 8 125118493.633 1  97495014.299 8  23809275.49245
  23222268.633 6  23222289.250 8 122033828.515 6  95091368.638 8  23222288.43047
 23  3 10  3  0 46.0000000  0  8G04G08G09G16G26G27G28G31            
  21222161.078 6  21222170.129 9 111523199.156 6  86901226.682 9  21222169.66447
  20903101.867 6  20903115.340 9 109846540.306 6  85594764.382 9  20903114.15249
  23373385.000 1                                                
  21192213.594 6                 111365824.878 6  86778590.47647  21192219.69947
  22612582.102 6  22612596.832 9 118829895.216 6  92594736.697 9  22612596.44947
  19819436.477 7  19819446.043 9 104151835.461 7  81157311.518 9  19819445.16049
  23809745.297 1  23809767.273 8 125121083.200 1  97497032.176 8  23809767.72745
  23222682.914 6  23222703.801 8 122036009.038 6  95093067.738 8  23222702.94547
 23  3 10  3  0 47.0000000  0  8G04G08G09G16G26G27G28G31            
  21222070.047 6  21222079.254 9 111522721.506 6  86900854.486 9  21222078.79347
  20902710.695 6  20902724.340 9 109844484.450 6  85593162.424 9  20902722.78149
  23372981.563 1  23372993.656 7 122825892.07211  95708511.88317  23372995.99246
  21192440.477 6                 111367018.123 6  86779520.27648  21192446.89848
  22612942.188 6  22612956.781 9 118831789.137 6  92596212.469 9  22612956.74247
  19819450.133 7  19819459.641 9 104151907.957 7  81157368.002 9  19819458.48449
  23810239.836 1  23810260.734 8 125123673.209 1  97499050.372 8  23810261.07045
  23223098.023 6  23223118.820 8 122038189.892 6  95094767.098 8  23223118.20747
 23  3 10  3  0 48.0000000  0  8G04G08G09G16G26G27G28G31            
  21221979.266 6  21221988.691 9 111522244.575 6  86900482.849 9  21221988.21147
  20902319.867 6  20902332.887 9 109842429.115 6  85591560.867 9  20902331.60949
  23372575.992 1  23372590.168 7 122823769.223 1  95706857.696 7  23372592.32846
  21192667.914 6                 111368211.466 6  86780450.14547  21192673.97347
  22613302.539 6  22613317.180 9 118833683.048 6  92597688.239 9  22613317.32447
  19819464.453 7  19819473.770 9 104151981.130 7  81157425.023 9  19819472.90649
  23810733.461 1  23810754.410 8 125126263.395 1  97501068.744 8  23810754.37545
  23223513.641 6  23223533.680 8 122040371.012 6  95096466.672 8  23223533.16847
 23  3 10  3  0 49.0000000  0  8G04G08G09G16G26G27G28G31            
  21221888.289 6  21221897.910 9 111521768.369 6  86900111.771 9  21221897.34047
  20901928.352 6  20901942.004 9 109840374.443 6  85589959.817 9  20901940.85249
  23372172.141 1  23372186.645 7 122821646.913 1  95705203.946 7  23372188.57046
  21192894.789 6                 111369405.085 6  86781380.22947  21192901.18047
  22613662.961 6  22613677.566 9 118835577.083 6  92599164.096 9  22613677.35247
  19819478.414 7  19819487.734 9 104152055.121 7  81157482.682 9  19819486.85249
  23811226.594 1  23811247.594 8 125128854.119 1  97503087.492 8  23811247.23445
  23223928.398 6  23223948.645 8 122042552.562 6  95098166.580 8  23223948.19947
 23  3 10  3  0 50.0000000  0  8G04G08G09G16G26G27G28G31            
  21221797.531 6  21221807.301 9 111521292.676 6  86899741.094 9  21221806.63347
  20901537.648 6  20901551.594 9 109838320.168 6  85588359.088 9  20901549.96949
  23371768.961 1  23371783.277 7 122819525.053 1  95703550.564 7  23371784.79346
  21193121.859 6                 111370598.695 6  86782310.31347  21193128.21547
  22614023.203 6  22614037.703 9 118837470.943 6  92600639.815 9  22614037.80947
  19819492.453 7  19819501.758 9 104152129.665 7  81157540.768 9  19819500.91449
  23811720.875 1  23811740.863 8 125131444.972 1  97505106.341 8  23811740.21545
  23224343.852 6  23224363.848 8 122044734.211 6  95099866.566 8  23224363.50447
 23  3 10  3  0 51.0000000  0  8G04G08G09G16G26G27G28G31            
  21221707.469 6  21221717.063 9 111520817.951 6  86899371.185 9  21221716.55147
  20901146.750 6  20901159.793 9 109836266.741 6  85586759.015 9  20901158.54749
  23371365.242 1  23371379.727 7 122817403.957 1  95701897.749 7  23371381.23846
  21193348.969 6                 111371792.738 6  86783240.73247  21193355.35947
  22614383.953 6  22614398.805 9 118839365.121 6  92602115.784 9  22614398.68047
  19819506.828 7  19819516.492 9 104152205.177 7  81157599.604 9  19819515.37549
  23812213.531 2  23812234.496 8 125134036.382 2  97507125.634 8  23812233.54345
  23224759.188 6  23224778.801 8 122046916.461 6  95101567.026 8  23224778.35547
 23  3 10  3  0 52.0000000  0  8G04G08G09G16G26G27G28G31            
  21221617.203 6  21221626.680 9 111520343.942 6  86899001.819 9  21221626.09447
  20900755.758 6  20900768.867 9 109834213.955 6  85585159.440 9  20900767.67249
  23370960.578 1  23370976.168 7 122815283.453 1  95700245.462 7  23370978.03546
  21193577.047 6                 111372987.019 6  86784171.34548  21193582.83248
  22614744.570 6  22614759.230 9 118841259.377 6  92603591.825 9  22614758.98047
  19819521.297 7  19819530.500 9 104152281.487 7  81157659.062 9  19819529.70349
  23812706.156 2  23812727.922 8 125136628.183 2  97509145.216 8  23812727.00445
  23225174.617 6  23225194.586 8 122049099.126 6  95103267.795 8  23225193.91047
 23  3 10  3  0 53.0000000  0  8G04G08G09G16G26G27G28G31            
  21221527.453 6  21221536.941 9 111519870.544 6  86898632.938 9  21221536.42247
  20900365.313 6  20900379.059 9 109832161.660 6  85583560.253 9  20900377.94549
  23370557.672 1  23370572.379 7 122813163.381 1  95698593.441 7  23370573.95346
  21193803.648 6                 111374181.360 6  86785101.99647  21193810.05547
  22615104.578 6  22615119.566 9 118843153.546 6  92605067.793 9  22615119.59847
  19819536.023 7  19819545.426 9 104152358.398 7  81157718.992 9  19819544.53949
  23813199.883 2  23813221.277 8 125139220.190 2  97511164.981 8  23813220.09845
  23225589.711 6  23225610.234 8 122051281.952 6  95104968.695 8  23225609.51247
 23  3 10  3  0 54.0000000  0  8G04G08G09G16G26G27G28G31            
  21221437.688 6  21221446.996 9 111519397.824 6  86898264.579 9  21221446.39547
  20899975.602 6  20899988.734 9 109830109.969 6  85581961.535 9  20899987.33649
  23370154.102 1                                                
  21194031.219 6                 111375375.879 6  86786032.77947  21194037.52347
  22615465.336 5  22615480.543 8 118845047.730 5  92606543.770 8  22615480.47347
  19819550.641 7  19819560.234 9 104152436.034 7  81157779.491 9  19819559.20749
  23813693.977 3  23813715.113 8 125141812.528 3  97513184.996 8  23813713.96945
  23226004.484 5  23226025.691 8 122053465.123 5  95106669.866 8  23226024.86347
 23  3 10  3  0 55.0000000  0  8G04G08G09G16G26G27G28G31            
  21221347.438 6  21221356.938 9 111518925.909 6  86897896.854 9  21221356.27347
  20899584.805 6  20899598.383 9 109828058.971 6  85580363.354 9  20899597.16049
  23369751.445 1  23369766.207 7 122808924.99311  95695290.84117  23369767.78146
  21194258.797 6                 111376570.734 6  86786963.84047  21194264.75047
  22615825.680 6  22615840.875 8 118846942.138 6  92608019.932 8  22615840.86747
  19819565.086 7  19819575.320 9 104152514.541 7  81157840.661 9  19819574.10549
  23814187.289 2  23814208.648 8 125144405.328 2  97515205.375 8  23814207.58645
  23226420.281 5  23226441.145 8 122055648.771 5  95108371.417 8  23226440.41047
 23  3 10  3  0 56.0000000  0  8G04G08G09G16G26G27G28G31            
  21221257.727 6  21221267.344 9 111518454.687 6  86897529.664 9  21221267.03147
  20899194.406 6  20899208.363 9 109826008.539 6  85578765.613 9  20899206.89149
  23369348.758 1  23369363.164 7 122806806.557 1  95693640.106 7  23369364.50446
  21194486.039 6                 111377765.716 6  86787894.99647  21194491.92647
  22616186.383 6  22616201.438 8 118848836.504 6  92609496.046 8  22616201.44147
  19819580.508 7  19819590.055 9 104152593.742 7  81157902.368 9  19819589.27049
  23814679.867 2  23814702.387 8 125146998.482 2  97517226.020 8  23814700.97345
  23226835.945 5  23226856.691 8 122057832.676 5  95110073.166 8  23226855.94147
 23  3 10  3  0 57.0000000  0  8G04G08G09G16G26G27G28G31            
  21221168.484 6  21221177.922 9 111517984.248 6  86897163.086 9  21221177.31347
  20898805.219 6  20898818.648 9 109823958.793 6  85577168.407 9  20898817.31349
  23368946.422 1                                                
  21194713.477 6                 111378960.980 6  86788826.35548  21194719.46948
  22616546.789 6  22616561.805 9 118850730.993 6  92610972.258 9  22616561.90647
  19819596.031 7  19819605.359 9 104152673.753 7  81157964.713 9  19819604.39849
  23815173.578 2  23815196.086 8 125149592.010 2  97519246.966 8  23815194.88345
  23227250.852 5  23227272.227 8 122060017.021 5  95111775.257 8  23227271.46547
 23  3 10  3  0 58.0000000  0  8G04G08G09G16G26G27G28G31            
  21221078.859 6  21221088.504 9 111517514.529 6  86896797.065 9  21221088.15247
  20898414.625 6  20898428.543 9 109821909.620 6  85575571.649 9  20898426.91449
  23368542.914 1                                                
  21194940.711 6                 111380156.432 6  86789757.88448  21194946.75048
  22616908.391 6  22616922.773 9 118852625.579 6  92612448.569 9  22616922.56647
  19819611.484 7  19819621.512 9 104152754.531 7  81158027.654 9  19819620.86749
  23815667.008 1  23815689.508 8 125152185.900 1  97521268.194 8  23815688.11345
  23227667.023 5  23227687.922 8 122062201.732 5  95113477.629 8  23227687.18847
 23  3 10  3  0 59.0000000  0  8G04G08G09G16G26G27G28G31            
  21220989.945 6  21220999.352 9 111517045.526 6  86896431.604 9  21220998.74247
  20898024.805 6  20898038.492 9 109819861.110 6  85573975.405 9  20898037.12149
  23368141.844 1                                                
  21195168.719 6                 111381352.150 6  86790689.60048  21195174.36348
  22617267.680 5  22617283.375 9 118854520.208 5  92613924.888 9  22617282.91047
  19819626.953 7  19819636.609 9 104152836.065 7  81158091.181 9  19819635.74649
  23816162.227 1  23816183.496 8 125154780.165 1  97523289.707 8  23816182.12945
  23228083.359 5  23228103.840 8 122064386.814 5  95115180.279 8  23228102.88747
 23  3 10  3  1  0.0000000  0  8G04G08G09G16G26G27G28G31            
  21220900.313 6  21220910.211 9 111516577.412 6  86896066.837 9  21220909.55947
  20897635.164 6  20897648.723 9 109817813.331 6  85572379.735 9  20897647.44949
  23367739.047 1                                                
  21195395.789 6                 111382548.176 6  86791621.56248  21195401.57448
  22617628.000 5  22617643.711 9 118856415.058 5  92615401.388 9  22617643.57447
  19819642.469 7  19819652.063 9 104152918.500 7  81158155.413 9  19819651.02349
  23816655.094 1  23816677.727 8 125157374.983 1  97525311.658 8  23816676.01645
  23228499.195 5  23228519.719 8 122066572.366 5  95116883.309 8  23228518.57047
