     3.02           OBSERVATION DATA    G: GPS              RINEX VERSION / TYPE
convert_skytraq_raw Skytraq Corp.       20241228 100724 UTC PGM / RUN BY / DATE 
Test version 0.1                                            COMMENT             
                                                            MARKER NAME         
                                                            MARKER NUMBER       
                                                            MARKER TYPE         
Skytraq Corp.                                               OBSERVER / AGENCY   
                                                            REC # / TYPE / VERS 
                                                            ANT # / TYPE        
 -2956522.6321  5075844.0474  2476795.2949                  APPROX POSITION XYZ 
        0.0000        0.0000        0.0000                  ANTENNA: DELTA H/E/N
G    4 C1C L1C D1C S1C                                      SYS / # / OBS TYPES 
  2024    12    28     5    10   43.9960001     GPS         TIME OF FIRST OBS   
  2024    12    28     6    25   13.9949999     GPS         TIME OF LAST OBS    
                                                            END OF HEADER       
> 2024 12 28  5 10 43.9960001  0 11                     
G 3  23594375.887     1547503.297       -1380.000          37.000  
G 4  20991272.218    -3731334.4611       2676.000          16.000  
G 8  21582819.102    -5109271.189        3909.000          44.000  
G 9  23214927.847    -4694027.3331       3588.000          25.000  
G16  19827567.733      135558.5511       -289.000          42.000  
G18  24365655.408    -1405484.7801        955.000          33.000  
G26  20870293.732     1472338.1731      -1199.000          22.000  
G27  19631616.645    -3518388.146        2480.000          44.000  
G28  21958164.736     1107468.9091      -1021.000          40.000  
G31  20591504.015       11749.882        -130.000          42.000  
G32  24131508.945       60380.1281      -3222.000          30.000  
> 2024 12 28  5 10 44.9960001  0 11                     
G 3  23594639.665     1548884.825       -1381.000          38.000  
G 4  20990744.628    -3733996.3311       2661.000          20.000  
G 8  21582075.125    -5113180.772        3909.000          43.000  
G 9  23213573.641    -4701180.7691       3574.000          20.000  
G16  19827621.933      135849.3061       -290.000          45.000  
G18  24365470.541    -1406442.5001        957.000          33.000  
G26  20870508.160     1473543.7701      -1205.000          19.000  
G27  19631144.670    -3520868.456        2480.000          44.000  
G28  21958358.329     1108488.6181      -1019.000          40.000  
G31  20591528.583       11878.909        -129.000          42.000  
G32  24132109.442       63613.1911      -3233.000          29.000  
> 2024 12 28  5 10 45.9960001  0 11                     
G 3  23594903.477     1550266.685       -1381.000          38.000  
G 4  20990233.790    -3736663.8311       2667.000          32.000  
G 8  21581331.128    -5117090.479        3909.000          42.000  
G 9  23212916.256    -4704751.9901       3571.000          20.000  
G16  19827667.443      136141.7221       -292.000          44.000  
G18  24365286.825    -1407400.1171        957.000          34.000  
G26  20870774.939     1474763.9251      -1220.000          22.000  
G27  19630672.771    -3523348.336        2479.000          43.000  
G28  21958552.236     1109508.0451      -1019.000          40.000  
G31  20591553.166       12007.981        -129.000          42.000  
G32  24132713.150       66853.8851      -3240.000          27.000  
> 2024 12 28  5 10 46.9960001  0 11                     
G 3  23595165.719     1551646.847       -1380.000          38.000  
G 4  20989723.197    -3739351.1891       2687.000          41.000  
G 8  21580586.933    -5121001.221        3910.000          42.000  
G 9  23212214.408    -4708327.0161       3575.000          18.000  
G16  19827745.725      136433.7731       -292.000          28.000  
G18  24365102.865    -1408355.8711        955.000          33.000  
G26  20871019.975     1475997.2101      -1233.000          24.000  
G27  19630200.879    -3525828.171        2479.000          43.000  
G28  21958747.050     1110528.7191      -1020.000          40.000  
G31  20591577.993       12138.331        -130.000          41.000  
G32  24133332.284       70097.3791      -3243.000          26.000  
> 2024 12 28  5 10 47.9960001  0 11                     
G 3  23595419.340     1553023.0411      -1376.000          35.000  
G 4  20989221.224    -3742036.5881       2685.000          35.000  
G 8  21579842.287    -5124914.305        3913.000          42.000  
G 9  23211549.450    -4711910.1301       3583.000          16.000  
G16  19827783.208      136726.9621       -293.000          24.000  
G18  24364922.150    -1409306.5211        950.000          30.000  
G26  20871254.436     1477241.8911      -1244.000          27.000  
G27  19629728.934    -3528308.293        2480.000          43.000  
G28  21958943.225     1111553.2911      -1024.000          40.000  
G31  20591603.439       12271.960        -133.000          41.000  
G32  24133946.950       73328.5821      -3231.000          29.000  
> 2024 12 28  5 10 48.9960001  0 11                     
G 3  23595686.782     1554394.087       -1371.000          35.000  
G 4  20988726.824    -3744716.8921       2680.000          21.000  
G 8  21579096.993    -5128830.780        3916.000          42.000  
G 9  23210870.916    -4715493.1221       3582.000          12.000  
G16  19827858.279      137026.4161       -299.000          27.000  
G18  24364747.334    -1410252.008         945.000          32.000  
G26  20871437.664     1478502.1631      -1260.000          27.000  
G27  19629256.885    -3530788.990        2480.000          44.000  
G28  21959139.191     1112581.658       -1028.000          40.000  
G31  20591629.504       12408.821        -136.000          42.000  
G32  24134541.723       76546.1601      -3217.000          30.000  
> 2024 12 28  5 10 49.9960001  0  9                     
G 3  23595948.047     1555759.969       -1365.000          36.000  
G 8  21578351.095    -5132750.424        3919.000          42.000  
G16  19827904.487      137332.4911       -306.000          24.000  
G18  24364566.550    -1411191.6691        939.000          31.000  
G26  20871662.039     1479792.3861      -1290.000          21.000  
G27  19628784.694    -3533270.391        2481.000          43.000  
G28  21959336.030     1113614.325       -1032.000          40.000  
G31  20591656.271       12549.387        -140.000          42.000  
G32  24135154.924       79764.9291      -3218.000          31.000  
> 2024 12 28  5 10 50.9960001  0  9                     
G 3  23596207.741     1557120.116       -1360.000          36.000  
G 4  20987721.413    -3750071.3711       2676.000          18.000  
G 8  21577604.494    -5136673.876        3923.000          44.000  
G16  19827950.765      137633.8161       -301.000          25.000  
G18  24364386.184    -1412125.5881        933.000          31.000  
G27  19628312.338    -3535752.654        2482.000          44.000  
G28  21959533.776     1114651.258       -1036.000          40.000  
G31  20591683.738       12693.646        -144.000          42.000  
G32  24135744.113       82982.3001      -3217.000          32.000  
> 2024 12 28  5 10 51.9960001  0  9                     
G 3  23596465.097     1558474.929       -1354.000          37.000  
G 4  20987230.294    -3752748.3921       2677.000          17.000  
G 8  21576857.268    -5140600.557        3926.000          42.000  
G16  19828011.387      137932.4421       -298.000          23.000  
G18  24364213.916    -1413053.1451        927.000          32.000  
G27  19627839.892    -3538235.414        2482.000          44.000  
G28  21959731.940     1115692.807       -1041.000          40.000  
G31  20591711.977       12841.944        -148.000          42.000  
G32  24136338.782       86197.4431      -3215.000          34.000  
> 2024 12 28  5 10 52.9960001  0 10                     
G 3  23596721.022     1559825.198       -1350.000          37.000  
G 4  20986733.905    -3755430.3051       2681.000          12.000  
G 8  21576109.472    -5144530.251        3929.000          42.000  
G16  19828063.458      138228.1321       -295.000          30.000  
G18  24364033.830    -1413975.6611        922.000          31.000  
G26  20872350.031        2558.6861      -1211.000          40.000  
G27  19627367.384    -3540718.512        2483.000          44.000  
G28  21959930.733     1116738.151       -1045.000          40.000  
G31  20591740.845       12993.537        -151.000          41.000  
G32  24136945.072       89413.5821      -3216.000          36.000  
> 2024 12 28  5 10 53.9960001  0 10                     
G 3  23596978.029     1561173.660       -1348.000          36.000  
G 4  20986195.600    -3758124.6101       2694.000          19.000  
G 8  21575345.036    -5148460.7941       3930.000          43.000  
G16  19828125.546      138523.1561       -295.000          45.000  
G18  24363862.399    -1414894.9891        919.000          32.000  
G26  20872578.280        3771.8541      -1213.000          40.000  
G27  19626894.955    -3543201.231        2482.000          44.000  
G28  21960129.317     1117785.928       -1047.000          40.000  
G31  20591770.122       13147.304        -153.000          42.000  
G32  24137565.672       92630.7301      -3217.000          32.000  
> 2024 12 28  5 10 54.9960001  0 10                     
G 3  23597233.570     1562519.968       -1346.000          37.000  
G 4  20985667.173    -3760822.5151       2697.000          19.000  
G 8  21574605.146    -5152392.688        3931.000          42.000  
G16  19828180.305      138817.695        -295.000          45.000  
G18  24363689.607    -1415812.0631        917.000          32.000  
G26  20872808.239        4986.1211      -1214.000          40.000  
G27  19626422.473    -3545684.172        2482.000          43.000  
G28  21960329.052     1118835.208       -1049.000          40.000  
G31  20591799.641       13302.353        -155.000          41.000  
G32  24138165.645       95850.2791      -3219.000          32.000  
> 2024 12 28  5 10 55.9960001  0 10                     
G 3  23597488.622     1563862.326       -1342.000          38.000  
G 4  20985155.323    -3763518.7971       2696.000          19.000  
G 8  21573861.732    -5156327.041        3934.000          44.000  
G16  19828235.483      139113.390        -295.000          45.000  
G18  24363514.825    -1416724.3241        912.000          33.000  
G26  20873040.152        6203.1581      -1217.000          40.000  
G27  19625949.979    -3548167.166        2482.000          43.000  
G28  21960529.380     1119888.214       -1053.000          40.000  
G31  20591829.772       13460.620        -158.000          41.000  
G32  24138781.009       99067.3861      -3217.000          34.000  
> 2024 12 28  5 10 56.9960001  0 10                     
G 3  23597744.617     1565200.514       -1338.000          37.000  
G 4  20984537.446    -3766215.8961       2697.000          18.000  
G 8  21573115.770    -5160263.928        3936.000          42.000  
G16  19828291.777      139409.971        -296.000          45.000  
G18  24363339.765    -1417631.0151        906.000          32.000  
G26  20873271.123        7423.5151      -1220.000          40.000  
G27  19625477.465    -3550650.239        2483.000          43.000  
G28  21960730.407     1120945.293       -1057.000          40.000  
G31  20591860.615       13622.602        -161.000          41.000  
G32  24139393.687      102285.5091      -3218.000          29.000  
> 2024 12 28  5 10 57.9960001  0  9                     
G 3  23597999.006     1566534.811       -1334.000          37.000  
G 8  21572369.041    -5164203.143        3939.000          44.000  
G16  19828347.967      139707.084        -297.000          45.000  
G18  24363168.613    -1418533.1651        902.000          32.000  
G26  20873502.478        8646.3311      -1222.000          40.000  
G27  19625004.894    -3553133.619        2483.000          43.000  
G28  21960932.271     1122005.821       -1060.000          40.000  
G31  20591892.025       13787.584        -164.000          42.000  
G32  24140014.914      105503.3141      -3217.000          28.000  
> 2024 12 28  5 10 58.9960001  0  9                     
G 3  23598253.011     1567866.179       -1331.000          37.000  
G 8  21571619.798    -5168144.096        3940.000          44.000  
G16  19828404.122      140004.837        -297.000          45.000  
G18  24362994.180    -1419431.4921        898.000          32.000  
G26  20873735.125        9871.3301      -1224.000          39.000  
G27  19624532.335    -3555616.935        2483.000          42.000  
G28  21961135.043     1123069.153       -1063.000          39.000  
G31  20591923.909       13955.093        -167.000          42.000  
G32  24140628.848      108721.1501      -3217.000          30.000  
> 2024 12 28  5 10 59.9960001  0  9                     
G 3  23598508.099     1569197.264       -1331.000          35.000  
G 8  21570870.451    -5172085.055        3940.000          43.000  
G16  19828460.207      140302.920        -298.000          44.000  
G18  24362831.335    -1420328.9231        897.000          29.000  
G26  20873968.364       11096.7041      -1225.000          39.000  
G27  19624059.893    -3558099.665        2482.000          42.000  
G28  21961338.687     1124133.208       -1064.000          40.000  
G31  20591955.898       14123.183        -168.000          41.000  
G32  24141220.375      111938.5561      -3217.000          29.000  
> 2024 12 28  5 11  0.9960001  0  9                     
G 3  23598760.115     1570529.873       -1332.000          37.000  
G 8  21570120.405    -5176024.698        3939.000          43.000  
G16  19828517.688      140601.177        -298.000          45.000  
G18  24362659.415    -1421227.2981        898.000          34.000  
G26  20874201.080       12320.779       -1224.000          39.000  
G27  19623587.621    -3560581.482        2481.000          42.000  
G28  21961541.877     1125196.419       -1063.000          40.000  
G31  20591987.750       14290.514        -167.000          42.000  
G32  24141827.608      115156.0211      -3217.000          33.000  
> 2024 12 28  5 11  1.9960001  0  9                     
G 3  23599013.282     1571863.012       -1333.000          37.000  
G 8  21569367.917    -5179963.823        3939.000          42.000  
G16  19828574.226      140899.627        -298.000          45.000  
G18  24362492.661    -1422125.8241        898.000          32.000  
G26  20874434.390       13545.018       -1224.000          40.000  
G27  19623115.464    -3563062.685        2481.000          43.000  
G28  21961744.055     1126259.575       -1063.000          39.000  
G31  20592019.607       14457.870        -167.000          42.000  
G32  24142441.018      118373.3291      -3217.000          32.000  
> 2024 12 28  5 11  2.9960001  0  9                     
G 3  23599266.136     1573194.987       -1331.000          37.000  
G 8  21568614.766    -5183903.493        3939.000          41.000  
G16  19828631.079      141198.332        -298.000          45.000  
G18  24362308.980    -1423022.9541        897.000          32.000  
G26  20874667.001       14769.945       -1224.000          40.000  
G27  19622643.367    -3565543.604        2480.000          43.000  
G28  21961946.199     1127323.697       -1064.000          39.000  
G31  20592051.624       14626.103        -168.000          41.000  
G32  24143063.014      121590.8061      -3217.000          34.000  
> 2024 12 28  5 11  3.9960001  0  9                     
G 3  23599517.245     1574526.281       -1331.000          36.000  
G 8  21567866.570    -5187843.307        3939.000          42.000  
G16  19828688.176      141497.850        -299.000          44.000  
G18  24362145.437    -1423917.8131        894.000          32.000  
G26  20874902.544       15996.267       -1226.000          40.000  
G27  19622171.415    -3568023.739        2480.000          43.000  
G28  21962143.212     1128389.697       -1065.000          39.000  
G31  20592083.955       14795.987        -169.000          41.000  
G32  24143665.186      124808.6621      -3217.000          36.000  
> 2024 12 28  5 11  4.9960001  0  9                     
G 3  23599771.599     1575856.781       -1330.000          36.000  
G 8  21567118.165    -5191783.377        3940.000          42.000  
G16  19828745.343      141797.707        -299.000          44.000  
G18  24361971.074    -1424811.3551        893.000          34.000  
G26  20875138.122       17223.127       -1226.000          39.000  
G27  19621699.536    -3570503.495        2479.000          43.000  
G28  21962350.485     1129456.591       -1066.000          40.000  
G31  20592116.434       14966.684        -170.000          40.000  
G32  24144282.470      128026.5591      -3217.000          35.000  
> 2024 12 28  5 11  5.9960001  0 10                     
G 3  23600024.208     1577187.322       -1330.000          36.000  
G 8  21566369.376    -5195723.263        3939.000          42.000  
G 9  23199167.858      -10062.1271       3598.000          19.000  
G16  19828802.231      142097.725        -300.000          44.000  
G18  24361806.100    -1425704.6341        893.000          34.000  
G26  20875371.152       18449.953       -1226.000          39.000  
G27  19621227.766    -3572982.673        2479.000          43.000  
G28  21962555.770     1130523.693       -1067.000          39.000  
G31  20592148.951       15137.566        -170.000          40.000  
G32  24144894.833      131244.3371      -3217.000          35.000  
> 2024 12 28  5 11  6.9960001  0 10                     
G 3  23600276.853     1578517.978       -1330.000          36.000  
G 8  21565620.169    -5199662.838        3939.000          42.000  
G 9  23198519.198      -13663.1961       3601.000          20.000  
G16  19828859.747      142398.030        -300.000          44.000  
G18  24361641.405    -1426597.473         892.000          34.000  
G26  20875604.497       19676.837       -1226.000          39.000  
G27  19620756.108    -3575461.284        2478.000          43.000  
G28  21962760.216     1131591.060       -1067.000          39.000  
G31  20592181.525       15308.734        -171.000          40.000  
G32  24145509.499      134462.119       -3217.000          35.000  
> 2024 12 28  5 11  7.9960001  0 10                     
G 3  23600531.172     1579847.728       -1329.000          36.000  
G 8  21564871.450    -5203603.113        3940.000          43.000  
G 9  23197828.065      -17264.4171       3601.000          18.000  
G16  19828916.600      142697.642        -299.000          44.000  
G18  24361472.626    -1427490.908         893.000          34.000  
G26  20875836.515       20902.739       -1225.000          38.000  
G27  19620284.380    -3577940.248        2478.000          44.000  
G28  21962963.337     1132657.718       -1066.000          39.000  
G31  20592213.966       15479.182        -170.000          41.000  
G32  24146121.269      137678.982       -3216.000          35.000  
> 2024 12 28  5 11  8.9960001  0 10                     
G 3  23600783.223     1581178.929       -1331.000          36.000  
G 8  21564122.626    -5207541.705        3938.000          43.000  
G 9  23197158.710      -20863.4021       3598.000          19.000  
G16  19828974.220      142998.900        -301.000          44.000  
G18  24361302.556    -1428382.494         891.000          34.000  
G26  20876067.765       22130.159       -1227.000          38.000  
G27  19619813.017    -3580417.266        2477.000          43.000  
G28  21963167.016     1133726.117       -1068.000          39.000  
G31  20592246.727       15651.286        -172.000          41.000  
G32  24146730.770      140897.244       -3218.000          35.000  
> 2024 12 28  5 11  9.9960001  0 10                     
G 3  23601027.770     1582510.660       -1331.000          36.000  
G 8  21563374.291    -5211479.595        3937.000          42.000  
G 9  23196444.682      -24462.8121       3599.000          18.000  
G16  19829032.469      143300.811        -301.000          44.000  
G18  24361133.778    -1429273.307         890.000          34.000  
G26  20876300.097       23357.983       -1227.000          37.000  
G27  19619341.860    -3582893.237        2475.000          43.000  
G28  21963369.403     1134795.176       -1069.000          39.000  
G31  20592279.628       15824.060        -172.000          41.000  
G32  24147344.494      144115.904       -3218.000          34.000  
> 2024 12 28  5 11 10.9960001  0 10                     
G 3  23601287.116     1583842.120       -1331.000          36.000  
G 8  21562625.886    -5215417.555        3937.000          43.000  
G 9  23195739.518      -28054.8191       3592.000          15.000  
G16  19829090.543      143602.648        -301.000          44.000  
G18  24360960.986    -1430164.039         890.000          34.000  
G26  20876532.429       24585.523       -1227.000          37.000  
G27  19618870.736    -3585369.036        2475.000          43.000  
G28  21963571.233     1135864.138       -1068.000          39.000  
G31  20592312.527       15996.734        -172.000          41.000  
G32  24147958.951      147334.201       -3218.000          35.000  
> 2024 12 28  5 11 11.9960001  0 10                     
G 3  23601543.564     1585174.145       -1332.000          36.000  
G 4  20976958.014       -7482.6581       2688.000          19.000  
G 8  21561877.411    -5219354.760        3937.000          43.000  
G16  19829148.443      143905.238        -302.000          44.000  
G18  24360789.345    -1431053.953         889.000          35.000  
G26  20876765.390       25813.598       -1228.000          37.000  
G27  19618399.823    -3587843.731        2474.000          43.000  
G28  21963773.934     1136933.873       -1069.000          39.000  
G31  20592345.582       16170.119        -173.000          41.000  
G32  24148573.094      150552.986       -3218.000          35.000  
> 2024 12 28  5 11 12.9960001  0  9                     
G 3  23601795.091     1586506.293       -1332.000          36.000  
G 8  21561128.413    -5223291.640        3936.000          43.000  
G16  19829205.854      144208.095        -302.000          44.000  
G18  24360616.868    -1431943.388         889.000          34.000  
G26  20876998.874       27041.710       -1228.000          37.000  
G27  19617929.032    -3590317.784        2474.000          43.000  
G28  21963976.427     1138003.900       -1070.000          38.000  
G31  20592378.699       16343.813        -173.000          41.000  
G32  24149188.598      153771.830       -3218.000          35.000  
> 2024 12 28  5 11 13.9960001  0  9                     
G 3  23602051.889     1587838.914       -1332.000          35.000  
G 8  21560379.729    -5227227.847        3936.000          42.000  
G16  19829263.615      144511.606        -303.000          44.000  
G18  24360445.018    -1432832.065         888.000          34.000  
G26  20877233.195       28270.282       -1228.000          37.000  
G27  19617458.434    -3592790.837        2473.000          43.000  
G28  21964179.931     1139074.621       -1070.000          38.000  
G31  20592411.947       16518.166        -174.000          41.000  
G32  24149803.195      156991.037       -3219.000          35.000  
> 2024 12 28  5 11 14.9960001  0  9                     
G 3  23602301.357     1589171.549       -1332.000          35.000  
G 8  21559631.149    -5231163.831        3935.000          42.000  
G16  19829320.886      144815.334        -303.000          44.000  
G18  24360274.215    -1433720.365         888.000          35.000  
G26  20877467.342       29498.872       -1228.000          37.000  
G27  19616987.928    -3595263.396        2472.000          43.000  
G28  21964382.249     1140145.582       -1070.000          38.000  
G31  20592445.226       16692.716        -174.000          41.000  
G32  24150415.384      160210.209       -3219.000          35.000  
> 2024 12 28  5 11 15.9960001  0  9                     
G 3  23602559.446     1590504.436       -1332.000          35.000  
G 8  21558881.977    -5235099.421        3935.000          42.000  
G16  19829379.205      145119.426        -304.000          44.000  
G18  24360102.819    -1434608.175         887.000          34.000  
G26  20877700.233       30727.566       -1228.000          37.000  
G27  19616517.562    -3597735.235        2471.000          43.000  
G28  21964585.684     1141216.899       -1071.000          38.000  
G31  20592478.564       16867.663        -174.000          41.000  
G32  24151025.757      163429.492       -3219.000          35.000  
> 2024 12 28  5 11 16.9960001  0  9                     
G 3  23602816.313     1591837.380       -1332.000          36.000  
G 8  21558132.280    -5239034.696        3935.000          42.000  
G16  19829437.593      145423.816        -304.000          44.000  
G18  24359936.833    -1435495.539         887.000          34.000  
G26  20877934.485       31956.391       -1228.000          38.000  
G27  19616047.307    -3600206.485        2471.000          43.000  
G28  21964789.118     1142288.554       -1071.000          38.000  
G31  20592511.949       17042.881        -175.000          41.000  
G32  24151643.425      166648.773       -3219.000          35.000  
> 2024 12 28  5 11 17.9960001  0  9                     
G 3  23603069.900     1593170.565       -1333.000          36.000  
G 8  21557383.352    -5242969.534        3934.000          42.000  
G16  19829495.702      145728.629        -304.000          44.000  
G18  24359772.486    -1436382.364         886.000          34.000  
G26  20878169.330       33185.392       -1228.000          38.000  
G27  19615577.204    -3602676.945        2470.000          43.000  
G28  21964992.518     1143360.652       -1072.000          38.000  
G31  20592545.409       17218.515        -175.000          41.000  
G32  24152253.136      169868.253       -3219.000          36.000  
> 2024 12 28  5 11 18.9960001  0  9                     
G 3  23603323.067     1594503.960       -1333.000          36.000  
G 8  21556634.493    -5246903.963        3934.000          42.000  
G16  19829553.847      146033.801        -305.000          44.000  
G18  24359601.544    -1437268.728         886.000          34.000  
G26  20878403.372       34414.565       -1229.000          38.000  
G27  19615107.233    -3605146.717        2469.000          43.000  
G28  21965196.232     1144433.086       -1072.000          38.000  
G31  20592578.935       17394.506        -175.000          41.000  
G32  24152864.417      173087.791       -3219.000          36.000  
> 2024 12 28  5 11 19.9960001  0  9                     
G 3  23603576.794     1595837.554       -1333.000          36.000  
G 8  21555885.390    -5250838.007        3934.000          42.000  
G16  19829611.781      146339.338        -305.000          44.000  
G18  24359435.278    -1438154.523         885.000          34.000  
G26  20878638.496       35643.826       -1229.000          38.000  
G27  19614637.391    -3607615.813        2469.000          43.000  
G28  21965399.841     1145505.934       -1072.000          38.000  
G31  20592612.531       17570.866        -176.000          41.000  
G32  24153476.222      176307.480       -3219.000          36.000  
> 2024 12 28  5 11 20.9960001  0  9                     
G 3  23603831.532     1597171.437       -1333.000          36.000  
G 8  21555135.694    -5254771.578        3933.000          42.000  
G16  19829669.681      146645.327        -305.000          44.000  
G18  24359269.013    -1439039.757         885.000          34.000  
G26  20878874.353       36873.422       -1229.000          39.000  
G27  19614167.701    -3610084.098        2468.000          43.000  
G28  21965602.996     1146579.285       -1073.000          38.000  
G31  20592646.209       17747.718        -176.000          41.000  
G32  24154087.782      179527.341       -3219.000          35.000  
> 2024 12 28  5 11 21.9960001  0 10                     
G 3  23604085.956     1598505.452       -1334.000          36.000  
G 8  21554386.696    -5258704.813        3933.000          41.000  
G 9  23188259.657       -9329.8861       3592.000          21.000  
G16  19829727.581      146951.638        -306.000          44.000  
G18  24359105.434    -1439924.543         884.000          34.000  
G26  20879109.128       38103.063       -1229.000          39.000  
G27  19613698.135    -3612551.735        2467.000          43.000  
G28  21965806.466     1147652.912       -1073.000          38.000  
G31  20592679.919       17924.825        -177.000          41.000  
G32  24154698.156      182747.290       -3219.000          35.000  
> 2024 12 28  5 11 22.9960001  0 11                     
G 3  23604340.206     1599839.616       -1334.000          36.000  
G 4  20971331.924       -6941.5571       2686.000          22.000  
G 8  21553637.802    -5262637.652        3932.000          42.000  
G 9  23187557.355      -12923.2241       3593.000          23.000  
G16  19829785.411      147258.322        -306.000          44.000  
G18  24358936.167    -1440808.802         884.000          34.000  
G26  20879344.706       39332.867       -1229.000          39.000  
G27  19613228.698    -3615018.680        2466.000          43.000  
G28  21966010.284     1148726.976       -1074.000          38.000  
G31  20592713.686       18102.317        -177.000          41.000  
G32  24155311.356      185967.326       -3220.000          35.000  
> 2024 12 28  5 11 23.9960001  0 11                     
G 3  23604592.152     1601174.130       -1334.000          36.000  
G 4  20970838.257       -9627.4301       2685.000          22.000  
G 8  21552889.013    -5266569.991        3932.000          42.000  
G 9  23186868.944      -16516.1531       3592.000          23.000  
G16  19829843.381      147565.480        -307.000          44.000  
G18  24358770.530    -1441692.474         883.000          34.000  
G26  20879579.028       40562.929       -1230.000          39.000  
G27  19612759.412    -3617484.815        2466.000          43.000  
G28  21966215.150     1149801.532       -1074.000          38.000  
G31  20592747.537       18280.324        -178.000          40.000  
G32  24155925.011      189187.563       -3220.000          35.000  
> 2024 12 28  5 11 24.9960001  0 11                     
G 3  23604845.738     1602508.858       -1334.000          36.000  
G 4  20970337.890      -12310.6561       2683.000          25.000  
G 8  21552140.748    -5270501.868        3931.000          42.000  
G 9  23186172.227      -20106.0341       3589.000          23.000  
G16  19829901.874      147873.037        -307.000          44.000  
G18  24358604.718    -1442575.583         883.000          35.000  
G26  20879812.896       41793.161       -1230.000          39.000  
G27  19612290.256    -3619950.225        2465.000          43.000  
G28  21966419.911     1150876.501       -1074.000          38.000  
G31  20592781.453       18458.732        -178.000          41.000  
G32  24156533.779      192407.991       -3220.000          35.000  
> 2024 12 28  5 11 25.9960001  0 11                     
G 3  23605100.093     1603843.727       -1334.000          36.000  
G 4  20969813.720      -14992.4921       2681.000          26.000  
G 8  21551392.413    -5274433.431        3931.000          42.000  
G 9  23185484.688      -23701.5041       3595.000          22.000  
G16  19829959.983      148180.925        -307.000          44.000  
G18  24358435.695    -1443458.211         882.000          35.000  
G26  20880045.368       43023.543       -1230.000          39.000  
G27  19611821.219    -3622414.976        2464.000          43.000  
G28  21966626.382     1151951.825       -1075.000          38.000  
G31  20592815.429       18637.446        -178.000          41.000  
G32  24157145.723      195628.462       -3220.000          34.000  
> 2024 12 28  5 11 26.9960001  0 11                     
G 3  23605353.994     1605178.949       -1335.000          36.000  
G 4  20969300.753      -17675.8481       2683.000          25.000  
G 8  21550643.694    -5278364.439        3931.000          42.000  
G 9  23184821.755      -27292.9891       3591.000          22.000  
G16  19830019.000      148489.285        -308.000          44.000  
G18  24358266.847    -1444340.195         881.000          35.000  
G26  20880278.119       44254.206       -1230.000          38.000  
G27  19611352.332    -3624878.906        2463.000          43.000  
G28  21966830.794     1153027.668       -1075.000          38.000  
G31  20592849.505       18816.642        -179.000          41.000  
G32  24157757.004      198849.179       -3220.000          34.000  
> 2024 12 28  5 11 27.9960001  0 11                     
G 3  23605608.418     1606514.252       -1335.000          36.000  
G 4  20968789.776      -20356.8431       2680.000          25.000  
G 8  21549895.498    -5282295.184        3930.000          42.000  
G 9  23184104.830      -30883.0071       3590.000          22.000  
G16  19830077.772      148797.951        -308.000          44.000  
G18  24358091.577    -1445221.813         881.000          35.000  
G26  20880511.498       45484.875       -1230.000          38.000  
G27  19610883.564    -3627342.202        2463.000          43.000  
G28  21967035.450     1154103.771       -1076.000          38.000  
G31  20592883.641       18996.120        -179.000          41.000  
G32  24158372.892      202069.869       -3220.000          35.000  
> 2024 12 28  5 11 28.9960001  0 11                     
G 3  23605862.249     1607849.659       -1335.000          36.000  
G 4  20968245.853      -23037.0041       2680.000          26.000  
G 8  21549146.744    -5286225.591        3930.000          42.000  
G 9  23183395.688      -34472.9251       3589.000          19.000  
G16  19830137.138      149106.894        -308.000          44.000  
G18  24357922.938    -1446102.979         881.000          35.000  
G26  20880743.481       46715.653       -1230.000          38.000  
G27  19610414.907    -3629804.899        2462.000          43.000  
G28  21967238.989     1155180.181       -1076.000          38.000  
G31  20592917.842       19175.906        -179.000          41.000  
G32  24158982.324      205290.628       -3220.000          34.000  
> 2024 12 28  5 11 29.9960001  0 11                     
G 3  23606117.266     1609185.601       -1335.000          36.000  
G 4  20967735.539      -25716.3571       2679.000          25.000  
G 8  21548399.666    -5290155.299        3929.000          41.000  
G 9  23182731.882      -38063.8931       3590.000          19.000  
G16  19830196.713      149416.549        -309.000          44.000  
G18  24357751.367    -1446983.347         880.000          34.000  
G26  20880975.708       47946.914       -1231.000          38.000  
G27  19609946.461    -3632266.535        2461.000          43.000  
G28  21967443.890     1156257.368       -1077.000          38.000  
G31  20592952.180       19356.374        -180.000          41.000  
G32  24159592.453      208511.783       -3221.000          34.000  
> 2024 12 28  5 11 30.9960001  0 11                     
G 3  23606372.702     1610521.777       -1336.000          36.000  
G 4  20967212.800      -28395.0781       2678.000          25.000  
G 8  21547652.098    -5294084.565        3929.000          41.000  
G 9  23182033.175      -41660.8781       3596.000          10.000  
G16  19830256.078      149726.565        -310.000          44.000  
G18  24357586.532    -1447863.092         879.000          34.000  
G26  20881207.796       49178.371       -1231.000          37.000  
G27  19609478.150    -3634727.477        2460.000          43.000  
G28  21967650.779     1157334.910       -1077.000          38.000  
G31  20592986.609       19537.274        -180.000          41.000  
G32  24160202.966      211733.143       -3221.000          34.000  
> 2024 12 28  5 11 31.9960001  0 10                     
G 3  23606622.659     1611858.053       -1336.000          36.000  
G 4  20966700.845      -31073.5051       2678.000          23.000  
G 8  21546905.264    -5298013.506        3928.000          42.000  
G16  19830315.409      150036.887        -310.000          44.000  
G18  24357418.557    -1448742.490         879.000          34.000  
G26  20881441.106       50409.874       -1231.000          37.000  
G27  19609009.961    -3637187.806        2460.000          43.000  
G28  21967857.250     1158412.808       -1077.000          38.000  
G31  20593021.082       19718.409        -181.000          42.000  
G32  24160815.748      214954.475       -3221.000          34.000  
> 2024 12 28  5 11 32.9960001  0 10                     
G 3  23606879.736     1613194.172       -1336.000          36.000  
G 4  20966191.055      -33751.2421       2677.000          25.000  
G 8  21546157.732    -5301942.338        3928.000          42.000  
G16  19830374.181      150347.332        -310.000          44.000  
G18  24357251.768    -1449621.640         879.000          34.000  
G26  20881674.555       51641.252       -1231.000          37.000  
G27  19608541.864    -3639647.678        2459.000          43.000  
G28  21968064.454     1159490.806       -1077.000          38.000  
G31  20593055.582       19899.651        -181.000          41.000  
G32  24161428.530      218175.638       -3221.000          34.000  
> 2024 12 28  5 11 33.9960001  0 10                     
G 3  23607129.728     1614530.639       -1336.000          35.000  
G 4  20965685.452      -36428.4621       2677.000          25.000  
G 8  21545410.094    -5305870.730        3928.000          42.000  
G16  19830433.303      150658.171        -310.000          45.000  
G18  24357087.910    -1450500.146         878.000          35.000  
G26  20881909.190       52872.854       -1231.000          37.000  
G27  19608073.908    -3642106.823        2459.000          44.000  
G28  21968271.798     1160569.250       -1078.000          39.000  
G31  20593090.171       20081.339        -181.000          41.000  
G32  24162037.752      221397.015       -3221.000          33.000  
> 2024 12 28  5 11 34.9960001  0 11                     
G 3  23607381.848     1615867.137       -1336.000          35.000  
G 4  20965170.601      -39105.1491       2676.000          25.000  
G 8  21544663.016    -5309798.885        3928.000          42.000  
G 9  23179212.836      -56055.3441       3598.000          15.000  
G16  19830491.761      150969.232        -311.000          45.000  
G18  24356925.379    -1451378.425         878.000          35.000  
G26  20882142.954       54104.431       -1231.000          37.000  
G27  19607606.067    -3644565.417        2458.000          44.000  
G28  21968479.455     1161647.911       -1078.000          39.000  
G31  20593124.802       20263.213        -181.000          41.000  
G32  24162653.710      224618.309       -3221.000          34.000  
> 2024 12 28  5 11 35.9960001  0 10                     
G 3  23607634.388     1617204.187       -1337.000          35.000  
G 4  20964666.290      -41781.2621       2676.000          25.000  
G 8  21543915.658    -5313726.380        3927.000          42.000  
G16  19830550.673      151280.729        -311.000          44.000  
G18  24356761.381    -1452256.280         877.000          35.000  
G26  20882379.648       55336.156       -1231.000          38.000  
G27  19607138.398    -3647023.135        2457.000          44.000  
G28  21968686.520     1162726.927       -1079.000          39.000  
G31  20593159.502       20445.401        -182.000          41.000  
G32  24163274.344      227839.790       -3221.000          34.000  
> 2024 12 28  5 11 36.9960001  0 10                     
G 3  23607892.930     1618543.831       -1339.000          37.000  
G 4  20964143.725      -44456.4691       2674.000          22.000  
G 8  21543168.823    -5317651.805        3925.000          43.000  
G16  19830609.829      151592.387        -311.000          45.000  
G18  24356583.180    -1453136.310         880.000          33.000  
G26  20882616.657       56566.320       -1230.000          40.000  
G27  19606670.952    -3649479.667        2456.000          43.000  
G28  21968891.036     1163804.287       -1077.000          38.000  
G31  20593193.932       20626.207        -180.000          42.000  
G32  24163888.871      231061.208       -3221.000          34.000  
> 2024 12 28  5 11 37.9960001  0 10                     
G 3  23608150.391     1619889.174       -1345.000          37.000  
G 4  20963643.742      -47130.5911       2674.000          23.000  
G 8  21542422.547    -5321572.976        3921.000          44.000  
G16  19830669.055      151904.202        -311.000          45.000  
G18  24356410.597    -1454021.331         885.000          33.000  
G26  20882850.699       57793.500       -1227.000          40.000  
G27  19606203.876    -3651934.228        2454.000          43.000  
G28  21969094.331     1164878.067       -1073.000          39.000  
G31  20593227.764       20803.892        -177.000          42.000  
G32  24164503.887      234282.7041      -3221.000          32.000  
> 2024 12 28  5 11 38.9960001  0 10                     
G 3  23608408.515     1621241.441       -1352.000          36.000  
G 4  20963127.041      -49801.9961       2671.000          26.000  
G 8  21541675.678    -5325489.255        3916.000          44.000  
G16  19830728.735      152216.045        -311.000          45.000  
G18  24356239.899    -1454912.4311        891.000          32.000  
G26  20883084.079       59016.852       -1223.000          40.000  
G27  19605737.223    -3654386.533        2452.000          43.000  
G28  21969297.068     1165947.370       -1069.000          38.000  
G31  20593260.857       20977.707        -173.000          42.000  
G32  24165117.297      237503.8801      -3221.000          32.000  
> 2024 12 28  5 11 39.9960001  0 11                     
G 3  23608664.300     1622597.971       -1356.000          36.000  
G 4  20962616.203      -52471.1271       2669.000          31.000  
G 8  21540931.147    -5329402.164        3912.000          43.000  
G 9  23175767.884      -74034.3381       3595.000          18.000  
G16  19830787.891      152526.957        -310.000          45.000  
G18  24356076.775    -1455808.2971        895.000          33.000  
G26  20883317.109       60236.528       -1219.000          40.000  
G27  19605270.840    -3656837.404        2450.000          43.000  
G28  21969499.316     1167013.342       -1065.000          38.000  
G31  20593293.319       21148.258        -170.000          42.000  
G32  24165719.364      240726.9761      -3223.000          35.000  
> 2024 12 28  5 11 40.9960001  0 11                     
G 3  23608925.285     1623957.3821      -1359.000          33.000  
G 4  20962110.845      -55140.6921       2669.000          44.000  
G 8  21540186.825    -5333310.065        3907.000          41.000  
G 9  23175082.753      -77630.1211       3595.000          15.000  
G16  19830846.524      152835.346        -308.000          46.000  
G18  24355906.146    -1456707.3071        899.000          34.000  
G26  20883549.301       61451.860       -1215.000          41.000  
G27  19604804.968    -3659285.583        2448.000          42.000  
G28  21969701.738     1168078.482       -1065.000          41.000  
G31  20593325.344       21316.509        -168.000          42.000  
G32  24166352.109      243953.9411      -3226.000          29.000  
> 2024 12 28  5 11 41.9960001  0 11                     
G 3  23609186.585     1625317.8441      -1360.000          37.000  
G 4  20961601.159      -57815.6241       2674.000          45.000  
G 8  21539444.703    -5337212.8391       3902.000          40.000  
G 9  23174393.330      -81223.1241       3593.000          14.000  
G16  19830904.040      153139.169        -303.000          44.000  
G18  24355736.635    -1457606.0931        898.000          35.000  
G26  20883780.447       62662.677       -1210.000          42.000  
G27  19604339.848    -3661729.830        2444.000          44.000  
G28  21969905.068     1169146.869       -1068.000          40.000  
G31  20593357.374       21484.771        -168.000          45.000  
G32  24166964.996      247187.4061      -3233.000          35.000  
> 2024 12 28  5 11 42.9960001  0 10                     
G 3  23609443.941     1626672.6721      -1355.000          38.000  
G 4  20961089.623      -60499.006        2683.000          41.000  
G 8  21538702.440    -5341112.748        3899.000          42.000  
G16  19830960.683      153437.917        -298.000          41.000  
G18  24355563.389    -1458497.3561        891.000          35.000  
G26  20884011.872       63872.264       -1209.000          42.000  
G27  19603875.442    -3664170.326        2440.000          45.000  
G28  21970109.690     1170224.842       -1077.000          42.000  
G31  20593390.232       21657.400        -172.000          45.000  
G32  24167572.054      250432.607       -3245.000          34.000  
> 2024 12 28  5 11 43.9960001  0 10                     
G 3  23609703.774     1628016.9591      -1344.000          37.000  
G 4  20960578.332      -63190.546        2691.000          40.000  
G 8  21537960.457    -5345014.990        3902.000          43.000  
G16  19831017.047      153733.714        -295.000          42.000  
G18  24355396.356    -1459375.1931        877.000          38.000  
G26  20884243.366       65085.547       -1213.000          43.000  
G27  19603411.405    -3666608.867        2438.000          46.000  
G28  21970307.226     1171315.737       -1090.000          38.000  
G31  20593424.760       21838.830        -181.000          42.000  
G32  24168200.576      253687.2261      -3254.000          34.000  
> 2024 12 28  5 11 44.9960001  0 11                     
G 3  23609946.332     1629354.7121      -1337.000          34.000  
G 4  20960069.134      -65885.877        2695.000          38.000  
G 8  21537217.182    -5348919.756        3904.000          42.000  
G 9  23172343.697      -92016.3401       3599.000          19.000  
G16  19831073.656      154028.681        -294.000          42.000  
G18  24355222.377    -1460244.4641        869.000          36.000  
G26  20884473.500       66302.182       -1216.000          42.000  
G27  19602947.476    -3669046.843        2437.000          45.000  
G28  21970519.072     1172414.352       -1098.000          41.000  
G31  20593460.315       22025.660        -186.000          41.000  
G32  24168803.062      256945.6491      -3258.000          36.000  
> 2024 12 28  5 11 45.9960001  0 10                     
G 4  20959553.934      -68583.238        2697.000          38.000  
G 8  21536473.873    -5352823.036        3903.000          41.000  
G 9  23171652.703      -95621.3801       3605.000          22.000  
G16  19831129.985      154322.048        -293.000          42.000  
G18  24355053.668    -1461112.8311        868.000          32.000  
G26  20884707.647       67517.7691      -1215.000          38.000  
G27  19602483.814    -3671483.398        2436.000          45.000  
G28  21970730.219     1173514.9741      -1100.000          42.000  
G31  20593495.168       22213.1911       -187.000          40.000  
G32  24169430.537      260207.1571      -3261.000          33.000  
> 2024 12 28  5 11 46.9960001  0 11                     
G 3  23610487.568     1632057.4491      -1358.000          16.000  
G 4  20959039.816      -71282.731        2699.000          40.000  
G 8  21535731.645    -5356724.156        3901.000          42.000  
G 9  23170989.770      -99231.6541       3610.000          23.000  
G16  19831185.442      154613.820        -291.000          41.000  
G18  24354918.499    -1461975.8821        863.000          24.000  
G26  20884920.225       68733.0401      -1215.000          36.000  
G27  19602020.525    -3673918.008        2434.000          46.000  
G28  21970935.469     1174618.3811      -1103.000          38.000  
G31  20593525.740       22400.8261       -187.000          38.000  
G32  24170053.894      263472.5191      -3265.000          34.000  
> 2024 12 28  5 11 47.9960001  0 10                     
G 4  20958525.139      -73983.869        2701.000          39.000  
G 8  21534989.906    -5360623.220        3899.000          41.000  
G 9  23170280.453     -102835.1621       3603.000          24.000  
G16  19831241.457      154904.0871       -290.000          42.000  
G18  24354758.096    -1462841.4561        865.000          28.000  
G26  20885159.468       69946.5061      -1213.000          39.000  
G27  19601557.609    -3676350.657        2432.000          46.000  
G28  21971155.376     1175723.3501      -1104.000          37.000  
G31  20593563.712       22590.1521       -189.000          39.000  
G32  24170680.077      266741.4211      -3268.000          35.000  
> 2024 12 28  5 11 48.9960001  0 11                     
G 3  23610976.244     1634736.2741      -1337.000          22.000  
G 4  20958010.358      -76686.542        2702.000          40.000  
G 8  21534248.621    -5364519.6501       3896.000          40.000  
G 9  23169581.886     -106445.2241       3610.000          24.000  
G16  19831296.425      155193.039        -288.000          43.000  
G18  24354579.895    -1463706.2051        864.000          33.000  
G26  20885394.487       71159.9451      -1212.000          39.000  
G27  19601095.069    -3678781.337        2430.000          46.000  
G28  21971366.280     1176829.9501      -1107.000          40.000  
G31  20593605.488       22779.2351       -189.000          39.000  
G32  24171304.690      270013.8341      -3272.000          34.000  
> 2024 12 28  5 11 49.9960001  0 10                     
G 4  20957495.576      -79390.767        2704.000          39.000  
G 8  21533503.811    -5368412.1901       3892.000          29.000  
G 9  23168913.787     -110061.6611       3616.000          23.000  
G16  19831350.835      155480.666        -287.000          43.000  
G18  24354427.171    -1464570.0991        863.000          39.000  
G26  20885626.087       72370.2881      -1210.000          42.000  
G27  19600632.910    -3681210.015        2428.000          46.000  
G28  21971579.277     1177938.6871      -1108.000          41.000  
G31  20593638.015       22969.7881       -190.000          41.000  
G32  24171927.140      273289.3571      -3275.000          35.000  
> 2024 12 28  5 11 50.9960001  0 10                     
G 4  20956981.074      -82095.785        2705.000          39.000  
G 8  21532779.627    -5372295.5891       3883.000          21.000  
G 9  23168218.221     -113687.9251       3626.000          23.000  
G16  19831405.419      155767.667        -286.000          43.000  
G18  24354244.537    -1465433.2451        863.000          36.000  
G26  20885856.639       73580.0811      -1209.000          42.000  
G27  19600171.010    -3683637.305        2427.000          46.000  
G28  21971792.100     1179048.7521      -1110.000          41.000  
G31  20593671.205       23160.2221       -190.000          40.000  
G32  24172551.439      276567.3031      -3277.000          32.000  
> 2024 12 28  5 11 51.9960001  0 10                     
G 4  20956466.293      -84800.799        2705.000          41.000  
G 8  21532058.863    -5376180.6161       3885.000          21.000  
G 9  23167536.965     -117311.2791       3623.000          24.000  
G16  19831462.621      156054.2411       -286.000          40.000  
G18  24354065.113    -1466295.7231        862.000          34.000  
G26  20886089.774       74789.3961      -1209.000          41.000  
G27  19599709.349    -3686063.340        2426.000          46.000  
G28  21972002.654     1180159.8211      -1111.000          42.000  
G31  20593705.722       23351.5141       -191.000          40.000  
G32  24173171.445      279846.5401      -3279.000          34.000  
> 2024 12 28  5 11 52.9960001  0  9                     
G 4  20955951.895      -87506.111        2705.000          40.000  
G 9  23166826.636     -120930.9891       3619.000          24.000  
G16  19831516.752      156340.5181       -286.000          43.000  
G18  24353905.409    -1467157.6051        861.000          35.000  
G26  20886320.501       75998.3681      -1208.000          41.000  
G27  19599247.914    -3688488.189        2424.000          46.000  
G28  21972214.814     1181271.7531      -1111.000          41.000  
G31  20593739.261       23543.4871       -191.000          39.000  
G32  24173800.839      283127.1271      -3280.000          32.000  
> 2024 12 28  5 11 53.9960001  0  9                     
G 4  20955437.044      -90211.975        2705.000          40.000  
G 9  23166128.628     -124550.8961       3619.000          25.000  
G16  19831570.289      156626.4671       -285.000          42.000  
G18  24353756.245    -1468018.3711        860.000          35.000  
G26  20886549.866       77206.9651      -1208.000          41.000  
G27  19598786.823    -3690911.255        2423.000          46.000  
G28  21972423.763     1182385.5961      -1113.000          41.000  
G31  20593782.084       23735.2101       -191.000          38.000  
G32  24174424.301      286410.1351      -3283.000          35.000  
> 2024 12 28  5 11 54.9960001  0  9                     
G 4  20954921.983      -92919.011        2707.000          40.000  
G 9  23165443.951     -128180.6561       3629.000          24.000  
G16  19831624.385      156911.229        -284.000          42.000  
G18  24353599.228    -1468878.7701        859.000          37.000  
G26  20886781.291       78414.5351      -1207.000          41.000  
G27  19598326.085    -3693332.474        2421.000          46.000  
G28  21972633.829     1183501.0481      -1115.000          40.000  
G31  20593820.754       23928.4831       -192.000          40.000  
G32  24175049.472      289696.2331      -3286.000          33.000  
> 2024 12 28  5 11 56.9960001  0  9                     
G 4  20953890.606      -98333.901        2707.000          40.000  
G 8  21528354.426      -13966.3251       3902.000          18.000  
G 9  23164063.674     -135418.5591       3621.000          23.000  
G16  19831731.948      157479.4931       -284.000          43.000  
G18  24353314.161    -1470592.8341        855.000          19.000  
G26  20887239.848       80827.6881      -1206.000          43.000  
G27  19597405.712    -3698172.200        2419.000          46.000  
G28  21973061.568     1185733.9591      -1116.000          41.000  
G31  20593893.277       24314.9531       -193.000          40.000  
> 2024 12 28  5 11 59.9960001  0  9                     
G 4  20952343.993     -106453.008        2706.000          39.000  
G 9  23161984.829     -146306.6011       3623.000          24.000  
G16  19831894.514      158333.5391       -284.000          42.000  
G18  24352757.743    -1473144.6011        860.000          29.000  
G26  20887926.933       84447.9541      -1206.000          40.000  
G27  19596025.400    -3705428.606        2418.000          46.000  
G28  21973696.477     1189084.8171      -1117.000          42.000  
G31  20594005.063       24895.8971       -193.000          41.000  
G32  24178175.888       12457.6191      -3287.000          33.000  
> 2024 12 28  5 12  1.9960001  0 11                     
G 3  23614277.302        5075.3881      -1338.000          34.000  
G 4  20951314.744     -111863.418        2704.000          39.000  
G 8  21524666.253      -33465.9831       3897.000          26.000  
G 9  23160581.832     -153555.6151       3629.000          22.000  
G16  19832002.007      158904.266        -285.000          42.000  
G18  24352435.996    -1474862.0281        856.000          35.000  
G26  20888387.130       86862.1991      -1207.000          41.000  
G27  19595104.971    -3710262.709        2416.000          46.000  
G28  21974122.228     1191321.466       -1118.000          41.000  
G31  20594069.524       25284.7641       -194.000          40.000  
G32  24179426.650       19031.7911      -3287.000          35.000  
> 2024 12 28  5 12  2.9960001  0 11                     
G 3  23614535.879        6414.4671      -1339.000          32.000  
G 4  20950800.312     -114568.5561       2705.000          39.000  
G 8  21523896.000      -37352.6751       3886.000          31.000  
G 9  23159898.132     -157183.0071       3627.000          22.000  
G16  19832056.243      159189.158        -284.000          42.000  
G18  24352291.194    -1475718.7551        856.000          31.000  
G26  20888616.635       88068.2461      -1206.000          40.000  
G27  19594645.193    -3712678.7121       2416.000          45.000  
G28  21974335.818     1192439.8581      -1118.000          40.000  
G31  20594113.882       25479.2241       -194.000          39.000  
G32  24180041.421       22320.2571      -3288.000          35.000  
> 2024 12 28  5 12  3.9960001  0 11                     
G 3  23614788.140        7753.7311      -1339.000          34.000  
G 4  20950285.321     -117273.2331       2704.000          39.000  
G 8  21523154.785      -41235.4191       3882.000          42.000  
G 9  23159217.434     -160807.7381       3624.000          21.000  
G16  19832110.129      159474.355        -285.000          42.000  
G18  24352117.285    -1476574.4251        855.000          31.000  
G26  20888845.722       89274.5241      -1206.000          42.000  
G27  19594185.345    -3715093.5201       2414.000          45.000  
G28  21974548.885     1193559.2041      -1119.000          40.000  
G31  20594152.064       25674.3781       -195.000          41.000  
G32  24180679.715       25609.4901      -3289.000          30.000  
> 2024 12 28  5 12  4.9960001  0 11                     
G 3  23615043.122        9095.7691      -1342.000          29.000  
G 4  20949771.272     -119976.9871       2703.000          39.000  
G 8  21522415.140      -45118.0971       3882.000          41.000  
G 9  23158506.128     -164447.3451       3639.000          23.000  
G16  19832164.469      159760.245        -285.000          43.000  
G18  24351953.567    -1477430.3931        855.000          33.000  
G26  20889075.751       90481.2801      -1206.000          43.000  
G27  19593726.090    -3717507.7801       2414.000          46.000  
G28  21974761.289     1194678.9511      -1119.000          41.000  
G31  20594189.791       25870.0371       -195.000          42.000  
G32  24181304.572       28898.5681      -3289.000          34.000  
> 2024 12 28  5 12  5.9960001  0 11                     
G 3  23615294.336       10435.8801      -1340.000          34.000  
G 4  20949258.410     -122678.3681       2701.000          39.000  
G 8  21521675.251      -49001.4721       3883.000          41.000  
G 9  23157810.563     -168081.2711       3633.000          22.000  
G16  19832219.542      160047.848        -287.000          43.000  
G18  24351788.104    -1478286.0731        855.000          34.000  
G26  20889305.291       91689.2291      -1207.000          41.000  
G27  19593266.242    -3719922.1571       2414.000          46.000  
G28  21974973.973     1195798.0221      -1119.000          40.000  
G31  20594227.658       26065.9841       -195.000          41.000  
G32  24181923.951       32185.3921      -3286.000          35.000  
> 2024 12 28  5 12  6.9960001  0 11                     
G 3  23615549.946       11776.1401      -1340.000          34.000  
G 4  20948744.502     -125375.668        2697.000          39.000  
G 8  21520936.094      -52887.2901       3885.000          41.000  
G 9  23157130.458     -171701.5151       3620.000          20.000  
G16  19832275.138      160338.546        -290.000          43.000  
G18  24351620.094    -1479141.2151        855.000          32.000  
G26  20889535.145       92899.533       -1210.000          41.000  
G27  19592806.393    -3722337.875        2415.000          46.000  
G28  21975189.657     1196915.0501      -1117.000          37.000  
G31  20594265.630       26261.922        -195.000          41.000  
G32  24182556.137       35467.0361      -3281.000          32.000  
> 2024 12 28  5 12  7.9960001  0 11                     
G 3  23615802.730       13116.3461      -1340.000          35.000  
G 4  20948231.291     -128068.785        2693.000          39.000  
G 8  21520195.472      -56775.6711       3888.000          41.000  
G 9  23156425.574     -175320.1431       3618.000          23.000  
G16  19832331.328      160632.665        -294.000          43.000  
G18  24351460.424    -1479996.5921        855.000          35.000  
G26  20889765.627       94112.830       -1213.000          42.000  
G27  19592346.825    -3724754.766        2416.000          45.000  
G28  21975400.561     1198030.4331      -1115.000          41.000  
G31  20594303.427       26458.535        -196.000          42.000  
G32  24183181.239       38743.6811      -3276.000          34.000  
> 2024 12 28  5 12  8.9960001  0 11                     
G 3  23616062.215       14457.0521      -1340.000          32.000  
G 4  20947720.662     -130757.3211       2688.000          38.000  
G 8  21519454.850      -60667.0091       3891.000          41.000  
G 9  23155766.479     -178926.0541       3605.000          25.000  
G16  19832387.797      160930.280        -297.000          43.000  
G18  24351306.094    -1480851.9631        855.000          35.000  
G26  20889997.297       95328.837       -1216.000          43.000  
G27  19591886.453    -3727173.287        2418.000          45.000  
G28  21975610.068     1199143.4791      -1113.000          37.000  
G31  20594341.154       26655.220        -196.000          42.000  
G32  24183801.838       42014.4301      -3270.000          35.000  
> 2024 12 28  5 12  9.9960001  0 11                     
G 3  23616326.237       15799.3711      -1342.000          31.000  
G 4  20947210.488     -133441.3381       2684.000          39.000  
G 8  21518713.495      -64560.1431       3893.000          40.000  
G 9  23155066.341     -182532.0001       3605.000          24.000  
G16  19832444.859      161231.476        -301.000          43.000  
G18  24351135.222    -1481708.2001        856.000          33.000  
G26  20890229.035       96547.673       -1218.000          41.000  
G27  19591426.151    -3729593.013        2419.000          45.000  
G28  21975822.332     1200254.7051      -1111.000          42.000  
G31  20594378.986       26852.239        -197.000          42.000  
G32  24184423.345       45279.8551      -3265.000          35.000  
> 2024 12 28  5 12 10.9960001  0 11                     
G 3  23616578.637       17140.9261      -1341.000          34.000  
G 4  20946699.999     -136121.5141       2680.000          39.000  
G 8  21517967.533      -68456.7071       3896.000          33.000  
G 9  23154381.804     -186128.0001       3596.000          24.000  
G16  19832502.654      161535.509        -304.000          43.000  
G18  24350974.680    -1482564.0091        855.000          29.000  
G26  20890461.368       97768.634       -1220.000          43.000  
G27  19590965.291    -3732014.280        2421.000          46.000  
G28  21976032.992     1201363.6071      -1108.000          41.000  
G31  20594415.736       27048.939        -196.000          41.000  
G32  24185042.200       48540.0461      -3260.000          35.000  
> 2024 12 28  5 12 11.9960001  0 11                     
G 3  23616833.200       18482.7361      -1341.000          33.000  
G 4  20946190.767     -138797.0141       2675.000          39.000  
G 8  21517229.389      -72353.7551       3897.000          35.000  
G 9  23153688.088     -189706.2151       3578.000          23.000  
G16  19832560.798      161843.207        -307.000          42.000  
G18  24350826.423    -1483418.6131        854.000          31.000  
G26  20890693.665       98992.532       -1223.000          42.000  
G27  19590504.640    -3734436.339        2422.000          45.000  
G28  21976243.476     1202470.8571      -1107.000          41.000  
G31  20594453.534       27246.294        -197.000          42.000  
G32  24185665.487       51795.3251      -3255.000          37.000  
> 2024 12 28  5 12 12.9960001  0 11                     
G 3  23617072.966       19824.7691      -1342.000          34.000  
G 4  20945682.163     -141471.127        2674.000          39.000  
G 8  21516481.682      -76253.210        3898.000          38.000  
G 9  23153034.298     -193285.7511       3579.000          22.000  
G16  19832619.501      162151.786        -308.000          42.000  
G18  24350655.027    -1484274.6331        855.000          31.000  
G26  20890926.870      100216.729       -1224.000          43.000  
G27  19590043.640    -3736858.566        2422.000          45.000  
G28  21976445.445     1203577.484       -1106.000          37.000  
G31  20594491.051       27443.438        -197.000          42.000  
G32  24186272.300       55048.3871      -3253.000          37.000  
> 2024 12 28  5 12 13.9960001  0 11                     
G 3  23617330.671       21167.2861      -1342.000          33.000  
G 4  20945172.233     -144145.610        2674.000          39.000  
G 8  21515741.862      -80150.640        3897.000          39.000  
G 9  23152311.126     -196882.3781       3596.000          22.000  
G16  19832678.238      162459.977        -308.000          42.000  
G18  24350475.429    -1485128.7521        854.000          29.000  
G26  20891159.446      101440.557       -1223.000          43.000  
G27  19589582.919    -3739279.290        2420.000          46.000  
G28  21976663.258     1204685.164       -1107.000          40.000  
G31  20594529.023       27641.173        -197.000          42.000  
G32  24186900.124       58303.9401      -3255.000          35.000  
> 2024 12 28  5 12 14.9960001  0 11                     
G 3  23617589.947       22509.5691      -1342.000          33.000  
G 4  20944662.512     -146821.450        2675.000          38.000  
G 8  21515001.415      -84046.622        3895.000          39.000  
G 9  23151662.467     -200486.3331       3603.000          21.000  
G16  19832737.255      162766.984        -307.000          42.000  
G18  24350325.043    -1485984.9191        856.000          33.000  
G26  20891392.092      102663.344       -1222.000          43.000  
G27  19589123.002    -3741698.536        2419.000          45.000  
G28  21976874.965     1205794.615       -1109.000          41.000  
G31  20594566.471       27839.450        -198.000          42.000  
G32  24187519.991       61561.9491      -3258.000          34.000  
> 2024 12 28  5 12 15.9960001  0 11                     
G 3  23617848.454       23851.1941      -1341.000          34.000  
G 4  20944154.606     -149497.792        2676.000          39.000  
G 8  21514265.818      -87941.3381       3894.000          35.000  
G 9  23150965.470     -204089.6491       3603.000          20.000  
G16  19832795.190      163073.738        -306.000          41.000  
G18  24350158.847    -1486837.4231        852.000          34.000  
G26  20891625.332      103886.178       -1222.000          43.000  
G27  19588662.804    -3744116.624        2418.000          45.000  
G28  21977087.159     1206905.676       -1111.000          41.000  
G31  20594604.094       28038.683        -199.000          42.000  
G32  24188139.997       64821.7741      -3259.000          32.000  
> 2024 12 28  5 12 16.9960001  0 11                     
G 3  23618119.665       25192.9201      -1341.000          33.000  
G 4  20943645.583     -152173.6111       2675.000          40.000  
G 8  21513524.812      -91835.8741       3894.000          39.000  
G 9  23150280.619     -207682.8491       3593.000          25.000  
G16  19832853.055      163380.825        -307.000          41.000  
G18  24350007.100    -1487690.4521        853.000          25.000  
G26  20891856.931      105109.4341      -1223.000          38.000  
G27  19588203.061    -3746533.780        2417.000          45.000  
G28  21977299.633     1208017.6541      -1111.000          41.000  
G31  20594641.019       28239.3311       -200.000          40.000  
G32  24188760.387       68082.1521      -3260.000          35.000  
> 2024 12 28  5 12 17.9960001  0 11                     
G 3  23618369.936       26535.1001      -1342.000          33.000  
G 4  20943137.293     -154849.4221       2675.000          40.000  
G 8  21512774.802      -95728.8161       3892.000          39.000  
G 9  23149588.055     -211268.8591       3586.000          27.000  
G16  19832911.792      163687.796        -306.000          43.000  
G18  24349864.288    -1488541.4401        850.000          22.000  
G26  20892089.927      106331.9661      -1222.000          42.000  
G27  19587743.038    -3748949.346        2415.000          45.000  
G28  21977501.183     1209130.9871      -1113.000          39.000  
G31  20594680.002       28439.4241       -200.000          39.000  
G32  24189381.650       71344.1751      -3262.000          37.000  
> 2024 12 28  5 12 18.9960001  0 10                     
G 3  23618620.207       27876.8921      -1341.000          34.000  
G 4  20942627.014     -157526.357        2676.000          40.000  
G 8  21512038.158      -99619.0771       3890.000          36.000  
G 9  23148903.727     -214860.9251       3592.000          25.000  
G16  19832969.482      163993.352        -305.000          43.000  
G26  20892312.487      107554.0861      -1222.000          40.000  
G27  19587283.714    -3751363.3191       2413.000          45.000  
G28  21977720.532     1210246.5221      -1115.000          38.000  
G31  20594710.331       28640.2391       -200.000          39.000  
G32  24189993.420       74608.7141      -3264.000          35.000  
> 2024 12 28  5 12 19.9960001  0 10                     
G 3  23618873.410       29220.2591      -1343.000          34.000  
G 4  20942114.920     -160203.9971       2677.000          38.000  
G 8  21511302.667     -103507.2381       3888.000          37.000  
G 9  23148226.624     -218447.1361       3586.000          26.000  
G16  19833028.429      164297.513        -304.000          43.000  
G26  20892547.855      108773.4301      -1219.000          40.000  
G27  19586824.633    -3753775.4931       2412.000          46.000  
G28  21977931.645     1211362.0161      -1115.000          35.000  
G31  20594752.630       28839.6931       -199.000          38.000  
G32  24190622.640       77876.3631      -3267.000          35.000  
> 2024 12 28  5 12 20.9960001  0 10                     
G 3  23619129.614       30563.8791      -1343.000          35.000  
G 4  20941608.340     -162883.0481       2679.000          38.000  
G 8  21510562.812     -107393.8381       3886.000          40.000  
G 9  23147546.379     -222036.6341       3589.000          26.000  
G16  19833085.980      164600.367        -302.000          43.000  
G26  20892781.444      109991.6121      -1218.000          39.000  
G27  19586365.762    -3756185.7691       2410.000          46.000  
G28  21978145.864     1212478.9501      -1116.000          34.000  
G31  20594792.556       29040.4631       -200.000          39.000  
G32  24191246.555       81147.2771      -3270.000          36.000  
> 2024 12 28  5 12 21.9960001  0 10                     
G 3  23619391.647       31907.9111      -1344.000          35.000  
G 4  20941098.165     -165564.1851       2681.000          39.000  
G 8  21509822.085     -111278.3091       3884.000          38.000  
G 9  23146851.582     -225628.5031       3591.000          26.000  
G16  19833143.636      164902.089        -301.000          43.000  
G26  20893015.521      111208.6331      -1217.000          42.000  
G27  19585907.101    -3758594.3251       2408.000          46.000  
G28  21978353.417     1213597.6741      -1118.000          34.000  
G31  20594831.156       29241.8381       -201.000          40.000  
G32  24191870.714       84421.0451      -3273.000          38.000  
> 2024 12 28  5 12 22.9960001  0 10                     
G 3  23619641.673       33251.6001      -1343.000          37.000  
G 4  20940586.246     -168245.3441       2681.000          38.000  
G 8  21509083.173     -115161.2291       3882.000          41.000  
G 9  23146160.239     -229230.0371       3601.000          26.000  
G16  19833200.558      165202.826        -300.000          43.000  
G26  20893248.167      112425.8191      -1217.000          34.000  
G27  19585448.998    -3761001.3761       2407.000          46.000  
G28  21978562.994     1214717.3151      -1119.000          33.000  
G31  20594869.896       29443.3321       -201.000          40.000  
G32  24192493.478       87697.1531      -3276.000          38.000  
> 2024 12 28  5 12 23.9960001  0 10                     
G 3  23619896.761       34594.8551      -1343.000          36.000  
G 4  20940075.582     -170925.6691       2680.000          39.000  
G 8  21508340.108     -119044.0611       3882.000          40.000  
G 9  23145463.870     -232829.2861       3599.000          26.000  
G16  19833258.388      165503.7401       -300.000          43.000  
G26  20893500.951      113654.8271      -1229.000          22.000  
G27  19584991.313    -3763408.0471       2406.000          46.000  
G28  21978789.428     1215836.5781      -1119.000          32.000  
G31  20594908.147       29645.0231       -201.000          41.000  
G32  24193117.986       90972.8541      -3275.000          38.000  
> 2024 12 28  5 12 24.9960001  0 10                     
G 3  23620156.420       35942.4011      -1347.000          36.000  
G 4  20939564.500     -173603.7241       2678.000          40.000  
G 8  21507609.084     -122927.6141       3883.000          39.000  
G 9  23144777.833     -236429.9271       3600.000          27.000  
G16  19833316.044      165806.008        -302.000          43.000  
G26  20893712.448      114902.6811      -1247.000          23.000  
G27  19584533.664    -3765814.492        2406.000          46.000  
G28  21978995.480     1216955.8241      -1119.000          39.000  
G31  20594950.586       29855.9331       -210.000          30.000  
G32  24193735.200       94247.1541      -3274.000          38.000  
> 2024 12 28  5 12 26.9960001  0 10                     
G 3  23620668.270       38632.4541      -1344.000          35.000  
G 4  20938546.559     -178954.4211       2674.000          39.000  
G 8  21506129.340     -130697.0831       3885.000          40.000  
G 9  23143402.057     -243617.1041       3591.000          26.000  
G16  19833432.053      166416.263        -306.000          43.000  
G26  20894177.357      117357.9621      -1222.000          32.000  
G27  19583616.899    -3770628.082        2406.000          45.000  
G28  21979429.118     1219195.2711      -1119.000          21.000  
G31  20595043.176       30276.2531       -209.000          25.000  
G32  24194984.950      100788.6031      -3269.000          34.000  
> 2024 12 28  5 12 27.9960001  0 10                     
G 3  23620929.534       39977.4641      -1345.000          35.000  
G 4  20938039.177     -181625.1061       2670.000          39.000  
G 8  21505380.831     -134584.4161       3887.000          39.000  
G 9  23142697.208     -247202.8311       3585.000          24.000  
G16  19833491.034      166725.633        -309.000          43.000  
G26  20894419.531      118584.5011      -1226.000          28.000  
G27  19583158.657    -3773036.270        2408.000          45.000  
G28  21979651.922     1220310.6381      -1115.000          21.000  
G31  20595057.765       30481.3571       -205.000          36.000  
G32  24195608.900      104053.0281      -3264.000          34.000  
> 2024 12 28  5 12 28.9960001  0 10                     
G 3  23621181.062       41325.6941      -1348.000          36.000  
G 4  20937530.852     -184290.5851       2665.000          39.000  
G 8  21504644.047     -138474.2611       3889.000          38.000  
G 9  23142025.654     -250792.1991       3589.000          26.000  
G16  19833550.889      167038.760        -313.000          43.000  
G26  20894644.918      119809.3441      -1224.000          34.000  
G27  19582699.960    -3775445.817        2409.000          46.000  
G28  21979869.562     1221426.2291      -1115.000          20.000  
G31  20595104.147       30686.9031       -205.000          29.000  
G32  24196223.427      107311.5931      -3258.000          34.000  
> 2024 12 28  5 12 29.9960001  0 10                     
G 3  23621426.726       42671.4871      -1345.000          35.000  
G 4  20937029.193     -186951.8021       2661.000          39.000  
G 8  21503909.393     -142367.8911       3893.000          37.000  
G 9  23141347.050     -254372.8681       3580.000          27.000  
G16  19833610.987      167355.455        -316.000          43.000  
G26  20894878.367      121037.7001      -1228.000          42.000  
G27  19582241.403    -3777856.870        2411.000          46.000  
G28  21980047.414     1222533.5501      -1107.000          20.000  
G31  20595132.452       30894.9011       -207.000          26.000  
G32  24196841.932      110564.2891      -3252.000          32.000  
> 2024 12 28  5 12 30.9960001  0 10                     
G 3  23621689.317       44018.2911      -1346.000          35.000  
G 4  20936521.392     -189609.708        2657.000          39.000  
G 8  21503157.114     -146263.2881       3895.000          36.000  
G 9  23140639.095     -257947.4351       3574.000          26.000  
G16  19833671.435      167674.843        -319.000          42.000  
G26  20895112.060      122267.662       -1230.000          42.000  
G27  19581782.707    -3780268.713        2411.000          45.000  
G28  21980297.964     1223635.3841      -1101.000          22.000  
G31  20595177.543       31101.6241       -206.000          27.000  
G32  24197460.508      113813.2541      -3248.000          30.000  
> 2024 12 28  5 12 31.9960001  0 10                     
G 3  23621934.492       45364.4781      -1346.000          32.000  
G 4  20936015.824     -192265.917        2656.000          40.000  
G 8  21502422.670     -150158.9081       3895.000          37.000  
G 9  23139987.957     -261518.0331       3570.000          28.000  
G16  19833731.987      167995.367        -320.000          43.000  
G26  20895345.788      123499.009       -1231.000          43.000  
G27  19581323.557    -3782680.161        2411.000          45.000  
G28  21980519.338     1224742.5331      -1107.000          22.000  
G31  20595221.727       31304.4421       -202.000          38.000  
G32  24198079.886      117060.6961      -3247.000          32.000  
> 2024 12 28  5 12 32.9960001  0 10                     
G 3  23622199.003       46711.1231      -1346.000          33.000  
G 4  20935509.663     -194921.631        2655.000          39.000  
G 8  21501686.689     -154054.3481       3895.000          35.000  
G 9  23139311.133     -265085.8861       3567.000          27.000  
G16  19833793.307      168316.118        -320.000          43.000  
G26  20895580.110      124730.302       -1231.000          43.000  
G27  19580864.686    -3785091.682        2411.000          46.000  
G28  21980724.657     1225858.8721      -1116.000          20.000  
G31  20595259.559       31508.8381       -204.000          43.000  
G32  24198700.695      120306.9201      -3246.000          32.000  
> 2024 12 28  5 12 33.9960001  0 10                     
G 3  23622457.022       48058.1531      -1347.000          34.000  
G 4  20935004.689     -197576.409        2654.000          40.000  
G 8  21500945.683     -157949.8381       3895.000          34.000  
G 9  23138659.437     -268647.0711       3561.000          25.000  
G16  19833854.557      168637.547        -321.000          42.000  
G26  20895814.431      125962.356       -1232.000          43.000  
G27  19580405.955    -3787503.317        2411.000          45.000  
G28  21980939.888     1226972.7621      -1113.000          19.000  
G31  20595298.124       31713.5151       -204.000          42.000  
G32  24199318.153      123552.0841      -3245.000          33.000  
> 2024 12 28  5 12 34.9960001  0 10                     
G 3  23622715.843       49403.8811      -1345.000          34.000  
G 4  20934499.051     -200229.316        2652.000          40.000  
G 8  21500199.826     -161846.6011       3896.000          36.000  
G 9  23137993.921     -272203.3861       3556.000          25.000  
G16  19833916.855      168960.439        -322.000          42.000  
G26  20896048.648      127195.503       -1233.000          43.000  
G27  19579947.433    -3789915.002        2411.000          45.000  
G28  21981128.176     1228083.2771      -1110.000          18.000  
G31  20595336.968       31918.6841       -205.000          42.000  
G32  24199932.645      126796.1361      -3244.000          30.000  
> 2024 12 28  5 12 35.9960001  0  9                     
G 3  23622973.339       50749.9981      -1346.000          33.000  
G 4  20933994.635     -202879.891        2650.000          40.000  
G 8  21499457.947     -165744.4301       3897.000          38.000  
G 9  23137299.821     -275756.9101       3553.000          27.000  
G16  19833978.698      169285.185        -324.000          42.000  
G26  20896283.598      128430.118       -1234.000          44.000  
G27  19579488.492    -3792326.627        2411.000          45.000  
G28  21981333.670     1229192.5971      -1109.000          24.000  
G31  20595376.790       32124.4041       -205.000          42.000  
> 2024 12 28  5 12 36.9960001  0  9                     
G 3  23623218.340       52096.0861      -1346.000          33.000  
G 4  20933491.057     -205529.124        2649.000          41.000  
G 8  21498715.790     -169643.094        3898.000          38.000  
G 9  23136625.510     -279315.9381       3559.000          26.000  
G16  19834041.170      169611.077        -325.000          43.000  
G26  20896518.897      129665.794       -1235.000          44.000  
G27  19579029.761    -3794737.923        2411.000          45.000  
G28  21981537.733     1230301.8201      -1109.000          35.000  
G31  20595415.773       32330.774        -206.000          41.000  
> 2024 12 28  5 12 37.9960001  0 10                     
G 3  23623476.743       53440.8781      -1344.000          35.000  
G 4  20932987.164     -208178.753        2649.000          40.000  
G 8  21497972.899     -173541.180        3898.000          38.000  
G 9  23135903.908     -282887.8701       3571.000          29.000  
G16  19834103.293      169937.092        -326.000          44.000  
G18  24346604.238       -2366.5121        843.000          23.000  
G26  20896753.532      130902.289       -1236.000          41.000  
G27  19578571.309    -3797148.319        2410.000          45.000  
G28  21981754.325     1231414.6511      -1112.000          40.000  
G31  20595455.002       32538.752        -207.000          39.000  
> 2024 12 28  5 12 38.9960001  0 11                     
G 3  23623735.529       54781.3771      -1340.000          39.000  
G 4  20932481.317     -210831.192        2652.000          41.000  
G 8  21497231.439     -177440.640        3899.000          41.000  
G 9  23135202.968     -286468.9461       3581.000          30.000  
G16  19834164.578      170262.002        -324.000          43.000  
G18  24346453.992       -3203.7431        837.000          28.000  
G26  20896989.145      132140.063       -1237.000          40.000  
G27  19578112.612    -3799558.074        2409.000          45.000  
G28  21981966.868     1232531.2001      -1116.000          42.000  
G31  20595494.788       32749.716        -210.000          40.000  
G32  24202400.629        8407.7791      -3244.000          28.000  
> 2024 12 28  5 12 39.9960001  0 11                     
G 3  23623983.427       56115.3711      -1333.000          35.000  
G 4  20931977.076     -213485.854        2654.000          40.000  
G 8  21496487.990     -181344.249        3903.000          43.000  
G 9  23134525.271     -290049.0121       3580.000          26.000  
G16  19834226.107      170587.337        -325.000          45.000  
G18  24346300.290       -4036.3171        832.000          29.000  
G26  20897225.630      133381.797       -1241.000          40.000  
G27  19577653.392    -3801968.604        2410.000          44.000  
G28  21982180.040     1233653.2851      -1122.000          39.000  
G31  20595536.180       32965.423        -215.000          42.000  
G32  24203012.923       11652.6791      -3244.000          29.000  
> 2024 12 28  5 12 40.9960001  0 11                     
G 3  23624253.242       57446.7021      -1331.000          30.000  
G 4  20931471.857     -216140.263        2654.000          42.000  
G 8  21495744.297     -185255.621        3911.000          39.000  
G 9  23133846.353     -293630.1471       3581.000          34.000  
G16  19834287.567      170915.485        -328.000          43.000  
G18  24346140.027       -4857.6881        821.000          34.000  
G26  20897463.267      134630.324       -1248.000          38.000  
G27  19577193.963    -3804381.989        2413.000          46.000  
G28  21982394.748     1234780.1311      -1126.000          41.000  
G31  20595578.758       33186.642        -221.000          45.000  
G32  24203657.045       14897.2801      -3244.000          23.000  
> 2024 12 28  5 12 41.9960001  0 11                     
G 3  23624528.677       58784.5851      -1337.000          29.000  
G 4  20930967.546     -218791.054        2650.000          43.000  
G 8  21494998.265     -189176.310        3920.000          39.000  
G 9  23133166.178     -297205.7801       3575.000          38.000  
G16  19834350.981      171249.293        -333.000          40.000  
G18  24345986.326       -5670.6861        813.000          36.000  
G26  20897702.056      135888.092       -1257.000          41.000  
G27  19576733.836    -3806799.241        2417.000          46.000  
G28  21982609.630     1235910.0651      -1129.000          41.000  
G31  20595621.791       33413.522        -226.000          46.000  
G32  24204261.172       18138.1441      -3240.000          27.000  
> 2024 12 28  5 12 42.9960001  0 10                     
G 3  23624757.275       60109.7421      -1325.000          31.000  
G 4  20930463.200     -221439.421        2648.000          43.000  
G 8  21494249.930     -193103.061        3926.000          36.000  
G 9  23132485.725     -300777.3131       3571.000          38.000  
G16  19834415.442      171586.932        -337.000          39.000  
G18  24345832.380       -6477.3111        806.000          36.000  
G26  20897942.834      137152.294       -1264.000          42.000  
G27  19576273.254    -3809218.602        2419.000          46.000  
G28  21982825.419     1237042.823       -1132.000          43.000  
G31  20595666.219       33644.778        -231.000          46.000  
> 2024 12 28  5 12 43.9960001  0 10                     
G 3  23625005.242       61420.9861      -1311.000          31.000  
G 4  20929959.342     -224088.715        2649.000          42.000  
G 8  21493501.316     -197032.840        3929.000          36.000  
G 9  23131805.131     -304349.6261       3572.000          38.000  
G16  19834479.345      171925.516        -338.000          39.000  
G18  24345676.200       -7277.8221        800.000          35.000  
G26  20898183.612      138420.034       -1267.000          43.000  
G27  19575813.022    -3811638.351        2419.000          46.000  
G28  21983042.325     1238180.029       -1137.000          43.000  
G31  20595711.101       33879.970        -235.000          46.000  
> 2024 12 28  5 12 44.9960001  0 10                     
G 3  23625244.066       62722.7981      -1301.000          31.000  
G 4  20929454.996     -226740.688        2651.000          43.000  
G 8  21492752.701     -200965.080        3932.000          37.000  
G 9  23131124.992     -307924.9351       3575.000          37.000  
G16  19834543.283      172263.608        -338.000          39.000  
G18  24345526.303       -8071.9831        794.000          34.000  
G26  20898425.368      139690.411       -1270.000          43.000  
G27  19575352.825    -3814057.978        2419.000          46.000  
G28  21983259.406     1239322.573       -1142.000          43.000  
G31  20595756.751       34119.166        -239.000          46.000  
> 2024 12 28  5 12 45.9960001  0 11                     
G 3  23625493.988       64021.7671      -1298.000          31.000  
G 4  20928950.371     -229395.178        2654.000          43.000  
G 8  21492004.436     -204900.082        3935.000          38.000  
G 9  23130443.665     -311503.0161       3578.000          37.000  
G16  19834606.662      172601.429        -337.000          39.000  
G18  24345374.765       -8859.9501        787.000          34.000  
G26  20898667.647      140963.545       -1273.000          43.000  
G27  19574892.593    -3816477.715        2419.000          46.000  
G28  21983478.441     1240470.236       -1147.000          42.000  
G31  20595802.994       34362.322        -243.000          46.000  
G32  24206708.774        9012.3701      -3231.000          24.000  
> 2024 12 28  5 12 46.9960001  0 11                     
G 3  23625738.186       65312.9351      -1291.000          32.000  
G 4  20928445.606     -232049.954        2654.000          43.000  
G 8  21491255.438     -208838.981        3938.000          37.000  
G 9  23129762.199     -315081.0291       3578.000          37.000  
G16  19834671.751      172940.575        -339.000          39.000  
G18  24345227.451       -9642.4531        782.000          33.000  
G26  20898910.972      142240.477       -1276.000          43.000  
G27  19574432.222    -3818898.404        2420.000          46.000  
G28  21983697.720     1241621.368       -1151.000          43.000  
G31  20595849.830       34609.030        -246.000          46.000  
G32  24207344.660       12243.8771      -3231.000          19.000  
> 2024 12 28  5 12 47.9960001  0 11                     
G 3  23625978.441       66600.1181      -1287.000          31.000  
G 4  20927940.387     -234704.505        2654.000          43.000  
G 8  21490504.066     -212780.794        3941.000          36.000  
G 9  23129081.187     -318658.3441       3577.000          38.000  
G16  19834736.282      173281.269        -340.000          39.000  
G18  24345077.449      -10420.3281        777.000          33.000  
G26  20899154.612      143520.817       -1280.000          43.000  
G27  19573971.292    -3821319.569        2421.000          46.000  
G28  21983916.895     1242775.493       -1154.000          43.000  
G31  20595897.016       34858.917        -249.000          46.000  
G32  24207944.005       15476.8871      -3233.000          19.000  
> 2024 12 28  5 12 48.9960001  0 11                     
G 3  23626222.814       67883.9151      -1284.000          32.000  
G 4  20927435.098     -237359.546        2655.000          42.000  
G 8  21489754.195     -216724.589        3943.000          36.000  
G 9  23128400.105     -322236.145        3577.000          37.000  
G16  19834800.987      173622.472        -341.000          40.000  
G18  24344928.389      -11194.953         774.000          34.000  
G26  20899398.183      144803.198       -1282.000          43.000  
G27  19573510.745    -3823740.966        2421.000          46.000  
G28  21984137.222     1243932.228       -1156.000          43.000  
G31  20595944.899       35111.082        -252.000          46.000  
G32  24208542.548       18704.2511      -3227.000          21.000  
> 2024 12 28  5 12 49.9960001  0 11                     
G 3  23626466.942       69164.3361      -1280.000          32.000  
G 4  20926930.229     -240015.070        2655.000          42.000  
G 8  21488998.741     -220670.986        3946.000          35.000  
G 9  23127718.430     -325813.7401       3577.000          37.000  
G16  19834865.588      173964.382        -341.000          40.000  
G18  24344780.446      -11964.909         769.000          34.000  
G26  20899643.009      146088.188       -1284.000          42.000  
G27  19573050.234    -3826162.826        2421.000          46.000  
G28  21984358.770     1245091.778       -1159.000          43.000  
G31  20595993.620       35365.929        -254.000          46.000  
G32  24209166.149       21933.8411      -3229.000          33.000  
> 2024 12 28  5 12 50.9960001  0 11                     
G 3  23626719.656       70442.5141      -1278.000          32.000  
G 4  20926425.010     -242670.547        2655.000          42.000  
G 8  21488248.765     -224618.902        3947.000          35.000  
G 9  23127037.697     -329391.5751       3577.000          37.000  
G16  19834930.294      174307.137        -342.000          40.000  
G18  24344641.158      -12731.741         766.000          33.000  
G26  20899887.382      147375.095       -1286.000          43.000  
G27  19572589.409    -3828584.693        2421.000          46.000  
G28  21984579.585     1246253.438       -1161.000          43.000  
G31  20596042.550       35622.799        -256.000          46.000  
G32  24209785.527       25165.1321      -3231.000          28.000  
> 2024 12 28  5 12 51.9960001  0 11                     
G 3  23626958.968       71720.3601      -1277.000          33.000  
G 4  20925915.917     -245324.8671       2654.000          41.000  
G 8  21487498.336     -228566.750        3947.000          36.000  
G 9  23126356.964     -332969.1881       3577.000          37.000  
G16  19834996.535      174650.403        -343.000          40.000  
G18  24344493.564      -13497.867         766.000          33.000  
G26  20900132.104      148662.451       -1287.000          42.000  
G27  19572128.514    -3831005.833        2421.000          46.000  
G28  21984800.819     1247415.637       -1162.000          43.000  
G31  20596091.725       35880.299        -257.000          46.000  
G32  24210371.644       28396.4201      -3231.000          22.000  
> 2024 12 28  5 12 52.9960001  0 11                     
G 3  23627192.767       72998.8111      -1278.000          32.000  
G 4  20925411.781     -247979.5441       2654.000          42.000  
G 8  21486746.965     -232513.979        3947.000          36.000  
G 9  23125677.243     -336546.7371       3577.000          38.000  
G16  19835061.798      174993.375        -342.000          40.000  
G18  24344345.447      -14264.315         766.000          34.000  
G26  20900379.757      149949.029       -1286.000          43.000  
G27  19571667.863    -3833426.537        2420.000          46.000  
G28  21985021.738     1248577.485       -1161.000          43.000  
G31  20596140.621       36137.348        -257.000          46.000  
G32  24211011.195       31626.9451      -3230.000          17.000  
> 2024 12 28  5 12 53.9960001  0 10                     
G 3  23627449.494       74285.8691      -1287.000          32.000  
G 4  20924910.855     -250630.5621       2651.000          41.000  
G 8  21486000.933     -236454.843        3940.000          36.000  
G 9  23124987.855     -340121.4021       3574.000          37.000  
G16  19835126.992      175336.587        -343.000          40.000  
G18  24344200.436      -15038.225         773.000          35.000  
G26  20900623.781      151231.134       -1282.000          43.000  
G27  19571207.456    -3835844.260        2417.000          46.000  
G28  21985241.018     1249734.159       -1156.000          43.000  
G31  20596188.504       36389.853        -252.000          46.000  
> 2024 12 28  5 12 54.9960001  0 10                     
G 3  23627683.013       75588.8731      -1302.000          31.000  
G 4  20924406.997     -253276.170        2645.000          42.000  
G 8  21485252.004     -240384.375        3929.000          37.000  
G 9  23124311.554     -343691.839        3569.000          38.000  
G16  19835192.640      175679.142        -342.000          40.000  
G18  24344048.898      -15827.530         789.000          36.000  
G26  20900864.908      152503.758       -1272.000          43.000  
G27  19570747.922    -3838257.766        2413.000          46.000  
G28  21985459.704     1250879.576       -1145.000          44.000  
G31  20596234.607       36632.523        -242.000          46.000  
> 2024 12 28  5 12 55.9960001  0 10                     
G 3  23627937.647       76908.3071      -1319.000          31.000  
G 4  20923904.431     -255915.219        2639.000          43.000  
G 8  21484507.229     -244302.702        3918.000          37.000  
G 9  23123635.428     -347256.884        3565.000          38.000  
G16  19835257.764      176021.101        -341.000          40.000  
G18  24343894.289      -16632.459         804.000          34.000  
G26  20901105.058      153766.814       -1263.000          43.000  
G27  19570289.645    -3840667.079        2409.000          46.000  
G28  21985675.668     1252013.513       -1133.000          43.000  
G31  20596279.245       36865.143        -232.000          46.000  
> 2024 12 28  5 12 56.9960001  0 10                     
G 3  23628200.272       78239.9281      -1331.000          31.000  
G 4  20923403.400     -258549.472        2634.000          43.000  
G 8  21483762.907     -248212.209        3909.000          36.000  
G 9  23122959.965     -350818.032        3561.000          38.000  
G16  19835322.958      176362.854        -341.000          40.000  
G18  24343738.458      -17449.423         816.000          33.000  
G26  20901343.742      155022.678       -1255.000          43.000  
G27  19569831.611    -3843072.921        2405.000          46.000  
G28  21985889.782     1253138.914       -1125.000          44.000  
G31  20596321.963       37090.315        -225.000          46.000  
> 2024 12 28  5 12 57.9960001  0 10                     
G 3  23628457.139       79581.0361      -1341.000          31.000  
G 4  20922902.753     -261180.205        2630.000          43.000  
G 8  21483019.040     -252115.837        3903.000          37.000  
G 9  23122281.466     -354376.352        3558.000          35.000  
G16  19835387.559      176704.474        -341.000          40.000  
G18  24343583.117      -18274.358         824.000          34.000  
G26  20901581.519      156273.589       -1250.000          43.000  
G27  19569374.206    -3845476.304        2403.000          46.000  
G28  21986102.814     1254258.316       -1119.000          44.000  
G31  20596363.739       37310.413        -220.000          46.000  
> 2024 12 28  5 12 58.9960001  0 10                     
G 3  23628711.982       80927.3581      -1346.000          30.000  
G 4  20922402.211     -263808.210        2628.000          44.000  
G 8  21482277.440     -256014.833        3899.000          37.000  
G 9  23121609.318     -357932.454        3556.000          33.000  
G16  19835452.090      177046.171        -341.000          40.000  
G18  24343427.531      -19104.500         830.000          33.000  
G26  20901819.435      157521.172       -1247.000          43.000  
G27  19568917.290    -3847877.631        2401.000          46.000  
G28  21986314.939     1255373.866       -1115.000          44.000  
G31  20596405.096       37527.090        -216.000          46.000  
> 2024 12 28  5 12 59.9960001  0 11                     
G 3  23628964.522       82278.6871      -1351.000          28.000  
G 4  20921901.879     -266434.100        2625.000          42.000  
G 8  21481517.448     -259910.372        3895.000          36.000  
G 9  23120938.636     -361487.003        3554.000          29.000  
G16  19835517.389      177387.855        -341.000          39.000  
G18  24343263.673      -19939.399         834.000          34.000  
G26  20902056.374      158765.753       -1244.000          43.000  
G27  19568460.897    -3850277.409        2399.000          46.000  
G28  21986526.366     1256485.943       -1112.000          44.000  
G31  20596446.279       37740.746        -213.000          47.000  
G32  24215351.657        9033.7911      -3235.000          29.000  
> 2024 12 28  5 13  0.9960001  0 11                     
G 3  23629217.725       83630.745       -1352.000          28.000  
G 4  20921402.279     -269059.238        2625.000          42.000  
G 8  21480783.178     -263805.132        3894.000          35.000  
G 9  23120257.519     -365041.036        3554.000          30.000  
G16  19835583.211      177729.658        -341.000          39.000  
G18  24343104.283      -20774.755         835.000          34.000  
G26  20902293.069      160009.842       -1244.000          43.000  
G27  19568004.364    -3852676.469        2399.000          46.000  
G28  21986737.932     1257597.635       -1111.000          44.000  
G31  20596486.868       37954.109        -213.000          47.000  
G32  24215922.663       12265.5151      -3231.000          28.000  
> 2024 12 28  5 13  1.9960001  0 11                     
G 3  23629482.828       84983.078       -1352.000          29.000  
G 4  20920902.784     -271683.729        2624.000          42.000  
G 8  21480048.838     -267699.406        3894.000          35.000  
G 9  23119579.753     -368594.599        3553.000          29.000  
G16  19835647.393      178071.808        -342.000          39.000  
G18  24342949.360      -21609.596         834.000          34.000  
G26  20902529.380      161254.084       -1244.000          43.000  
G27  19567547.866    -3855074.755        2398.000          46.000  
G28  21986949.603     1258709.753       -1112.000          44.000  
G31  20596526.515       38167.847        -213.000          47.000  
G32  24216587.970       15492.8781      -3227.000          28.000  
> 2024 12 28  5 13  2.9960001  0 11                     
G 3  23629743.325       86335.545       -1352.000          30.000  
G 4  20920403.463     -274307.657        2623.000          42.000  
G 8  21479309.333     -271593.353        3893.000          34.000  
G 9  23118901.079     -372147.8311       3553.000          29.000  
G16  19835712.308      178414.330        -342.000          39.000  
G18  24342779.290      -22443.948         834.000          33.000  
G26  20902766.528      162498.478       -1244.000          43.000  
G27  19567091.613    -3857472.391        2397.000          46.000  
G28  21987160.437     1259822.236       -1112.000          44.000  
G31  20596566.545       38381.979        -214.000          47.000  
G32  24217177.927       18715.4281      -3222.000          28.000  
> 2024 12 28  5 13  3.9960001  0 11                     
G 3  23629999.390       87688.431       -1352.000          31.000  
G 4  20919904.527     -276930.777        2623.000          41.000  
G 8  21478566.093     -275486.699        3893.000          35.000  
G 9  23118224.883     -375700.4251       3552.000          29.000  
G16  19835777.397      178757.392        -343.000          39.000  
G18  24342618.050      -23277.531         833.000          31.000  
G26  20903002.700      163743.210       -1244.000          43.000  
G27  19566635.569    -3859869.109        2396.000          46.000  
G28  21987372.457     1260935.313       -1113.000          44.000  
G31  20596607.937       38596.632        -214.000          47.000  
G32  24217828.018       21935.4261      -3219.000          28.000  
> 2024 12 28  5 13  4.9960001  0 10                     
G 3  23630259.607       89041.042       -1352.000          32.000  
G 4  20919405.276     -279553.561        2622.000          41.000  
G 8  21477826.553     -279379.969        3893.000          34.000  
G 9  23117550.223     -379252.9091       3552.000          29.000  
G16  19835841.684      179100.530        -343.000          39.000  
G18  24342463.720      -24110.932         833.000          32.000  
G26  20903239.778      164987.771       -1244.000          43.000  
G27  19566180.083    -3862265.431        2396.000          46.000  
G28  21987584.826     1262048.476       -1113.000          44.000  
G31  20596648.911       38811.365        -214.000          47.000  
> 2024 12 28  5 13  5.9960001  0 10                     
G 3  23630521.221       90394.152       -1353.000          31.000  
G 4  20918906.270     -282175.622        2622.000          41.000  
G 8  21477087.606     -283272.641        3892.000          34.000  
G 9  23116873.399     -382804.8711       3551.000          29.000  
G16  19835906.843      179444.147        -343.000          39.000  
G18  24342309.251      -24943.730         832.000          33.000  
G26  20903475.600      166232.634       -1244.000          42.000  
G27  19565724.284    -3864660.930        2395.000          46.000  
G28  21987796.742     1263162.170       -1113.000          44.000  
G31  20596690.442       39026.626        -215.000          47.000  
> 2024 12 28  5 13  6.9960001  0 10                     
G 3  23630779.519       91747.465       -1353.000          32.000  
G 4  20918408.380     -284796.976        2621.000          41.000  
G 8  21476348.903     -287164.883        3892.000          35.000  
G 9  23116202.438     -386356.278        3551.000          30.000  
G16  19835972.735      179788.236        -344.000          40.000  
G18  24342150.489      -25775.893         832.000          33.000  
G26  20903712.330      167477.714       -1245.000          43.000  
G27  19565268.310    -3867055.610        2394.000          46.000  
G28  21988008.762     1264276.318       -1114.000          44.000  
G31  20596732.008       39242.313        -215.000          47.000  
> 2024 12 28  5 13  7.9960001  0 11                     
G 3  23631033.874       93100.792       -1353.000          32.000  
G 4  20917909.408     -287417.877        2620.000          41.000  
G 8  21475604.686     -291056.815        3891.000          35.000  
G 9  23115523.101     -389907.501        3551.000          30.000  
G16  19836038.382      180132.528        -344.000          40.000  
G18  24341990.086      -26607.688         831.000          32.000  
G26  20903949.269      168722.848       -1245.000          43.000  
G27  19564811.986    -3869449.740        2394.000          46.000  
G28  21988220.293     1265390.722       -1114.000          44.000  
G31  20596773.470       39458.227        -215.000          47.000  
G32  24220241.767        8984.6601      -3217.000          28.000  
> 2024 12 28  5 13  8.9960001  0 11                     
G 3  23631282.783       94454.232       -1353.000          32.000  
G 4  20917410.576     -290038.295        2620.000          41.000  
G 8  21474862.947     -294948.548        3891.000          34.000  
G 9  23114852.419     -393458.347        3550.000          30.000  
G16  19836104.135      180477.068        -344.000          39.000  
G18  24341832.197      -27439.123         831.000          32.000  
G26  20904186.418      169967.931       -1245.000          43.000  
G27  19564356.187    -3871843.275        2393.000          46.000  
G28  21988432.383     1266505.400       -1114.000          44.000  
G31  20596814.653       39674.445        -216.000          47.000  
G32  24220882.225       12200.1691      -3215.000          29.000  
> 2024 12 28  5 13  9.9960001  0 11                     
G 3  23631543.629       95807.589       -1353.000          32.000  
G 4  20916911.605     -292658.280        2619.000          41.000  
G 8  21474118.800     -298840.001        3891.000          35.000  
G 9  23114173.047     -397009.063        3550.000          29.000  
G16  19836170.132      180821.755        -344.000          39.000  
G18  24341677.274      -28270.194         831.000          33.000  
G26  20904422.903      171213.044       -1245.000          43.000  
G27  19563900.213    -3874236.291        2393.000          46.000  
G28  21988645.067     1267620.275       -1114.000          44.000  
G31  20596856.254       39890.787        -216.000          47.000  
G32  24221494.658       15416.4381      -3216.000          29.000  
> 2024 12 28  5 13 10.9960001  0 11                     
G 3  23631802.974       97161.385       -1353.000          33.000  
G 4  20916412.738     -295277.473        2619.000          41.000  
G 8  21473375.177     -302730.869        3890.000          35.000  
G 9  23113500.132     -400559.127        3550.000          29.000  
G16  19836237.210      181166.995        -345.000          39.000  
G18  24341520.885      -29100.567         830.000          33.000  
G26  20904660.226      172458.443       -1245.000          43.000  
G27  19563445.041    -3876628.430        2392.000          46.000  
G28  21988857.506     1268735.709       -1115.000          44.000  
G31  20596897.297       40107.713        -216.000          47.000  
G32  24222091.141       18634.3541      -3217.000          30.000  
> 2024 12 28  5 13 11.9960001  0 11                     
G 3  23632065.496       98514.679       -1353.000          32.000  
G 4  20915913.976     -297896.711        2619.000          41.000  
G 8  21472637.731     -306622.004        3891.000          35.000  
G 9  23112826.903     -404109.398        3550.000          28.000  
G16  19836303.381      181511.938        -344.000          39.000  
G18  24341357.690      -29931.112         830.000          32.000  
G26  20904898.177      173703.373       -1244.000          43.000  
G27  19562989.625    -3879020.511        2392.000          46.000  
G28  21989069.945     1269850.895       -1115.000          43.000  
G31  20596938.130       40324.354        -216.000          47.000  
G32  24222703.364       21856.9491      -3222.000          30.000  
> 2024 12 28  5 13 12.9960001  0 11                     
G 3  23632327.423       99868.630       -1353.000          33.000  
G 4  20915415.284     -300514.803        2618.000          42.000  
G 8  21471896.236     -310512.260        3890.000          34.000  
G 9  23112153.778     -407658.732        3549.000          29.000  
G16  19836369.937      181857.778        -345.000          39.000  
G18  24341207.165      -30760.583         829.000          35.000  
G26  20905134.104      174948.973       -1245.000          43.000  
G27  19562534.454    -3881411.352        2390.000          46.000  
G28  21989283.430     1270966.997       -1116.000          44.000  
G31  20596979.871       40541.883        -217.000          47.000  
G32  24223306.863       25087.6731      -3230.000          29.000  
> 2024 12 28  5 13 13.9960001  0 11                     
G 3  23632581.847      101223.019       -1354.000          32.000  
G 4  20914917.254     -303132.121        2617.000          41.000  
G 8  21471155.753     -314401.787        3889.000          34.000  
G 9  23111475.314     -411207.537        3548.000          29.000  
G16  19836438.027      182204.174        -346.000          39.000  
G18  24341051.544      -31589.426         828.000          34.000  
G26  20905371.148      176194.864       -1245.000          43.000  
G27  19562079.841    -3883801.305        2389.000          46.000  
G28  21989496.149     1272083.635       -1116.000          44.000  
G31  20597021.438       40759.961        -218.000          47.000  
G32  24223928.300       28319.2481      -3231.000          29.000  
> 2024 12 28  5 13 14.9960001  0 11                     
G 3  23632841.821      102577.601       -1354.000          33.000  
G 4  20914419.993     -305748.797        2616.000          41.000  
G 8  21470410.140     -318290.982        3889.000          34.000  
G 9  23110790.986     -414755.982        3548.000          28.000  
G16  19836505.280      182550.932        -346.000          39.000  
G18  24340888.908      -32417.686         828.000          34.000  
G26  20905607.249      177440.940       -1246.000          43.000  
G27  19561625.228    -3886190.545        2389.000          46.000  
G28  21989709.251     1273200.747       -1117.000          44.000  
G31  20597062.725       40978.416        -218.000          46.000  
G32  24224535.672       31550.0621      -3230.000          28.000  
> 2024 12 28  5 13 15.9960001  0 11                     
G 3  23633094.674      103932.322       -1354.000          34.000  
G 4  20913921.336     -308364.849        2616.000          41.000  
G 8  21469675.870     -322179.781        3888.000          35.000  
G 9  23110121.875     -418303.797        3547.000          28.000  
G16  19836571.626      182898.080        -347.000          39.000  
G18  24340736.602      -33245.400         827.000          34.000  
G26  20905842.862      178687.176       -1246.000          43.000  
G27  19561171.522    -3888579.063        2388.000          46.000  
G28  21989921.201     1274318.218       -1117.000          44.000  
G31  20597104.361       41197.324        -218.000          47.000  
G32  24225148.454       34783.5211      -3233.000          29.000  
> 2024 12 28  5 13 16.9960001  0 11                     
G 3  23633351.891      105287.239       -1354.000          32.000  
G 4  20913423.272     -310980.286        2615.000          41.000  
G 8  21468937.307     -326068.146        3888.000          34.000  
G 9  23109445.923     -421851.393        3547.000          28.000  
G16  19836638.635      183245.570        -347.000          39.000  
G18  24340580.632      -34072.638         827.000          34.000  
G26  20906079.976      179933.563       -1246.000          43.000  
G27  19560717.642    -3890966.881        2387.000          46.000  
G28  21990133.919     1275436.094       -1117.000          44.000  
G31  20597146.870       41416.530        -219.000          47.000  
G32  24225762.039       38020.0901      -3236.000          27.000  
> 2024 12 28  5 13 17.9960001  0 11                     
G 3  23633608.863      106642.158       -1354.000          33.000  
G 4  20912925.033     -313595.289        2615.000          41.000  
G 8  21468198.744     -329956.250        3888.000          35.000  
G 9  23108770.251     -425398.556        3547.000          28.000  
G16  19836704.003      183593.258        -347.000          39.000  
G18  24340420.020      -34899.531         826.000          35.000  
G26  20906317.124      181179.958       -1246.000          43.000  
G27  19560263.971    -3893354.140        2387.000          46.000  
G28  21990346.533     1276554.176       -1118.000          44.000  
G31  20597189.030       41635.937        -219.000          47.000  
G32  24226386.896       41251.4131      -3231.000          28.000  
> 2024 12 28  5 13 18.9960001  0 11                     
G 3  23633862.868      107997.396       -1355.000          32.000  
G 4  20912426.725     -316209.614        2614.000          41.000  
G 8  21467451.456     -333843.935        3887.000          34.000  
G 9  23108100.930     -428945.306        3546.000          29.000  
G16  19836770.908      183941.380        -348.000          39.000  
G18  24340265.481      -35725.848         826.000          34.000  
G26  20906553.958      182426.545       -1246.000          43.000  
G27  19559809.707    -3895740.619        2386.000          46.000  
G28  21990559.251     1277672.731       -1118.000          44.000  
G31  20597231.259       41855.850        -219.000          47.000  
G32  24226995.106       44482.5741      -3231.000          27.000  
> 2024 12 28  5 13 19.9960001  0 11                     
G 3  23634118.583      109352.632       -1355.000          31.000  
G 4  20911929.568     -318823.396        2613.000          41.000  
G 8  21466712.963     -337731.234        3887.000          34.000  
G 9  23107419.883     -432491.815        3546.000          29.000  
G16  19836837.672      184289.813        -348.000          39.000  
G18  24340111.780      -36551.726         825.000          35.000  
G26  20906792.049      183673.204       -1246.000          43.000  
G27  19559355.932    -3898126.487        2385.000          46.000  
G28  21990772.458     1278791.613       -1118.000          45.000  
G31  20597273.209       42076.028        -220.000          47.000  
G32  24227595.254       47717.0211      -3234.000          25.000  
> 2024 12 28  5 13 20.9960001  0 11                     
G 3  23634378.487      110708.014       -1355.000          31.000  
G 4  20911432.935     -321436.700        2613.000          41.000  
G 8  21465972.236     -341618.287        3887.000          34.000  
G 9  23106745.572     -436037.911        3546.000          29.000  
G16  19836904.611      184638.468        -348.000          39.000  
G18  24339951.587      -37377.131         825.000          35.000  
G26  20907029.861      184919.918       -1246.000          44.000  
G27  19558901.702    -3900511.765        2385.000          46.000  
G28  21990985.176     1279910.725       -1119.000          44.000  
G31  20597314.741       42296.468        -220.000          47.000  
G32  24228217.179       50950.8881      -3233.000          26.000  
> 2024 12 28  5 13 21.9960001  0 11                     
G 3  23634629.980      112063.296       -1355.000          31.000  
G 4  20910936.057     -324049.591        2612.000          41.000  
G 8  21465233.743     -345505.196        3886.000          34.000  
G 9  23106074.017     -439583.896        3545.000          29.000  
G16  19836970.259      184987.270        -348.000          39.000  
G18  24339791.917      -38202.302         825.000          34.000  
G26  20907267.533      186166.529       -1246.000          44.000  
G27  19558447.927    -3902896.533        2384.000          46.000  
G28  21991197.789     1281030.038       -1119.000          44.000  
G31  20597356.447       42517.065        -220.000          47.000  
G32  24228839.943       54181.9331      -3231.000          26.000  
> 2024 12 28  5 13 22.9960001  0 11                     
G 3  23634888.487      113418.640       -1355.000          30.000  
G 4  20910439.110     -326662.020        2612.000          41.000  
G 8  21464496.960     -349391.748        3886.000          34.000  
G 9  23105402.079     -443129.545        3545.000          29.000  
G16  19837033.952      185336.273        -348.000          38.000  
G18  24339629.770      -39027.124         824.000          33.000  
G26  20907504.681      187413.157       -1246.000          43.000  
G27  19557994.256    -3905280.763        2384.000          46.000  
G28  21991411.101     1282149.586       -1119.000          44.000  
G31  20597398.432       42737.854        -220.000          47.000  
G32  24229445.640       57413.0091      -3231.000          27.000  
> 2024 12 28  5 13 23.9960001  0 11                     
G 3  23635151.392      114774.187       -1355.000          31.000  
G 4  20909942.791     -329273.805        2611.000          42.000  
G 8  21463767.925     -353277.9431       3886.000          36.000  
G 9  23104727.594     -446674.750        3545.000          29.000  
G16  19837098.727      185685.677        -349.000          38.000  
G18  24339477.534      -39851.351         824.000          34.000  
G26  20907741.550      188659.946       -1246.000          43.000  
G27  19557540.655    -3907664.228        2383.000          47.000  
G28  21991624.726     1283269.553       -1119.000          44.000  
G31  20597440.697       42959.062        -221.000          46.000  
G32  24230067.601       60651.7441      -3238.000          25.000  
> 2024 12 28  5 13 24.9960001  0 11                     
G 3  23635412.063      116129.977       -1355.000          30.000  
G 4  20909446.227     -331884.998        2611.000          42.000  
G 8  21463027.931     -357163.661        3885.000          36.000  
G 9  23104048.710     -450219.559        3544.000          29.000  
G16  19837163.887      186035.435        -349.000          38.000  
G18  24339322.576      -40675.063         823.000          35.000  
G26  20907979.327      189906.912       -1246.000          44.000  
G27  19557086.880    -3910046.999        2382.000          46.000  
G28  21991838.003     1284389.927       -1120.000          44.000  
G31  20597482.787       43180.680        -221.000          47.000  
G32  24230679.231       63885.2131      -3233.000          25.000  
> 2024 12 28  5 13 25.9960001  0 11                     
G 3  23635670.257      117485.786       -1355.000          31.000  
G 4  20908949.350     -334495.688        2610.000          41.000  
G 8  21462289.193     -361049.173        3885.000          36.000  
G 9  23103372.445     -453764.091        3544.000          31.000  
G16  19837229.534      186385.414        -349.000          38.000  
G18  24339165.734      -41498.454         823.000          34.000  
G26  20908217.802      191153.882       -1246.000          43.000  
G27  19556633.418    -3912429.202        2382.000          46.000  
G28  21992051.000     1285510.536       -1120.000          44.000  
G31  20597524.353       43402.503        -221.000          47.000  
G32  24231291.873       67116.6881      -3231.000          24.000  
> 2024 12 28  5 13 26.9960001  0 11                     
G 3  23635924.402      118841.385       -1355.000          30.000  
G 4  20908452.926     -337106.054        2610.000          42.000  
G 8  21461548.920     -364934.560        3885.000          37.000  
G 9  23102700.925     -457308.564        3544.000          31.000  
G16  19837297.416      186735.442        -350.000          39.000  
G18  24339007.460      -42321.632         823.000          34.000  
G26  20908456.067      192400.697       -1246.000          44.000  
G27  19556179.992    -3914810.980        2381.000          46.000  
G28  21992263.683     1286631.261       -1120.000          44.000  
G31  20597565.989       43624.427        -221.000          46.000  
G32  24231925.770       70352.4561      -3235.000          26.000  
> 2024 12 28  5 13 27.9960001  0 11                     
G 3  23636183.677      120197.221       -1355.000          30.000  
G 4  20907956.921     -339715.884        2609.000          42.000  
G 8  21460809.694     -368819.592        3885.000          37.000  
G 9  23102025.183     -460852.618        3544.000          30.000  
G16  19837363.552      187085.811        -350.000          38.000  
G18  24338848.558      -43144.257         822.000          34.000  
G26  20908694.123      193647.626       -1246.000          44.000  
G27  19555726.635    -3917192.125        2381.000          46.000  
G28  21992476.785     1287752.300       -1121.000          44.000  
G31  20597608.079       43846.652        -222.000          46.000  
G32  24232528.395       73583.4991      -3231.000          23.000  
> 2024 12 28  5 13 28.9960001  0 11                     
G 3  23636444.383      121553.115       -1355.000          30.000  
G 4  20907461.509     -342325.121        2609.000          42.000  
G 8  21460071.201     -372704.2171       3884.000          37.000  
G 9  23101340.192     -464396.3231       3543.000          29.000  
G16  19837430.037      187436.496        -350.000          37.000  
G18  24338693.950      -43966.435         822.000          34.000  
G26  20908931.725      194894.658       -1247.000          44.000  
G27  19555273.942    -3919572.547        2380.000          47.000  
G28  21992689.573     1288873.714       -1121.000          44.000  
G31  20597650.518       44069.239        -222.000          46.000  
G32  24233138.211       76814.1041      -3230.000          25.000  
> 2024 12 28  5 13 29.9960001  0 11                     
G 3  23636707.463      122909.474       -1356.000          29.000  
G 4  20906965.330     -344933.554        2608.000          42.000  
G 8  21459331.276     -376588.2271       3884.000          37.000  
G 9  23100670.732     -467939.3821       3543.000          29.000  
G16  19837496.767      187787.731        -351.000          38.000  
G18  24338537.421      -44787.941         821.000          34.000  
G26  20909168.908      196142.050       -1247.000          44.000  
G27  19554820.690    -3921952.101        2379.000          46.000  
G28  21992903.304     1289995.727       -1122.000          44.000  
G31  20597693.097       44292.373        -223.000          46.000  
G32  24233742.407       80045.7801      -3231.000          25.000  
> 2024 12 28  5 13 30.9960001  0 11                     
G 3  23636960.142      124265.8691      -1356.000          29.000  
G 4  20906469.499     -347541.488        2607.000          42.000  
G 8  21458592.469     -380472.053        3883.000          37.000  
G 9  23099998.619     -471482.1861       3542.000          30.000  
G16  19837562.310      188139.190        -351.000          37.000  
G18  24338374.296      -45609.017         821.000          34.000  
G26  20909406.650      197389.457       -1247.000          44.000  
G27  19554368.240    -3924331.044        2378.000          47.000  
G28  21993116.964     1291117.973       -1122.000          44.000  
G31  20597735.152       44515.751        -223.000          46.000  
G32  24234358.190       83276.2711      -3230.000          25.000  
> 2024 12 28  5 13 31.9960001  0 10                     
G 3  23637209.855      125622.3701      -1356.000          28.000  
G 4  20905973.250     -350148.886        2607.000          42.000  
G 8  21457854.848     -384355.495        3883.000          36.000  
G 9  23099326.402     -475024.5321       3542.000          29.000  
G16  19837629.144      188490.972        -351.000          37.000  
G18  24338218.257      -46429.667         820.000          34.000  
G26  20909643.519      198636.982       -1247.000          44.000  
G27  19553915.617    -3926709.351        2378.000          47.000  
G28  21993330.066     1292240.593       -1122.000          44.000  
G31  20597777.521       44739.454        -223.000          47.000  
> 2024 12 28  5 13 32.9960001  0 10                     
G 3  23637472.411      126978.9781      -1356.000          29.000  
G 4  20905476.547     -352755.766        2606.000          42.000  
G 8  21457115.273     -388238.549        3883.000          37.000  
G 9  23098648.287     -478566.6241       3542.000          29.000  
G16  19837696.677      188843.028        -352.000          38.000  
G18  24338062.985      -47249.849         820.000          34.000  
G26  20909881.331      199884.505       -1247.000          44.000  
G27  19553463.307    -3929087.044        2377.000          47.000  
G28  21993543.587     1293363.467       -1122.000          44.000  
G31  20597819.960       44963.434        -223.000          46.000  
> 2024 12 28  5 13 33.9960001  0 10                     
G 3  23637721.914      128335.5761      -1356.000          30.000  
G 4  20904980.577     -355362.172        2606.000          42.000  
G 8  21456376.675     -392121.393        3882.000          37.000  
G 9  23097973.731     -482108.4631       3541.000          30.000  
G16  19837763.895      189195.268        -352.000          38.000  
G18  24337906.666      -48069.717         819.000          35.000  
G26  20910118.235      201132.034       -1247.000          43.000  
G27  19553010.893    -3931464.172        2377.000          47.000  
G28  21993757.352     1294486.610       -1123.000          44.000  
G31  20597862.294       45187.652        -224.000          47.000  
> 2024 12 28  5 13 34.9960001  0 10                     
G 3  23637982.829      129692.3421      -1356.000          31.000  
G 4  20904484.607     -357967.996        2605.000          42.000  
G 8  21455637.100     -396003.858        3882.000          37.000  
G 9  23097295.755     -485649.9071       3541.000          29.000  
G16  19837831.811      189547.827        -352.000          38.000  
G18  24337751.638      -48889.100         819.000          35.000  
G26  20910354.721      202379.726       -1247.000          43.000  
G27  19552558.932    -3933840.626        2376.000          47.000  
G28  21993971.641     1295610.102       -1123.000          44.000  
G31  20597905.396       45412.214        -224.000          47.000  
> 2024 12 28  5 13 35.9960001  0 10                     
G 3  23638237.672      131049.2571      -1356.000          31.000  
G 4  20903988.637     -360573.219        2605.000          42.000  
G 8  21454897.037     -399885.9931       3882.000          36.000  
G 9  23096620.955     -489190.9721       3541.000          29.000  
G16  19837900.216      189900.765        -352.000          38.000  
G18  24337585.372      -49707.894         818.000          34.000  
G26  20910590.996      203627.501       -1247.000          43.000  
G27  19552107.181    -3936216.402        2375.000          47.000  
G28  21994186.767     1296733.963       -1123.000          45.000  
G31  20597949.266       45637.095        -224.000          47.000  
> 2024 12 28  5 13 36.9960001  0 10                     
G 3  23638502.846      132406.272       -1357.000          32.000  
G 4  20903492.702     -363177.996        2604.000          42.000  
G 8  21454156.205     -403767.833        3881.000          37.000  
G 9  23095949.994     -492731.694        3540.000          29.000  
G16  19837968.027      190253.917        -353.000          38.000  
G18  24337433.765      -50526.459         818.000          34.000  
G26  20910828.424      204875.320       -1247.000          43.000  
G27  19551655.709    -3938591.614        2375.000          47.000  
G28  21994400.881     1297858.088       -1124.000          44.000  
G31  20597992.403       45862.216        -225.000          47.000  
> 2024 12 28  5 13 37.9960001  0 11                     
G 3  23638758.247      133763.375       -1357.000          31.000  
G 4  20902996.941     -365782.140        2604.000          42.000  
G 8  21453418.026     -407649.271        3881.000          37.000  
G 9  23095274.671     -496272.054        3540.000          28.000  
G16  19838034.827      190607.420        -353.000          37.000  
G18  24337279.993      -51344.477         818.000          34.000  
G26  20911065.782      206123.234       -1247.000          43.000  
G27  19551203.713    -3940966.087        2374.000          47.000  
G28  21994615.344     1298982.586       -1124.000          44.000  
G31  20598035.435       46087.727        -225.000          47.000  
G32  24238634.017        8982.7301      -3211.000          26.000  
> 2024 12 28  5 13 38.9960001  0 11                     
G 3  23639024.887      135120.678       -1357.000          32.000  
G 4  20902501.494     -368385.683        2603.000          42.000  
G 8  21452679.288     -411530.283        3881.000          36.000  
G 9  23094588.110     -499811.9351       3539.000          26.000  
G16  19838101.103      190961.262        -353.000          37.000  
G18  24337127.234      -52161.901         817.000          34.000  
G26  20911303.000      207371.335       -1248.000          43.000  
G27  19550752.137    -3943339.896        2373.000          47.000  
G28  21994829.668     1300107.449       -1124.000          45.000  
G31  20598078.363       46313.592        -225.000          47.000  
G32  24239264.982       12183.1821      -3200.000          27.000  
> 2024 12 28  5 13 39.9960001  0 11                     
G 3  23639280.253      136478.228       -1357.000          32.000  
G 4  20902006.606     -370988.542        2602.000          42.000  
G 8  21451939.992     -415410.799        3880.000          36.000  
G 9  23093923.815     -503351.4271       3539.000          27.000  
G16  19838166.297      191315.555        -354.000          37.000  
G18  24336976.499      -52978.834         816.000          35.000  
G26  20911541.335      208619.650       -1248.000          43.000  
G27  19550300.804    -3945712.911        2373.000          47.000  
G28  21995044.271     1301232.797       -1125.000          45.000  
G31  20598121.534       46539.890        -226.000          47.000  
G32  24239886.698       15382.3141      -3199.000          25.000  
> 2024 12 28  5 13 40.9960001  0 11                     
G 3  23639545.741      137835.9381      -1357.000          30.000  
G 4  20901511.439     -373590.831        2602.000          42.000  
G 8  21451203.872     -419291.027        3880.000          38.000  
G 9  23093256.867     -506890.5241       3539.000          29.000  
G16  19838233.724      191670.141        -354.000          38.000  
G18  24336820.040      -53795.242         816.000          35.000  
G26  20911779.461      209868.026       -1248.000          43.000  
G27  19549849.890    -3948085.262        2372.000          47.000  
G28  21995258.664     1302358.464       -1125.000          45.000  
G31  20598164.846       46766.560        -226.000          47.000  
G32  24240494.071       18580.4681      -3198.000          26.000  
> 2024 12 28  5 13 41.9960001  0 11                     
G 3  23639795.733      139193.7981      -1357.000          30.000  
G 4  20901016.167     -376192.504        2601.000          42.000  
G 8  21450466.182     -423170.763        3879.000          38.000  
G 9  23092591.630     -510429.1991       3538.000          31.000  
G16  19838301.885      192025.121        -354.000          38.000  
G18  24336666.269      -54611.122         815.000          36.000  
G26  20912017.028      211116.628       -1248.000          43.000  
G27  19549398.453    -3950456.891        2371.000          47.000  
G28  21995472.325     1303484.576       -1126.000          44.000  
G31  20598208.541       46993.578        -227.000          47.000  
G32  24241043.020       21780.8811      -3200.000          26.000  
> 2024 12 28  5 13 42.9960001  0 11                     
G 3  23640056.299      140551.842       -1358.000          30.000  
G 4  20900521.767     -378793.506        2601.000          42.000  
G 8  21449729.189     -427050.074        3879.000          38.000  
G 9  23091912.782     -513967.436        3538.000          31.000  
G16  19838370.046      192380.470        -355.000          38.000  
G18  24336520.455      -55426.487         815.000          36.000  
G26  20912255.259      212365.381       -1248.000          43.000  
G27  19548947.191    -3952827.750        2370.000          47.000  
G28  21995685.287     1304611.104       -1126.000          44.000  
G31  20598251.504       47221.010        -227.000          47.000  
G32  24241639.573       24982.6551      -3201.000          27.000  
> 2024 12 28  5 13 43.9960001  0 11                     
G 3  23640312.085      141910.155       -1358.000          31.000  
G 4  20900027.263     -381393.884        2600.000          42.000  
G 8  21448991.290     -430928.957        3878.000          38.000  
G 9  23091245.974     -517505.190        3537.000          30.000  
G16  19838438.834      192736.241        -355.000          38.000  
G18  24336353.631      -56241.246         814.000          36.000  
G26  20912492.512      213614.282       -1248.000          43.000  
G27  19548495.544    -3955197.885        2370.000          47.000  
G28  21995899.297     1305738.053       -1126.000          44.000  
G31  20598294.501       47448.856        -227.000          47.000  
G32  24242311.616       28189.0131      -3206.000          27.000  
> 2024 12 28  5 13 44.9960001  0 11                     
G 3  23640567.346      143268.633       -1358.000          31.000  
G 4  20899533.736     -383993.646        2599.000          42.000  
G 8  21448253.843     -434807.426        3878.000          38.000  
G 9  23090570.302     -521042.510        3537.000          31.000  
G16  19838508.321      193092.334        -356.000          38.000  
G18  24336205.409      -57055.547         814.000          37.000  
G26  20912730.149      214863.368       -1249.000          43.000  
G27  19548044.072    -3957567.321        2369.000          47.000  
G28  21996113.620     1306865.378       -1127.000          43.000  
G31  20598337.603       47677.075        -228.000          46.000  
G32  24242953.225       31397.5161      -3208.000          26.000  
> 2024 12 28  5 13 45.9960001  0 11                     
G 3  23640831.298      144627.383       -1358.000          32.000  
G 4  20899039.371     -386592.691        2599.000          42.000  
G 8  21447515.490     -438685.401        3877.000          38.000  
G 9  23089904.646     -524579.337        3536.000          31.000  
G16  19838578.331      193448.961        -356.000          39.000  
G18  24336050.556      -57869.231         813.000          36.000  
G26  20912967.821      216112.673       -1249.000          43.000  
G27  19547592.810    -3959935.941        2368.000          47.000  
G28  21996328.991     1307993.213       -1127.000          44.000  
G31  20598380.461       47905.753        -228.000          46.000  
G32  24243573.964       34608.0561      -3210.000          26.000  
> 2024 12 28  5 13 46.9960001  0 11                     
G 3  23641093.156      145986.278       -1358.000          31.000  
G 4  20898544.972     -389191.147        2598.000          42.000  
G 8  21446777.834     -442563.007        3877.000          38.000  
G 9  23089223.459     -528115.827        3536.000          32.000  
G16  19838646.736      193805.829        -356.000          39.000  
G18  24335897.203      -58682.440         813.000          36.000  
G26  20913206.994      217362.120       -1249.000          43.000  
G27  19547141.756    -3962303.921        2367.000          47.000  
G28  21996543.524     1309121.370       -1128.000          44.000  
G31  20598424.121       48134.767        -229.000          46.000  
G32  24244170.169       37821.9821      -3213.000          27.000  
> 2024 12 28  5 13 47.9960001  0 11                     
G 3  23641350.721      147345.279       -1358.000          33.000  
G 4  20898050.398     -391789.072        2597.000          42.000  
G 8  21446040.493     -446440.276        3877.000          38.000  
G 9  23088546.146     -531651.865        3536.000          32.000  
G16  19838713.536      194163.055        -357.000          39.000  
G18  24335741.094      -59495.1451        812.000          36.000  
G26  20913443.793      218611.682       -1249.000          43.000  
G27  19546691.471    -3964671.188        2367.000          47.000  
G28  21996757.778     1310249.913       -1128.000          44.000  
G31  20598467.502       48364.102        -229.000          46.000  
G32  24244813.139       41038.4401      -3216.000          27.000  
> 2024 12 28  5 13 48.9960001  0 11                     
G 3  23641612.928      148704.330       -1359.000          33.000  
G 4  20897556.138     -394386.490        2597.000          42.000  
G 8  21445302.244     -450317.232        3876.000          38.000  
G 9  23087878.326     -535187.683        3535.000          33.000  
G16  19838781.208      194520.487        -357.000          38.000  
G18  24335588.718      -60307.463         812.000          35.000  
G26  20913681.849      219861.204       -1249.000          43.000  
G27  19546241.290    -3967037.910        2366.000          47.000  
G28  21996973.113     1311378.669       -1128.000          44.000  
G31  20598510.709       48593.667        -229.000          46.000  
G32  24245456.424       44255.3751      -3216.000          26.000  
> 2024 12 28  5 13 49.9960001  0 11                     
G 3  23641865.189      150063.682       -1359.000          33.000  
G 4  20897061.738     -396983.164        2596.000          42.000  
G 8  21444565.496     -454193.672        3876.000          38.000  
G 9  23087201.363     -538722.906        3535.000          32.000  
G16  19838848.914      194878.434        -357.000          38.000  
G18  24335417.671      -61119.166         811.000          35.000  
G26  20913920.428      221111.021       -1249.000          44.000  
G27  19545791.458    -3969403.785        2365.000          47.000  
G28  21997188.030     1312507.960       -1129.000          44.000  
G31  20598554.719       48823.770        -230.000          47.000  
G32  24246044.392       47476.2961      -3220.000          28.000  
> 2024 12 28  5 13 50.9960001  0 11                     
G 3  23642129.699      151423.005       -1359.000          33.000  
G 4  20896567.722     -399579.453        2596.000          42.000  
G 8  21443826.828     -458069.873        3876.000          37.000  
G 9  23086527.540     -542257.861        3534.000          31.000  
G16  19838916.796      195236.507        -358.000          38.000  
G18  24335266.901      -61930.578         811.000          35.000  
G26  20914157.961      222360.798       -1249.000          44.000  
G27  19545341.173    -3971769.160        2365.000          47.000  
G28  21997403.226     1313637.432       -1129.000          44.000  
G31  20598598.484       49054.023        -230.000          46.000  
G32  24246669.389       50699.4761      -3223.000          27.000  
> 2024 12 28  5 13 51.9960001  0 11                     
G 3  23642388.835      152782.509       -1359.000          34.000  
G 4  20896073.462     -402175.145        2595.000          42.000  
G 8  21443088.614     -461945.712        3875.000          38.000  
G 9  23085855.707     -545792.6181       3534.000          31.000  
G16  19838986.387      195594.939        -358.000          39.000  
G18  24335109.361      -62741.432         810.000          35.000  
G26  20914395.423      223610.701       -1249.000          44.000  
G27  19544891.202    -3974133.842        2364.000          47.000  
G28  21997618.981     1314767.283       -1129.000          44.000  
G31  20598642.423       49284.636        -230.000          47.000  
G32  24247269.467       53927.1121      -3227.000          27.000  
> 2024 12 28  5 13 52.9960001  0 10                     
G 3  23642647.936      154142.142       -1359.000          34.000  
G 4  20895579.342     -404770.191        2595.000          42.000  
G 8  21442350.295     -465821.161        3875.000          38.000  
G 9  23085181.395     -549326.8681       3534.000          30.000  
G16  19839054.722      195953.688        -358.000          39.000  
G18  24334951.611      -63551.823         810.000          35.000  
G26  20914632.118      224860.695       -1249.000          44.000  
G27  19544441.405    -3976497.824        2363.000          47.000  
G28  21997834.491     1315897.540       -1130.000          44.000  
G31  20598687.096       49515.623        -230.000          46.000  
> 2024 12 28  5 13 53.9960001  0 10                     
G 3  23642904.070      155502.034       -1359.000          34.000  
G 4  20895085.745     -407364.674        2594.000          42.000  
G 8  21441614.384     -469696.217        3875.000          38.000  
G 9  23084512.424     -552860.6831       3533.000          30.000  
G16  19839122.673      196312.823        -359.000          39.000  
G18  24334807.926      -64361.686         809.000          35.000  
G26  20914870.488      226110.907       -1250.000          44.000  
G27  19543992.201    -3978861.101        2363.000          47.000  
G28  21998050.176     1317028.165       -1130.000          44.000  
G31  20598731.140       49746.952        -231.000          46.000  
> 2024 12 28  5 13 54.9960001  0 10                     
G 3  23643164.113      156861.884       -1359.000          34.000  
G 4  20894592.672     -409958.656        2593.000          42.000  
G 8  21440876.450     -473570.970        3874.000          38.000  
G 9  23083839.334     -556394.277        3533.000          29.000  
G16  19839190.625      196672.165        -359.000          38.000  
G18  24334655.550      -65171.188         809.000          36.000  
G26  20915108.090      227361.120       -1250.000          44.000  
G27  19543543.242    -3981223.810        2362.000          47.000  
G28  21998266.105     1318159.029       -1130.000          45.000  
G31  20598775.394       49978.532        -231.000          47.000  
> 2024 12 28  5 13 55.9960001  0 10                     
G 3  23643421.958      158221.886       -1359.000          35.000  
G 4  20894099.319     -412552.060        2593.000          42.000  
G 8  21440139.771     -477445.375        3874.000          37.000  
G 9  23083164.743     -559927.359        3533.000          29.000  
G16  19839257.633      197031.822        -359.000          39.000  
G18  24334500.278      -65980.216         809.000          35.000  
G26  20915345.134      228611.376       -1250.000          44.000  
G27  19543094.388    -3983585.832        2362.000          47.000  
G28  21998481.859     1319290.253       -1131.000          44.000  
G31  20598819.857       50210.445        -231.000          47.000  
> 2024 12 28  5 13 56.9960001  0 10                     
G 3  23643683.536      159582.126       -1360.000          35.000  
G 4  20893605.687     -415144.793        2592.000          42.000  
G 8  21439403.058     -481319.266        3873.000          38.000  
G 9  23082490.537     -563460.023        3532.000          29.000  
G16  19839324.956      197391.941        -360.000          38.000  
G18  24334348.915      -66788.580         808.000          36.000  
G26  20915581.794      229861.882       -1250.000          43.000  
G27  19542645.219    -3985947.087        2361.000          47.000  
G28  21998697.125     1320421.928       -1131.000          44.000  
G31  20598864.320       50442.791        -232.000          46.000  
> 2024 12 28  5 13 57.9960001  0 10                     
G 3  23643943.614      160942.416       -1360.000          35.000  
G 4  20893111.672     -417737.078        2592.000          42.000  
G 8  21438665.472     -485192.923        3873.000          37.000  
G 9  23081831.477     -566992.4741       3532.000          29.000  
G16  19839394.827      197752.208        -360.000          38.000  
G18  24334192.805      -67596.704         808.000          36.000  
G26  20915818.663      231112.396       -1250.000          43.000  
G27  19542196.469    -3988307.787        2360.000          47.000  
G28  21998912.286     1321553.832       -1131.000          44.000  
G31  20598909.063       50675.349        -232.000          47.000  
> 2024 12 28  5 13 58.9960001  0 10                     
G 3  23644204.181      162302.531       -1360.000          35.000  
G 4  20892618.075     -420329.045        2591.000          42.000  
G 8  21437928.410     -489066.509        3873.000          38.000  
G 9  23081156.502     -570524.8201       3532.000          29.000  
G16  19839463.476      198112.585        -360.000          39.000  
G18  24334039.837      -68404.601         807.000          35.000  
G26  20916057.487      232362.738       -1250.000          43.000  
G27  19541747.126    -3990668.091        2360.000          47.000  
G28  21999127.657     1322685.827       -1131.000          44.000  
G31  20598953.596       50907.968        -232.000          47.000  
> 2024 12 28  5 13 59.9960001  0 10                     
G 3  23644461.048      163662.859       -1360.000          35.000  
G 4  20892124.199     -422920.412        2591.000          42.000  
G 8  21437190.440     -492939.676        3873.000          37.000  
G 9  23080486.414     -574056.6831       3531.000          30.000  
G16  19839532.125      198473.262        -360.000          38.000  
G18  24333886.519      -69211.935         807.000          35.000  
G26  20916296.101      233613.175       -1250.000          43.000  
G27  19541297.678    -3993027.667        2359.000          47.000  
G28  21999342.225     1323818.219       -1132.000          43.000  
G31  20598997.884       51140.957        -232.000          46.000  
> 2024 12 28  5 14  0.9960001  0 10                     
G 3  23644717.113      165023.271       -1360.000          35.000  
G 4  20891631.091     -425511.224        2590.000          42.000  
G 8  21436451.877     -496812.554        3872.000          38.000  
G 9  23079808.229     -577588.271        3531.000          29.000  
G16  19839601.089      198834.257        -360.000          38.000  
G18  24333732.678      -70018.803         806.000          35.000  
G26  20916537.088      234863.699       -1250.000          43.000  
G27  19540848.580    -3995386.636        2358.000          47.000  
G28  21999557.107     1324950.933       -1132.000          44.000  
G31  20599041.580       51374.250        -233.000          46.000  
> 2024 12 28  5 14  1.9960001  0 10                     
G 3  23644975.725      166383.659       -1360.000          35.000  
G 4  20891137.738     -428101.678        2590.000          41.000  
G 8  21435714.850     -500685.205        3872.000          37.000  
G 9  23079131.475     -581119.576        3531.000          28.000  
G16  19839669.110      199195.362        -361.000          38.000  
G18  24333574.125      -70825.437         806.000          35.000  
G26  20916775.389      236114.190       -1250.000          43.000  
G27  19540399.202    -3997745.108        2358.000          47.000  
G28  21999772.058     1326083.762       -1132.000          43.000  
G31  20599085.380       51607.686        -233.000          46.000  
> 2024 12 28  5 14  2.9960001  0 11                     
G 3  23645229.067      167744.199       -1360.000          34.000  
G 4  20890644.874     -430691.430        2589.000          42.000  
G 8  21434977.683     -504557.383        3872.000          37.000  
G 9  23078451.719     -584650.5101       3530.000          29.000  
G16  19839737.375      199556.865        -361.000          38.000  
G18  24333421.960      -71631.488         806.000          35.000  
G26  20917011.769      237364.869       -1250.000          43.000  
G27  19539950.277    -4000102.815        2357.000          47.000  
G28  21999987.848     1327217.072       -1133.000          43.000  
G31  20599129.250       51841.557        -233.000          46.000  
G32  24254248.681        9062.5361      -3257.000          27.000  
> 2024 12 28  5 14  3.9960001  0 11                     
G 3  23645486.353      169105.052       -1360.000          33.000  
G 4  20890152.464     -433280.507        2589.000          41.000  
G 8  21434240.725     -508429.174        3871.000          37.000  
G 9  23077790.425     -588180.9431       3530.000          27.000  
G16  19839806.059      199918.807        -361.000          38.000  
G18  24333269.619      -72436.996         805.000          35.000  
G26  20917249.895      238615.734       -1250.000          43.000  
G27  19539501.876    -4002459.756        2356.000          47.000  
G28  22000203.463     1328350.843       -1133.000          43.000  
G31  20599173.713       52075.875        -234.000          46.000  
G32  24254880.449       12321.2621      -3258.000          27.000  
> 2024 12 28  5 14  4.9960001  0 11                     
G 3  23645753.516      170465.897       -1360.000          34.000  
G 4  20889660.787     -435869.028        2588.000          42.000  
G 8  21433505.233     -512300.545        3871.000          38.000  
G 9  23077124.595     -591710.9621       3530.000          28.000  
G16  19839875.022      200281.160        -362.000          38.000  
G18  24333120.385      -73241.824         804.000          35.000  
G26  20917488.195      239866.871       -1251.000          43.000  
G27  19539053.476    -4004816.000        2356.000          47.000  
G28  22000419.043     1329485.094       -1134.000          43.000  
G31  20599218.420       52310.621        -234.000          47.000  
G32  24255476.479       15583.4541      -3262.000          26.000  
> 2024 12 28  5 14  5.9960001  0 11                     
G 3  23646008.568      171825.376       -1359.000          33.000  
G 4  20889168.411     -438457.319        2588.000          43.000  
G 8  21432770.265     -516172.489        3871.000          38.000  
G 9  23076447.631     -595240.8171       3529.000          29.000  
G16  19839944.369      200644.227        -363.000          41.000  
G18  24332969.371      -74043.991         802.000          37.000  
G26  20917725.832      241119.537       -1252.000          43.000  
G27  19538605.249    -4007171.696        2355.000          46.000  
G28  22000635.600     1330621.404       -1136.000          44.000  
G31  20599263.128       52547.242        -236.000          47.000  
G32  24256110.166       18848.6211      -3265.000          27.000  
> 2024 12 28  5 14  6.9960001  0 11                     
G 3  23646272.520      173181.7771      -1356.000          29.000  
G 4  20888675.303     -441046.199        2588.000          43.000  
G 8  21432020.953     -520046.5321       3874.000          36.000  
G 9  23075772.831     -598771.0641       3530.000          28.000  
G16  19840013.837      201008.116        -363.000          40.000  
G18  24332818.077      -74841.4161        797.000          38.000  
G26  20917964.935      242375.007       -1255.000          43.000  
G27  19538156.471    -4009527.277        2355.000          46.000  
G28  22000852.436     1331761.251       -1139.000          43.000  
G31  20599308.393       52787.051        -239.000          46.000  
G32  24256721.831       22116.8541      -3268.000          27.000  
> 2024 12 28  5 14  7.9960001  0 11                     
G 3  23646517.138      174532.7831      -1351.000          30.000  
G 4  20888181.462     -443637.258        2591.000          42.000  
G 8  21431291.603     -523924.9881       3878.000          38.000  
G 9  23075091.854     -602298.2381       3527.000          26.000  
G16  19840083.165      201372.503        -364.000          39.000  
G18  24332668.703      -75631.2101        789.000          37.000  
G26  20918204.108      243634.616       -1259.000          42.000  
G27  19537708.062    -4011883.659        2356.000          46.000  
G28  22001070.250     1332906.771       -1145.000          44.000  
G31  20599355.649       53031.675        -244.000          46.000  
G32  24257361.451       25386.3121      -3269.000          27.000  
> 2024 12 28  5 14  8.9960001  0 11                     
G 3  23646750.517      175883.2901      -1350.000          29.000  
G 4  20887687.900     -446230.662        2593.000          40.000  
G 8  21430554.716     -527805.2771       3880.000          40.000  
G 9  23074445.428     -605831.3271       3533.000          26.000  
G16  19840152.366      201736.198        -363.000          40.000  
G18  24332519.714      -76416.3521        785.000          38.000  
G26  20918445.134      244895.985       -1261.000          42.000  
G27  19537259.688    -4014239.856        2356.000          46.000  
G28  22001288.378     1334056.308       -1149.000          41.000  
G31  20599402.764       53279.374        -247.000          46.000  
G32  24257953.712       28655.2831      -3268.000          26.000  
> 2024 12 28  5 14  9.9960001  0 11                     
G 3  23647035.898      177234.7221      -1351.000          25.000  
G 4  20887192.558     -448828.1131       2597.000          39.000  
G 8  21429819.852     -531683.1951       3877.000          40.000  
G 9  23073767.103     -609368.1311       3536.000          26.000  
G16  19840221.013      202096.943        -360.000          42.000  
G18  24332366.710      -77199.1941        782.000          36.000  
G26  20918680.150      246155.4501      -1259.000          39.000  
G27  19536811.715    -4016593.940        2354.000          46.000  
G28  22001507.797     1335209.566       -1153.000          41.000  
G31  20599449.566       53528.188        -248.000          44.000  
G32  24258615.284       31924.4791      -3269.000          26.000  
> 2024 12 28  5 14 10.9960001  0 11                     
G 3  23647286.867      178583.0801      -1348.000          34.000  
G 4  20886698.996     -451429.3051       2601.000          40.000  
G 8  21429083.034     -535553.5641       3870.000          43.000  
G 9  23073069.653     -612910.9861       3542.000          25.000  
G16  19840288.715      202453.318        -356.000          42.000  
G18  24332219.081      -77984.3991        785.000          37.000  
G26  20918919.811      247409.1251      -1253.000          40.000  
G27  19536364.632    -4018943.343        2349.000          45.000  
G28  22001726.518     1336364.808       -1155.000          41.000  
G31  20599496.926       53775.659        -247.000          43.000  
G32  24259225.588       35194.0441      -3269.000          27.000  
> 2024 12 28  5 14 11.9960001  0 11                     
G 3  23647529.355      179937.9711      -1354.000          36.000  
G 4  20886203.445     -454032.3001       2602.000          40.000  
G 8  21428348.869     -539413.5541       3859.000          39.000  
G 9  23072417.887     -616452.2731       3541.000          21.000  
G16  19840353.298      202805.2761       -351.000          37.000  
G18  24332059.377      -78775.1931        790.000          36.000  
G26  20919152.108      248655.5721      -1246.000          36.000  
G27  19535918.688    -4021286.764        2343.000          45.000  
G28  22001945.762     1337519.380       -1154.000          42.000  
G31  20599538.701       54019.990        -244.000          39.000  
G32  24259852.470       38465.4521      -3271.000          26.000  
> 2024 12 28  5 14 12.9960001  0 11                     
G 3  23647798.926      181298.4671      -1359.000          27.000  
G 4  20885707.230     -456638.0551       2605.000          40.000  
G 8  21427616.029     -543265.4611       3851.000          40.000  
G 9  23071720.751     -619988.1251       3536.000          23.000  
G16  19840417.794      203154.4421       -348.000          40.000  
G18  24331923.509      -79570.5571        795.000          36.000  
G26  20919395.713      249895.6981      -1239.000          39.000  
G27  19535473.596    -4023625.719        2338.000          46.000  
G28  22002165.356     1338673.759       -1154.000          41.000  
G31  20599580.198       54261.0181       -241.000          36.000  
G32  24260469.126       41739.5311      -3274.000          26.000  
> 2024 12 28  5 14 13.9960001  0 11                     
G 3  23648069.230      182660.0491      -1361.000          27.000  
G 4  20885210.981     -459247.4311       2609.000          40.000  
G 8  21426887.343     -547111.4571       3846.000          41.000  
G 9  23071077.815     -623509.6481       3521.000          21.000  
G16  19840484.837      203498.3221       -343.000          42.000  
G18  24331763.072      -80366.9621        796.000          35.000  
G26  20919631.815      251130.6811      -1234.000          42.000  
G27  19535029.232    -4025960.858        2335.000          45.000  
G28  22002381.424     1339830.3211      -1156.000          38.000  
G31  20599630.839       54501.3531       -240.000          41.000  
G32  24261065.295       45017.8491      -3278.000          27.000  
> 2024 12 28  5 14 14.9960001  0 11                     
G 3  23648332.170      184027.1311      -1367.000          26.000  
G 4  20884712.742     -461860.5301       2613.000          40.000  
G 8  21426157.680     -550953.5211       3842.000          39.000  
G 9  23070377.538     -627037.1981       3527.000          21.000  
G16  19840551.532      203838.6301       -340.000          40.000  
G18  24331615.688      -81162.5971        795.000          34.000  
G26  20919852.700      252362.9861      -1232.000          38.000  
G27  19534585.465    -4028292.862        2332.000          46.000  
G28  22002604.264     1340990.0891      -1159.000          41.000  
G31  20599677.605       54742.5921       -241.000          39.000  
G32  24261692.700       48299.4291      -3281.000          27.000  
> 2024 12 28  5 14 15.9960001  0 11                     
G 3  23648575.077      185392.3821      -1365.000          28.000  
G 4  20884214.748     -464477.5891       2617.000          40.000  
G 8  21425422.362     -554791.8551       3838.000          38.000  
G 9  23069711.428     -630581.7651       3544.000          22.000  
G16  19840616.412      204175.5371       -336.000          42.000  
G18  24331462.893      -81958.1211        795.000          34.000  
G26  20920092.640      253593.0621      -1230.000          40.000  
G27  19534142.180    -4030622.317        2329.000          45.000  
G28  22002821.658     1342152.8961      -1162.000          39.000  
G31  20599716.275       54984.6681       -242.000          38.000  
G32  24262354.133       51583.1381      -3283.000          28.000  
> 2024 12 28  5 14 16.9960001  0 11                     
G 3  23648833.794      186756.6041      -1364.000          30.000  
G 4  20883716.021     -467097.0811       2619.000          40.000  
G 8  21424699.086     -558627.9541       3836.000          37.000  
G 9  23069019.004     -634149.8141       3568.000          24.000  
G16  19840680.699      204510.4311       -334.000          42.000  
G18  24331311.635      -82751.9201        793.000          35.000  
G26  20920329.893      254820.1201      -1227.000          41.000  
G27  19533699.330    -4032949.497        2327.000          46.000  
G28  22003046.347     1343318.4641      -1165.000          37.000  
G31  20599767.858       55227.1321       -242.000          39.000  
G32  24262990.333       54867.8381      -3284.000          27.000  
> 2024 12 28  5 14 17.9960001  0 11                     
G 3  23649088.706      188120.2211      -1363.000          30.000  
G 4  20883217.014     -469717.8951       2620.000          40.000  
G 8  21423971.377     -562462.2221       3834.000          41.000  
G 9  23068344.622     -637717.1541       3567.000          25.000  
G16  19840744.881      204844.1231       -333.000          41.000  
G18  24331168.753      -83544.4971        792.000          36.000  
G26  20920565.017      256046.5851      -1226.000          39.000  
G27  19533256.841    -4035274.771        2325.000          46.000  
G28  22003269.326     1344485.9541      -1167.000          40.000  
G31  20599814.520       55470.5791       -243.000          40.000  
G32  24263609.257       58153.0331      -3285.000          26.000  
> 2024 12 28  5 14 18.9960001  0 11                     
G 3  23649354.508      189483.3501      -1363.000          32.000  
G 4  20882718.008     -472339.7351       2621.000          40.000  
G 8  21423239.445     -566294.3221       3832.000          38.000  
G 9  23067669.823     -641292.7431       3575.000          27.000  
G16  19840807.492      205176.9961       -333.000          41.000  
G18  24331017.005      -84335.6691        791.000          37.000  
G26  20920797.943      257272.4731      -1225.000          38.000  
G27  19532814.681    -4037598.309        2323.000          46.000  
G28  22003492.375     1345655.3791      -1169.000          39.000  
G31  20599853.783       55714.3111       -243.000          39.000  
G32  24264235.790       61437.8171      -3284.000          26.000  
> 2024 12 28  5 14 19.9960001  0 11                     
G 3  23649631.094      190850.0461      -1366.000          29.000  
G 4  20882218.862     -474962.6441       2622.000          40.000  
G 8  21422509.432     -570124.8891       3830.000          38.000  
G 9  23067004.725     -644864.2541       3571.000          25.000  
G16  19840870.627      205508.7051       -331.000          42.000  
G18  24330860.547      -85126.2951        790.000          37.000  
G26  20921032.090      258497.1361      -1224.000          40.000  
G27  19532372.818    -4039920.313        2322.000          45.000  
G28  22003715.947     1346828.0111      -1172.000          39.000  
G31  20599907.634       55959.1471       -244.000          39.000  
G32  24264835.833       64720.5441      -3282.000          26.000  
> 2024 12 28  5 14 20.9960001  0 11                     
G 3  23649879.201      192214.9221      -1364.000          32.000  
G 4  20881719.227     -477586.4821       2623.000          40.000  
G 8  21421778.722     -573954.2411       3829.000          39.000  
G 9  23066295.199     -648429.3021       3565.000          23.000  
G16  19840934.076      205839.5721       -330.000          43.000  
G18  24330710.440      -85916.6281        790.000          37.000  
G26  20921263.445      259721.9281      -1224.000          40.000  
G27  19531931.163    -4042241.193        2320.000          46.000  
G28  22003935.157     1348000.5511      -1172.000          36.000  
G31  20599955.482       56204.1041       -244.000          40.000  
G32  24265451.582       68000.3751      -3279.000          26.000  
> 2024 12 28  5 14 21.9960001  0 11                     
G 3  23650132.055      193578.4121      -1363.000          34.000  
G 4  20881220.605     -480210.0471       2623.000          39.000  
G 8  21421049.757     -577782.5111       3828.000          42.000  
G 9  23065609.440     -652002.1041       3572.000          24.000  
G16  19840996.303      206170.2381       -330.000          43.000  
G18  24330563.963      -86704.6421        788.000          35.000  
G26  20921496.929      260945.1271      -1223.000          41.000  
G27  19531489.720    -4044560.969        2319.000          46.000  
G28  22004158.799     1349173.7361      -1173.000          40.000  
G31  20600003.401       56449.3581       -245.000          41.000  
G32  24266051.485       71277.3371      -3276.000          26.000  
> 2024 12 28  5 14 22.9960001  0 11                     
G 3  23650379.604      194945.9051      -1367.000          32.000  
G 4  20880721.284     -482832.8821       2622.000          40.000  
G 8  21420321.733     -581610.2721       3827.000          41.000  
G 9  23064933.384     -655576.6131       3574.000          26.000  
G16  19841059.334      206501.4421       -331.000          42.000  
G18  24330418.533      -87491.3141        786.000          23.000  
G26  20921732.088      262168.5321      -1223.000          40.000  
G27  19531048.436    -4046879.929        2318.000          46.000  
G28  22004379.893     1350347.4891      -1173.000          39.000  
G31  20600050.900       56694.3701       -245.000          40.000  
G32  24266658.125       74550.6811      -3273.000          27.000  
> 2024 12 28  5 14 24.9960001  0 10                     
G 4  20879723.411     -488075.980        2620.000          40.000  
G 8  21418868.026     -589263.9621       3827.000          37.000  
G 9  23063561.204     -662727.0401       3576.000          26.000  
G16  19841185.324      207166.4311       -332.000          41.000  
G18  24330116.679      -89057.1641        782.000          20.000  
G26  20922196.962      264618.7751      -1225.000          40.000  
G27  19530166.184    -4051516.312        2317.000          46.000  
G28  22004834.646     1352695.6941      -1174.000          37.000  
G31  20600138.884       57188.0021       -247.000          38.000  
G32  24267914.680       81086.3981      -3266.000          27.000  
> 2024 12 28  5 14 26.9960001  0 10                     
G 4  20878727.806     -493307.805        2613.000          40.000  
G 8  21417426.079     -596914.5121       3828.000          20.000  
G 9  23062200.889     -669861.6221       3563.000          26.000  
G16  19841314.281      207839.5171       -338.000          42.000  
G18  24329816.186      -90624.8681        783.000          26.000  
G26  20922657.962      267073.8701      -1228.000          40.000  
G27  19529283.378    -4056154.798        2319.000          46.000  
G28  22005280.010     1355039.5801      -1170.000          39.000  
G31  20600238.316       57682.0041       -247.000          38.000  
G32  24269153.157       87596.8121      -3249.000          26.000  
> 2024 12 28  5 14 27.9960001  0 11                     
G 3  23651679.889        3807.4381      -1364.000          32.000  
G 4  20878231.383     -495916.209        2608.000          40.000  
G 8  21416678.721     -600751.5101       3837.000          26.000  
G 9  23061513.141     -673423.0631       3561.000          27.000  
G16  19841379.615      208182.1001       -342.000          43.000  
G18  24329693.057      -91402.3541        777.000          22.000  
G26  20922891.446      268306.5401      -1232.000          38.000  
G27  19528841.608    -4058476.755        2321.000          46.000  
G28  22005487.668     1356207.0361      -1167.000          38.000  
G31  20600282.709       57928.9861       -246.000          39.000  
G32  24269729.293       90839.2291      -3242.000          27.000  
> 2024 12 28  5 14 28.9960001  0 11                     
G 3  23651944.016        5172.0871      -1364.000          34.000  
G 4  20877736.529     -498517.118        2600.000          40.000  
G 8  21415948.918     -604592.0641       3840.000          36.000  
G 9  23060847.101     -676980.7191       3557.000          28.000  
G16  19841445.786      208530.2651       -348.000          43.000  
G18  24329518.136      -92184.1921        781.000          22.000  
G26  20923136.098      269542.9921      -1236.000          40.000  
G27  19528399.210    -4060801.942        2325.000          46.000  
G28  22005720.558     1357370.0631      -1163.000          36.000  
G31  20600334.745       58175.1071       -246.000          38.000  
G32  24270302.184       94082.3451      -3243.000          28.000  
> 2024 12 28  5 14 29.9960001  0 11                     
G 3  23652193.519        6541.1101      -1369.000          38.000  
G 4  20877243.491     -501107.688        2590.000          40.000  
G 8  21415215.660     -608435.6611       3843.000          41.000  
G 9  23060172.232     -680525.1101       3544.000          27.000  
G16  19841513.144      208885.7891       -355.000          43.000  
G18  24329360.875      -92974.3961        790.000          30.000  
G26  20923371.466      270783.0731      -1240.000          43.000  
G27  19527956.045    -4063129.483        2327.000          46.000  
G28  22005937.185     1358524.8411      -1154.000          35.000  
G31  20600380.709       58418.7241       -243.000          40.000  
G32  24270882.927       97336.3541      -3254.000          29.000  
> 2024 12 28  5 14 30.9960001  0 10                     
G 3  23652465.254        7916.2311      -1375.000          34.000  
G 4  20876752.162     -503691.531        2583.000          41.000  
G 8  21414484.566     -612279.339        3843.000          40.000  
G 9  23059485.670     -684062.5501       3536.000          32.000  
G16  19841581.130      209244.423        -358.000          42.000  
G18  24329216.003      -93774.2831        799.000          35.000  
G26  20923608.789      272022.3671      -1239.000          42.000  
G27  19527512.984    -4065457.919        2328.000          45.000  
G28  22006158.070     1359672.3291      -1147.000          39.000  
G31  20600425.940       58658.890        -239.000          43.000  
> 2024 12 28  5 14 31.9960001  0 10                     
G 3  23652732.451        9297.2711      -1381.000          36.000  
G 4  20876261.602     -506267.511        2575.000          43.000  
G 8  21413752.599     -616122.042        3842.000          41.000  
G 9  23058814.989     -687590.1761       3527.000          38.000  
G16  19841650.442      209607.330        -362.000          42.000  
G18  24329056.508      -94579.6871        805.000          32.000  
G26  20923843.983      273261.6281      -1239.000          41.000  
G27  19527069.643    -4067786.899        2328.000          45.000  
G28  22006375.744     1360812.4411      -1140.000          42.000  
G31  20600470.613       58894.683        -235.000          46.000  
> 2024 12 28  5 14 32.9960001  0 10                     
G 3  23652995.182       10681.6521      -1384.000          34.000  
G 4  20875772.577     -508837.111        2569.000          46.000  
G 8  21413019.829     -619965.532        3843.000          41.000  
G 9  23058142.737     -691109.9671       3519.000          34.000  
G16  19841720.173      209974.384        -367.000          44.000  
G18  24328905.390      -95387.1491        807.000          26.000  
G26  20924080.050      274502.4441      -1240.000          42.000  
G27  19526625.675    -4070116.659        2329.000          43.000  
G28  22006593.279     1361947.9001      -1135.000          41.000  
G31  20600515.285       59128.822        -234.000          44.000  
> 2024 12 28  5 14 33.9960001  0 11                     
G 3  23653264.613       12069.3261      -1387.000          34.000  
G 4  20875284.355     -511402.874        2565.000          44.000  
G 8  21412287.409     -623808.075        3842.000          41.000  
G 9  23057479.593     -694625.9721       3516.000          31.000  
G16  19841789.904      210343.181        -368.000          46.000  
G18  24328747.291      -96199.0431        811.000          33.000  
G26  20924315.767      275742.5861      -1240.000          40.000  
G27  19526182.614    -4072446.268        2329.000          42.000  
G28  22006808.859     1363079.5631      -1131.000          41.000  
G31  20600559.469       59360.716        -231.000          42.000  
G32  24273351.330        9098.0971      -3258.000          29.000  
> 2024 12 28  5 14 34.9960001  0 11                     
G 3  23653529.124       13463.2371      -1393.000          34.000  
G 4  20874796.970     -513965.212        2562.000          45.000  
G 8  21411557.187     -627647.039        3838.000          43.000  
G 9  23056811.913     -698136.8241       3510.000          29.000  
G16  19841859.984      210712.327        -369.000          46.000  
G18  24328589.750      -97016.8601        817.000          33.000  
G26  20924542.376      276978.6581      -1236.000          38.000  
G27  19525740.321    -4074774.765        2328.000          43.000  
G28  22007018.401     1364206.3991      -1126.000          36.000  
G31  20600602.641       59588.529        -227.000          42.000  
G32  24273958.737       12340.6721      -3242.000          32.000  
> 2024 12 28  5 14 35.9960001  0 11                     
G 3  23653797.997       14865.3371      -1402.000          35.000  
G 4  20874310.353     -516522.6831       2557.000          43.000  
G 8  21410826.721     -631481.495        3834.000          42.000  
G 9  23056155.610     -701642.2411       3505.000          25.000  
G16  19841917.640      211083.4751       -371.000          44.000  
G18  24328434.129      -97839.7411        822.000          31.000  
G26  20924781.374      278211.3391      -1232.000          40.000  
G27  19525297.644    -4077101.601        2326.000          43.000  
G28  22007238.972     1365326.4981      -1120.000          37.000  
G31  20600645.778       59811.532        -222.000          42.000  
G32  24274568.587       15576.2221      -3235.000          31.000  
> 2024 12 28  5 14 36.9960001  0 11                     
G 3  23654065.543       16274.2301      -1408.000          36.000  
G 4  20873824.435     -519076.4921       2553.000          43.000  
G 8  21410097.023     -635311.6451       3830.000          41.000  
G 9  23055480.671     -705144.0101       3502.000          26.000  
G16  19841991.838      211454.181        -370.000          44.000  
G18  24328277.426      -98669.6381        830.000          30.000  
G26  20925015.905      279440.8721      -1229.000          40.000  
G27  19524854.722    -4079426.728        2325.000          44.000  
G28  22007450.852     1366442.056       -1115.000          39.000  
G31  20600687.554       60030.483        -218.000          42.000  
G32  24275194.143       18811.8041      -3235.000          26.000  
> 2024 12 28  5 14 37.9960001  0 11                     
G 3  23654333.928       17688.9361      -1414.000          35.000  
G 4  20873339.633     -521627.3351       2550.000          41.000  
G 8  21409366.836     -639137.6521       3826.000          42.000  
G 9  23054809.047     -708645.6131       3501.000          27.000  
G16  19842064.885      211825.026        -370.000          44.000  
G18  24328122.468      -99506.4801        836.000          29.000  
G26  20925247.679      280667.3661      -1226.000          39.000  
G27  19524412.359    -4081749.927        2323.000          44.000  
G28  22007661.860     1367553.284       -1111.000          39.000  
G31  20600728.213       60246.314        -215.000          42.000  
G32  24275825.108       22048.4821      -3236.000          24.000  
> 2024 12 28  5 14 38.9960001  0 11                     
G 3  23654601.160       19108.4931      -1419.000          34.000  
G 4  20872854.063     -524176.0291       2548.000          41.000  
G 8  21408640.279     -642960.2741       3822.000          43.000  
G 9  23054136.167     -712146.0501       3500.000          29.000  
G16  19842137.582      212195.889        -370.000          44.000  
G18  24327970.163     -100346.6721        840.000          27.000  
G26  20925488.492      281891.1811      -1223.000          40.000  
G27  19523970.240    -4084071.677        2321.000          44.000  
G28  22007871.751     1368661.3621      -1108.000          37.000  
G31  20600768.663       60459.280        -212.000          42.000  
G32  24276446.964       25284.1331      -3235.000          24.000  
> 2024 12 28  5 14 39.9960001  0 11                     
G 3  23654873.349       20532.3151      -1423.000          35.000  
G 4  20872370.308     -526722.5621       2546.000          42.000  
G 8  21407911.069     -646779.6001       3819.000          41.000  
G 9  23053483.877     -715644.8481       3498.000          29.000  
G16  19842209.477      212566.850        -370.000          44.000  
G18  24327814.192     -101191.0451        844.000          26.000  
G26  20925719.986      283112.5031      -1221.000          40.000  
G27  19523528.785    -4086391.795        2320.000          44.000  
G28  22008083.108     1369766.8261      -1105.000          38.000  
G31  20600808.693       60670.111        -210.000          42.000  
G32  24277031.232       28523.4101      -3239.000          23.000  
> 2024 12 28  5 14 40.9960001  0 11                     
G 3  23655149.970       21959.3611      -1427.000          35.000  
G 4  20871885.646     -529267.6441       2545.000          42.000  
G 8  21407187.688     -650596.5461       3816.000          41.000  
G 9  23052801.260     -719141.5661       3496.000          27.000  
G16  19842281.023      212937.776        -370.000          44.000  
G18  24327631.942     -102038.4861        847.000          24.000  
G26  20925949.422      284331.8491      -1219.000          39.000  
G27  19523087.364    -4088710.463        2318.000          43.000  
G28  22008291.464     1370874.0521      -1107.000          35.000  
G31  20600849.387       60879.195        -209.000          42.000  
G32  24277666.176       31761.7371      -3238.000          28.000  
> 2024 12 28  5 14 41.9960001  0 11                     
G 3  23655419.715       23388.5471      -1429.000          35.000  
G 4  20871401.751     -531811.6531       2544.000          42.000  
G 8  21406454.115     -654412.2131       3815.000          40.000  
G 9  23052145.899     -722637.7401       3496.000          33.000  
G16  19842352.395      213308.493        -370.000          44.000  
G18  24327461.314     -102884.8111        846.000          25.000  
G26  20926181.300      285550.0341      -1218.000          41.000  
G27  19522646.188    -4091028.357        2317.000          43.000  
G28  22008495.806     1371976.9401      -1102.000          33.000  
G31  20600889.313       61087.070        -207.000          42.000  
G32  24278286.252       34996.3511      -3234.000          39.000  
> 2024 12 28  5 14 42.9960001  0 11                     
G 3  23655694.696       24819.085       -1431.000          37.000  
G 4  20870917.508     -534354.587        2542.000          42.000  
G 8  21405725.918     -658224.9271       3813.000          38.000  
G 9  23051482.896     -726133.4871       3495.000          33.000  
G16  19842423.487      213679.542        -371.000          45.000  
G18  24327315.430     -103731.0911        846.000          26.000  
G26  20926412.760      286767.1341      -1217.000          39.000  
G27  19522206.023    -4093344.621        2316.000          42.000  
G28  22008706.011     1373079.7621      -1102.000          35.000  
G31  20600928.716       61294.617        -207.000          41.000  
G32  24278897.149       38231.2841      -3234.000          40.000  
> 2024 12 28  5 14 43.9960001  0 11                     
G 3  23655957.671       26251.3931      -1432.000          35.000  
G 4  20870433.543     -536896.7391       2542.000          42.000  
G 8  21405000.058     -662036.9311       3812.000          40.000  
G 9  23050817.065     -729629.1071       3495.000          33.000  
G16  19842494.335      214050.3891       -370.000          44.000  
G18  24327150.665     -104579.9331        848.000          29.000  
G26  20926644.289      287984.0781      -1216.000          40.000  
G27  19521765.650    -4095660.2671       2315.000          42.000  
G28  22008912.482     1374181.0121      -1101.000          33.000  
G31  20600967.804       61501.150        -206.000          42.000  
G32  24279512.374       41467.0471      -3235.000          34.000  
> 2024 12 28  5 14 44.9960001  0 11                     
G 3  23656233.209       27684.2541      -1432.000          35.000  
G 4  20869950.102     -539438.1671       2541.000          42.000  
G 8  21404279.853     -665848.1911       3811.000          39.000  
G 9  23050164.881     -733123.7841       3494.000          32.000  
G16  19842565.218      214421.5711       -371.000          44.000  
G18  24326984.330     -105431.3721        851.000          29.000  
G26  20926875.644      289200.0271      -1215.000          40.000  
G27  19521325.101    -4097975.3321       2315.000          42.000  
G28  22009131.587     1375282.5931      -1101.000          38.000  
G31  20601007.172       61707.6431       -206.000          41.000  
G32  24280125.505       44701.8241      -3234.000          31.000  
> 2024 12 28  5 14 45.9960001  0 11                     
G 3  23656506.445       29116.0471      -1431.000          35.000  
G 4  20869466.941     -541979.4051       2541.000          42.000  
G 8  21403557.205     -669660.1391       3811.000          42.000  
G 9  23049483.310     -736618.7721       3494.000          29.000  
G16  19842635.821      214793.0591       -371.000          44.000  
G18  24326828.849     -106281.0291        849.000          32.000  
G26  20927106.336      290416.8471      -1216.000          39.000  
G27  19520884.832    -4100289.8091       2314.000          43.000  
G28  22009341.339     1376384.7901      -1102.000          36.000  
G31  20601047.168       61915.3641       -207.000          41.000  
G32  24280736.995       47936.8931      -3235.000          29.000  
> 2024 12 28  5 14 46.9960001  0 11                     
G 3  23656781.460       30543.7991      -1427.000          36.000  
G 4  20868983.326     -544521.8371       2542.000          42.000  
G 8  21402831.694     -673474.5711       3814.000          40.000  
G 9  23048822.226     -740112.4651       3493.000          28.000  
G16  19842707.123      215164.9361       -371.000          44.000  
G18  24326668.586     -107125.8631        844.000          33.000  
G26  20927337.761      291636.0281      -1219.000          40.000  
G27  19520443.726    -4102604.5491       2314.000          44.000  
G28  22009552.417     1377490.7021      -1105.000          38.000  
G31  20601087.129       62126.1971       -210.000          41.000  
G32  24281354.035       51172.1911      -3235.000          30.000  
> 2024 12 28  5 14 47.9960001  0 11                     
G 3  23657042.969       31964.5341      -1420.000          36.000  
G 4  20868495.732     -547065.8111       2543.000          42.000  
G 8  21402105.870     -677293.1941       3818.000          42.000  
G 9  23048140.202     -743608.9271       3496.000          26.000  
G16  19842777.656      215538.1491       -373.000          44.000  
G18  24326503.402     -107962.4331        836.000          32.000  
G26  20927570.093      292860.2421      -1224.000          39.000  
G27  19520003.492    -4104919.7291       2315.000          43.000  
G28  22009764.088     1378602.7051      -1111.000          38.000  
G31  20601128.172       62342.5501       -216.000          41.000  
G32  24281965.386       54407.8761      -3235.000          35.000  
> 2024 12 28  5 14 48.9960001  0 11                     
G 3  23657313.622       33373.943       -1409.000          37.000  
G 4  20868012.221     -549612.8621       2547.000          41.000  
G 8  21401378.929     -681119.975        3826.000          42.000  
G 9  23047493.706     -747104.7321       3496.000          23.000  
G16  19842848.086      215913.1951       -375.000          43.000  
G18  24326353.086     -108786.8551        824.000          31.000  
G26  20927805.392      294092.0031      -1231.000          39.000  
G27  19519562.560    -4107236.891        2317.000          44.000  
G28  22009977.190     1379723.130       -1120.000          39.000  
G31  20601170.925       62566.564        -224.000          41.000  
G32  24282582.286       57642.883       -3235.000          41.000  
> 2024 12 28  5 14 49.9960001  0 11                     
G 3  23657582.740       34771.6681      -1397.000          37.000  
G 4  20867528.117     -552161.0501       2548.000          42.000  
G 8  21400649.056     -684955.831        3835.000          43.000  
G 9  23046847.560     -750599.6261       3494.000          21.000  
G16  19842920.399      216290.7921       -377.000          45.000  
G18  24326197.465     -109599.1451        812.000          29.000  
G26  20928041.842      295332.4571      -1240.000          41.000  
G27  19519120.650    -4109557.114        2320.000          43.000  
G28  22010193.747     1380851.0131      -1127.000          36.000  
G31  20601214.900       62798.230        -231.000          42.000  
G32  24283198.034       60874.944       -3232.000          38.000  
> 2024 12 28  5 14 50.9960001  0 10                     
G 3  23657847.075       36163.8941      -1392.000          35.000  
G 4  20867044.292     -554707.0361       2545.000          43.000  
G 8  21399915.623     -688797.7431       3841.000          41.000  
G 9  23046165.605     -754094.2421       3494.000          25.000  
G16  19842993.271      216672.3171       -381.000          43.000  
G26  20928278.991      296579.4031      -1246.000          43.000  
G27  19518678.741    -4111879.557        2322.000          43.000  
G28  22010410.165     1381981.0561      -1130.000          37.000  
G31  20601259.153       63033.979        -235.000          43.000  
G32  24283812.491       64102.0091      -3227.000          38.000  
> 2024 12 28  5 14 51.9960001  0 11                     
G 3  23658110.923       37551.3031      -1387.000          36.000  
G 4  20866560.398     -557250.8721       2543.000          43.000  
G 8  21399186.239     -692645.0951       3847.000          39.000  
G 9  23045494.679     -757586.3141       3492.000          35.000  
G16  19843066.841      217057.4871       -385.000          44.000  
G18  24325899.973     -111201.3451        797.000          22.000  
G26  20928517.500      297832.0881      -1252.000          44.000  
G27  19518236.483    -4114203.861        2324.000          44.000  
G28  22010624.977     1383113.5741      -1132.000          37.000  
G31  20601305.012       63273.512        -239.000          41.000  
G32  24284411.697       67326.0861      -3224.000          32.000  
> 2024 12 28  5 14 52.9960001  0 11                     
G 3  23658374.875       38931.6361      -1380.000          36.000  
G 4  20866075.666     -559794.4341       2543.000          41.000  
G 8  21398453.609     -696498.9551       3853.000          42.000  
G 9  23044832.897     -761077.0351       3490.000          37.000  
G16  19843140.691      217444.8711       -387.000          44.000  
G18  24325768.887     -111998.3601        797.000          23.000  
G26  20928756.987      299090.1161      -1258.000          46.000  
G27  19517793.491    -4116530.561        2326.000          45.000  
G28  22010836.194     1384249.2881      -1135.000          36.000  
G31  20601351.221       63516.993        -243.000          44.000  
G32  24285038.997       70545.1881      -3219.000          32.000  
> 2024 12 28  5 14 53.9960001  0 11                     
G 3  23658635.721       40306.6211      -1374.000          35.000  
G 4  20865591.701     -562336.0521       2541.000          42.000  
G 8  21397720.002     -700358.9101       3859.000          41.000  
G 9  23044169.405     -764564.4001       3487.000          38.000  
G16  19843215.099      217835.7961       -390.000          44.000  
G18  24325586.463     -112786.5871        788.000          26.000  
G26  20928998.010      300353.6441      -1263.000          44.000  
G27  19517350.465    -4118859.591        2329.000          46.000  
G28  22011045.841     1385386.8351      -1137.000          35.000  
G31  20601397.743       63763.976        -246.000          43.000  
G32  24285650.139       73759.1901      -3213.000          32.000  
> 2024 12 28  5 14 54.9960001  0 11                     
G 3  23658901.732       41676.203       -1369.000          36.000  
G 4  20865107.911     -564875.033        2538.000          43.000  
G 8  21396985.034     -704225.6371       3866.000          42.000  
G 9  23043504.935     -768047.590        3482.000          38.000  
G16  19843289.960      218229.931        -394.000          45.000  
G18  24325442.080     -113575.6241        789.000          25.000  
G26  20929239.241      301622.9321      -1269.000          42.000  
G27  19516906.637    -4121191.887        2332.000          46.000  
G28  22011268.646     1386524.7931      -1137.000          36.000  
G31  20601444.475       64013.610        -249.000          44.000  
G32  24286274.891       76972.0921      -3212.000          30.000  
> 2024 12 28  5 14 55.9960001  0 11                     
G 3  23659151.863       43044.0961      -1367.000          37.000  
G 4  20864627.786     -567410.0071       2534.000          40.000  
G 8  21396250.170     -708095.7161       3870.000          40.000  
G 9  23042843.223     -771525.042        3477.000          37.000  
G16  19843365.345      218628.076        -398.000          45.000  
G18  24325318.009     -114355.7081        780.000          23.000  
G26  20929481.346      302895.2601      -1272.000          44.000  
G27  19516462.179    -4123526.461        2334.000          47.000  
G28  22011485.796     1387660.9841      -1136.000          34.000  
G31  20601491.625       64263.419        -249.000          46.000  
G32  24286873.364       80181.2471      -3209.000          29.000  
> 2024 12 28  5 14 56.9960001  0 10                     
G 3  23659417.804       44412.3911      -1368.000          37.000  
G 4  20864145.637     -569940.9501       2530.000          40.000  
G 8  21395511.503     -711969.6181       3873.000          41.000  
G 9  23042177.916     -774996.8281       3471.000          35.000  
G16  19843441.742      219029.635        -401.000          45.000  
G26  20929724.392      304170.4481      -1275.000          43.000  
G27  19516017.862    -4125862.414        2335.000          47.000  
G28  22011703.540     1388794.4731      -1133.000          38.000  
G31  20601539.090       64513.223        -249.000          45.000  
G32  24287474.838       83378.1011      -3196.000          29.000  
> 2024 12 28  5 14 57.9960001  0 10                     
G 3  23659677.882       45780.7491      -1368.000          37.000  
G 4  20863648.759     -572467.0661       2526.000          40.000  
G 8  21394773.463     -715845.5571       3875.000          41.000  
G 9  23041520.985     -778462.9771       3466.000          33.000  
G16  19843518.942      219434.803        -405.000          45.000  
G26  20929967.334      305448.5001      -1278.000          42.000  
G27  19515573.196    -4128199.207        2336.000          48.000  
G28  22011909.767     1389931.3291      -1136.000          32.000  
G31  20601586.519       64763.395        -250.000          45.000  
G32  24288086.433       86567.6101      -3189.000          29.000  
> 2024 12 28  5 14 58.9960001  0 10                     
G 3  23659931.574       47149.6921      -1368.000          38.000  
G 4  20863174.776     -574989.4431       2522.000          42.000  
G 8  21394036.575     -719723.5001       3877.000          42.000  
G 9  23040863.391     -781923.6661       3460.000          33.000  
G16  19843596.944      219843.061        -408.000          45.000  
G26  20930211.568      306728.3081      -1279.000          44.000  
G27  19515128.390    -4130537.049        2337.000          46.000  
G28  22012160.526     1391068.7841      -1137.000          22.000  
G31  20601634.193       65013.099        -249.000          45.000  
G32  24288690.351       89752.5831      -3184.000          29.000  
> 2024 12 28  5 14 59.9960001  0 10                     
G 3  23660196.363       48519.3801      -1369.000          37.000  
G 4  20862697.897     -577508.5621       2519.000          39.000  
G 8  21393298.989     -723602.5741       3879.000          41.000  
G 9  23040199.934     -785381.4131       3457.000          35.000  
G16  19843674.702      220253.466        -410.000          45.000  
G26  20930455.836      308009.3591      -1281.000          44.000  
G27  19514683.165    -4132875.330        2338.000          46.000  
G28  22012357.714     1392211.7581      -1142.000          19.000  
G31  20601681.588       65262.505        -249.000          45.000  
G32  24289290.987       92933.5031      -3180.000          28.000  
> 2024 12 28  5 15  0.9960001  0 10                     
G 3  23660466.353       49891.0561      -1371.000          34.000  
G 4  20862218.051     -580025.4001       2516.000          40.000  
G 8  21392559.938     -727482.691        3880.000          42.000  
G 9  23039546.319     -788835.0211       3454.000          33.000  
G16  19843753.228      220665.648        -412.000          45.000  
G26  20930699.999      309291.808       -1282.000          44.000  
G27  19514238.498    -4135214.129        2338.000          47.000  
G28  22012504.400     1393343.0751      -1131.000          19.000  
G31  20601723.364       65512.7571       -250.000          42.000  
G32  24289888.971       96111.6041      -3177.000          25.000  
> 2024 12 28  5 15  1.9960001  0 10                     
G 3  23660747.965       51261.1471      -1370.000          28.000  
G 4  20861741.415     -582539.9561       2514.000          42.000  
G 8  21391820.607     -731364.180        3881.000          42.000  
G 9  23038887.713     -792286.3551       3451.000          33.000  
G16  19843832.243      221079.579        -413.000          45.000  
G26  20930944.756      310575.586       -1283.000          43.000  
G27  19513793.622    -4137553.301        2339.000          47.000  
G28  22012777.845     1394468.6681      -1125.000          33.000  
G31  20601780.601       65766.0351       -253.000          25.000  
G32  24290502.975       99286.9261      -3175.000          29.000  
> 2024 12 28  5 15  2.9960001  0 10                     
G 3  23660990.942       52630.4941      -1369.000          36.000  
G 4  20861265.129     -585052.9851       2513.000          41.000  
G 8  21391082.498     -735246.258        3882.000          42.000  
G 9  23038237.308     -795736.0831       3449.000          36.000  
G16  19843911.432      221494.588        -415.000          45.000  
G26  20931197.365      311861.9941      -1286.000          39.000  
G27  19513348.781    -4139892.526        2339.000          48.000  
G28  22012996.776     1395593.8611      -1125.000          38.000  
G31  20601822.726       66016.3951       -250.000          29.000  
G32  24291112.615      102460.2981      -3173.000          27.000  
> 2024 12 28  5 15  3.9960001  0 10                     
G 3  23661253.602       54000.3671      -1369.000          37.000  
G 4  20860788.040     -587565.5951       2512.000          43.000  
G 8  21390344.668     -739127.5741       3881.000          42.000  
G 9  23037579.156     -799185.4811       3449.000          37.000  
G16  19843990.272      221909.803        -415.000          45.000  
G26  20931450.079      313147.9231      -1285.000          22.000  
G27  19512903.836    -4142230.616        2338.000          45.000  
G28  22013208.482     1396719.0701      -1125.000          39.000  
G31  20601871.202       66266.6291       -250.000          45.000  
G32  24291715.869      105634.2751      -3173.000          28.000  
> 2024 12 28  5 15  4.9960001  0 10                     
G 3  23661511.272       55370.2761      -1369.000          37.000  
G 4  20860313.290     -590078.5121       2512.000          37.000  
G 8  21389605.511     -743007.7021       3880.000          41.000  
G 9  23036911.126     -802635.8211       3450.000          35.000  
G16  19844069.740      222324.749        -414.000          45.000  
G26  20931684.017      314429.0791      -1281.000          24.000  
G27  19512458.820    -4144567.682        2337.000          46.000  
G28  22013421.060     1397845.6271      -1126.000          40.000  
G31  20601918.841       66517.3541       -250.000          45.000  
G32  24292324.009      108810.1771      -3175.000          28.000  
> 2024 12 28  5 15  5.9960001  0 10                     
G 3  23661769.326       56740.2701      -1369.000          37.000  
G 4  20859835.852     -592591.9661       2513.000          40.000  
G 8  21388867.681     -746886.6821       3878.000          42.000  
G 9  23036261.141     -806087.4751       3451.000          33.000  
G16  19844148.231      222738.991        -414.000          44.000  
G26  20931927.064      315712.2291      -1283.000          36.000  
G27  19512014.433    -4146903.265        2335.000          47.000  
G28  22013617.131     1398973.7491      -1128.000          37.000  
G31  20601967.039       66768.4761       -251.000          45.000  
G32  24292920.144      111987.6041      -3177.000          29.000  
> 2024 12 28  5 15  6.9960001  0 10                     
G 3  23662028.880       58110.7321      -1370.000          36.000  
G 4  20859356.983     -595106.194        2514.000          43.000  
G 8  21388129.991     -750764.096        3877.000          42.000  
G 9  23035609.933     -809540.3301       3452.000          33.000  
G16  19844226.932      223152.196        -413.000          45.000  
G26  20932169.168      316993.791       -1282.000          43.000  
G27  19511569.976    -4149237.734        2334.000          47.000  
G28  22013840.110     1400101.3131      -1128.000          39.000  
G31  20602014.852       67018.810        -250.000          45.000  
G32  24293517.988      115166.0741      -3178.000          26.000  
> 2024 12 28  5 15  7.9960001  0 11                     
G 3  23662289.028       59481.9691      -1371.000          36.000  
G 4  20858877.555     -597620.492        2514.000          40.000  
G 8  21387391.777     -754639.8891       3875.000          42.000  
G 9  23034945.813     -812994.3361       3454.000          35.000  
G16  19844305.807      223565.001        -412.000          45.000  
G18  24323506.885       -2163.7011        771.000          28.000  
G26  20932411.900      318275.131       -1281.000          44.000  
G27  19511126.182    -4151570.780        2333.000          45.000  
G28  22014056.876     1401230.2261      -1128.000          40.000  
G31  20602062.317       67269.928        -251.000          45.000  
G32  24294127.280      118348.7521      -3182.000          27.000  
> 2024 12 28  5 15  8.9960001  0 11                     
G 3  23662550.677       60853.2221      -1371.000          37.000  
G 4  20858398.338     -600134.7691       2514.000          37.000  
G 8  21386653.981     -758514.7741       3874.000          42.000  
G 9  23034292.268     -816448.3851       3454.000          34.000  
G16  19844383.984      223977.583        -412.000          44.000  
G18  24323354.440       -2931.6631        767.000          24.000  
G26  20932654.947      319556.048       -1280.000          43.000  
G27  19510682.353    -4153902.767        2331.000          46.000  
G28  22014264.499     1402360.0351      -1129.000          38.000  
G31  20602109.502       67521.355        -251.000          44.000  
G32  24294732.838      121530.3681      -3181.000          28.000  
> 2024 12 28  5 15  9.9960001  0 11                     
G 3  23662805.206       62224.6071      -1371.000          36.000  
G 4  20857920.376     -602649.0111       2514.000          39.000  
G 8  21385917.303     -762388.7251       3873.000          41.000  
G 9  23033629.438     -819903.4251       3455.000          32.000  
G16  19844462.649      224390.251        -412.000          45.000  
G18  24323208.975       -3705.1711        773.000          24.000  
G26  20932897.575      320837.0611      -1281.000          43.000  
G27  19510238.664    -4156233.647        2330.000          46.000  
G28  22014491.457     1403490.5901      -1130.000          36.000  
G31  20602157.421       67773.531        -252.000          44.000  
G32  24295334.765      124717.3591      -3186.000          26.000  
> 2024 12 28  5 15 10.9960001  0 11                     
G 3  23663066.645       63595.0221      -1370.000          35.000  
G 4  20857442.135     -605165.3241       2516.000          39.000  
G 8  21385181.602     -766260.9661       3872.000          41.000  
G 9  23032975.160     -823362.8231       3459.000          30.000  
G16  19844541.001      224801.319        -411.000          45.000  
G18  24323054.785       -4479.4201        774.000          29.000  
G26  20933140.622      322117.0201      -1279.000          43.000  
G27  19509795.394    -4158562.519        2328.000          46.000  
G28  22014707.071     1404624.0221      -1133.000          39.000  
G31  20602205.758       68026.836        -253.000          45.000  
G32  24295946.675      127905.8921      -3188.000          25.000  
> 2024 12 28  5 15 11.9960001  0 11                     
G 3  23663323.128       64965.0681      -1370.000          36.000  
G 4  20856962.045     -607686.0901       2520.000          40.000  
G 8  21384444.574     -770129.5941       3868.000          41.000  
G 9  23032316.379     -826826.7331       3463.000          31.000  
G16  19844618.550      225208.877        -407.000          45.000  
G18  24322902.829       -5253.8481        774.000          31.000  
G26  20933384.192      323394.5331      -1277.000          43.000  
G27  19509352.786    -4160888.610        2326.000          47.000  
G28  22014923.664     1405762.3111      -1138.000          39.000  
G31  20602254.828       68281.2891       -254.000          44.000  
G32  24296552.756      131101.0311      -3195.000          27.000  
> 2024 12 28  5 15 12.9960001  0 10                     
G 3  23663586.138       66331.763       -1367.000          35.000  
G 4  20856477.627     -610211.708        2525.000          40.000  
G 8  21383708.175     -773995.780        3866.000          41.000  
G 9  23031654.283     -830297.8651       3471.000          32.000  
G16  19844695.401      225613.354        -404.000          44.000  
G18  24322756.386       -6025.1951        771.000          34.000  
G26  20933627.134      324671.320       -1276.000          41.000  
G27  19508910.947    -4163211.543        2322.000          47.000  
G28  22015135.544     1406907.1841      -1144.000          35.000  
G31  20602304.212       68539.519        -258.000          46.000  
> 2024 12 28  5 15 13.9960001  0 11                     
G 3  23663849.706       67693.375       -1361.000          35.000  
G 4  20856003.679     -612743.578        2531.000          40.000  
G 8  21382972.788     -777862.468        3866.000          39.000  
G 9  23030998.713     -833776.2961       3478.000          37.000  
G16  19844771.867      226014.783        -401.000          44.000  
G18  24322617.832       -6789.9841        764.000          35.000  
G26  20933870.250      325948.675       -1277.000          43.000  
G27  19508469.282    -4165533.023        2321.000          45.000  
G28  22015359.116     1408058.8531      -1151.000          42.000  
G31  20602354.154       68801.647        -262.000          46.000  
G32  24297754.378      137518.0161      -3214.000          18.000  
> 2024 12 28  5 15 14.9960001  0 11                     
G 3  23664109.121       69047.2271      -1353.000          33.000  
G 4  20855519.401     -615282.7191       2539.000          38.000  
G 8  21382236.180     -781730.216        3867.000          36.000  
G 9  23030334.244     -837263.9651       3487.000          39.000  
G16  19844847.915      226412.318        -397.000          43.000  
G18  24322467.411       -7546.9341        756.000          34.000  
G26  20934112.703      327226.655       -1277.000          43.000  
G27  19508027.791    -4167853.359        2320.000          45.000  
G28  22015580.455     1409219.2751      -1160.000          44.000  
G31  20602405.214       69068.771        -267.000          45.000  
G32  24298382.236      140738.4951      -3220.000          20.000  
> 2024 12 28  5 15 15.9960001  0 11                     
G 3  23664364.906       70396.9611      -1349.000          30.000  
G 4  20855033.726     -617829.5161       2546.000          40.000  
G 8  21381501.630     -785596.117        3865.000          39.000  
G 9  23029669.042     -840761.5801       3497.000          36.000  
G16  19844921.730      226805.619        -393.000          40.000  
G18  24322314.442       -8296.5961        749.000          40.000  
G26  20934355.192      328504.370       -1277.000          41.000  
G27  19507586.929    -4170170.568        2317.000          45.000  
G28  22015804.306     1410388.7051      -1169.000          39.000  
G31  20602457.006       69340.742        -271.000          46.000  
G32  24299000.533      143964.1851      -3225.000          30.000  
> 2024 12 28  5 15 16.9960001  0 11                     
G 3  23664618.458       71741.4941      -1344.000          30.000  
G 4  20854547.563     -620381.8991       2552.000          41.000  
G 8  21380765.720     -789460.923        3864.000          40.000  
G 9  23029002.723     -844266.6841       3505.000          38.000  
G16  19844995.789      227195.373        -389.000          40.000  
G18  24322173.794       -9041.6091        745.000          34.000  
G26  20934598.727      329781.180       -1276.000          43.000  
G27  19507146.590    -4172485.693        2315.000          46.000  
G28  22016028.402     1411564.4971      -1175.000          42.000  
G31  20602509.461       69615.785        -275.000          46.000  
G32  24299614.850      147194.3991      -3230.000          30.000  
> 2024 12 28  5 15 17.9960001  0 11                     
G 3  23664873.545       73079.6701      -1338.000          29.000  
G 4  20854060.318     -622938.6761       2556.000          41.000  
G 8  21380028.727     -793327.825        3866.000          38.000  
G 9  23028334.658     -847777.0241       3510.000          38.000  
G16  19845069.917      227583.495        -388.000          42.000  
G18  24322050.490       -9779.9551        738.000          36.000  
G26  20934841.913      331059.883       -1278.000          43.000  
G27  19506705.937    -4174800.437        2314.000          46.000  
G28  22016253.405     1412746.6151      -1182.000          43.000  
G31  20602563.068       69895.114        -279.000          46.000  
G32  24300230.145      150429.8381      -3235.000          31.000  
> 2024 12 28  5 15 18.9960001  0 11                     
G 3  23665129.889       74411.5591      -1331.000          28.000  
G 4  20853573.562     -625498.188        2559.000          43.000  
G 8  21379291.316     -797197.941        3870.000          36.000  
G 9  23027666.908     -851290.279        3513.000          38.000  
G16  19845143.766      227971.521        -388.000          41.000  
G18  24321909.981      -10511.743         731.000          38.000  
G26  20935085.309      332341.938       -1282.000          43.000  
G27  19506265.424    -4177115.305        2314.000          46.000  
G28  22016479.630     1413934.499       -1187.000          44.000  
G31  20602617.443       70178.998        -283.000          46.000  
G32  24300831.619      153666.3481      -3237.000          30.000  
> 2024 12 28  5 15 19.9960001  0 11                     
G 3  23665380.998       75737.6221      -1326.000          29.000  
G 4  20853086.770     -628059.399        2561.000          43.000  
G 8  21378553.381     -801071.568        3873.000          36.000  
G 9  23026998.042     -854805.062        3514.000          38.000  
G16  19845217.581      228360.203        -388.000          41.000  
G18  24321770.798      -11236.317         724.000          38.000  
G26  20935329.926      333627.724       -1285.000          43.000  
G27  19505824.876    -4179430.702        2315.000          46.000  
G28  22016706.587     1415127.258       -1192.000          44.000  
G31  20602672.481       70467.114        -288.000          46.000  
G32  24301450.124      156905.1131      -3238.000          21.000  
> 2024 12 28  5 15 20.9960001  0 11                     
G 3  23665624.777       77057.4511      -1319.000          29.000  
G 4  20852599.386     -630622.226        2562.000          43.000  
G 8  21377815.656     -804948.992        3877.000          37.000  
G 9  23026329.454     -858321.269        3516.000          38.000  
G16  19845291.465      228749.786        -389.000          42.000  
G18  24321633.988      -11953.992         717.000          38.000  
G26  20935575.416      334917.659       -1289.000          43.000  
G27  19505384.048    -4181746.604        2315.000          46.000  
G28  22016934.836     1416325.104       -1197.000          44.000  
G31  20602728.113       70759.808        -292.000          46.000  
G32  24302063.011      160133.9121      -3228.000          14.000  
> 2024 12 28  5 15 21.9960001  0 10                     
G 3  23665885.972       78371.4641      -1314.000          29.000  
G 4  20852111.687     -633186.119        2563.000          43.000  
G 8  21377076.988     -808830.185        3881.000          37.000  
G 9  23025660.168     -861838.347        3517.000          38.000  
G16  19845365.559      229140.569        -390.000          42.000  
G18  24321497.632      -12664.879         710.000          38.000  
G26  20935821.150      336211.801       -1294.000          43.000  
G27  19504943.186    -4184063.042        2316.000          46.000  
G28  22017163.608     1417527.750       -1202.000          44.000  
G31  20602784.547       71056.915        -297.000          46.000  
> 2024 12 28  5 15 22.9960001  0 10                     
G 3  23666139.384       79680.2161      -1308.000          29.000  
G 4  20851623.221     -635751.162        2565.000          43.000  
G 8  21376337.482     -812714.919        3884.000          37.000  
G 9  23024990.150     -865356.392        3518.000          38.000  
G16  19845440.176      229532.181        -391.000          42.000  
G18  24321361.730      -13370.243         705.000          36.000  
G26  20936067.965      337509.350       -1297.000          43.000  
G27  19504502.114    -4186380.151        2317.000          46.000  
G28  22017393.428     1418734.207       -1206.000          44.000  
G31  20602841.888       71357.591        -300.000          46.000  
> 2024 12 28  5 15 23.9960001  0 11                     
G 3  23666381.488       80986.6961      -1306.000          28.000  
G 4  20851134.545     -638316.642        2565.000          43.000  
G 8  21375597.872     -816600.905        3885.000          36.000  
G 9  23024320.236     -868874.756        3518.000          38.000  
G16  19845514.549      229924.018        -391.000          41.000  
G18  24321228.445      -14072.840         702.000          37.000  
G26  20936315.444      338808.212       -1298.000          43.000  
G27  19504061.078    -4188697.242        2317.000          46.000  
G28  22017623.875     1419942.562       -1208.000          44.000  
G31  20602899.613       71659.852        -302.000          46.000  
G32  24303900.868      169786.4861      -3220.000          18.000  
> 2024 12 28  5 15 24.9960001  0 11                     
G 3  23666629.700       82294.418       -1307.000          29.000  
G 4  20850646.497     -640881.384        2564.000          43.000  
G 8  21374858.123     -820485.427        3884.000          36.000  
G 9  23023648.961     -872392.8751       3518.000          38.000  
G16  19845589.689      230316.128        -392.000          41.000  
G18  24321094.951      -14775.561         702.000          38.000  
G26  20936562.819      340106.685       -1298.000          43.000  
G27  19503620.076    -4191013.017        2315.000          46.000  
G28  22017853.555     1421151.228       -1208.000          44.000  
G31  20602957.234       71962.259        -302.000          46.000  
G32  24304546.945      173023.6551      -3236.000          32.000  
> 2024 12 28  5 15 25.9960001  0 11                     
G 3  23666881.891       83603.646       -1309.000          29.000  
G 4  20850158.764     -643445.420        2564.000          43.000  
G 8  21374118.443     -824368.297        3882.000          37.000  
G 9  23022980.373     -875910.7221       3517.000          39.000  
G16  19845664.271      230708.059        -391.000          41.000  
G18  24320961.911      -15479.410         703.000          38.000  
G26  20936809.216      341404.017       -1297.000          43.000  
G27  19503179.702    -4193327.681        2314.000          46.000  
G28  22018083.479     1422359.265       -1208.000          44.000  
G31  20603014.680       72263.955        -301.000          46.000  
G32  24305171.244      176261.6881      -3238.000          30.000  
> 2024 12 28  5 15 26.9960001  0 11                     
G 3  23667125.426       84915.6461      -1311.000          28.000  
G 4  20849671.519     -646008.272        2562.000          43.000  
G 8  21373380.124     -828249.002        3880.000          37.000  
G 9  23022302.328     -879427.8791       3517.000          37.000  
G16  19845738.226      231099.917        -391.000          41.000  
G18  24320827.370      -16185.378         705.000          37.000  
G26  20937055.857      342699.667       -1295.000          44.000  
G27  19502739.468    -4195641.034        2313.000          46.000  
G28  22018313.333     1423565.783       -1206.000          43.000  
G31  20603072.091       72564.309        -300.000          46.000  
G32  24305782.385      179501.7881      -3240.000          24.000  
> 2024 12 28  5 15 27.9960001  0 11                     
G 3  23667378.489       86231.7221      -1316.000          29.000  
G 4  20849184.134     -648568.660        2560.000          44.000  
G 8  21372643.411     -832126.741        3877.000          37.000  
G 9  23021636.392     -882942.8401       3514.000          38.000  
G16  19845812.878      231492.146        -392.000          41.000  
G18  24320692.863      -16894.831         709.000          37.000  
G26  20937301.486      343993.279       -1293.000          43.000  
G27  19502299.129    -4197952.988        2311.000          45.000  
G28  22018542.490     1424769.663       -1203.000          44.000  
G31  20603128.665       72862.435        -298.000          46.000  
G32  24306391.398      182743.6711      -3241.000          19.000  
> 2024 12 28  5 15 28.9960001  0 11                     
G 3  23667627.748       87552.7481      -1321.000          29.000  
G 4  20848697.308     -651126.328        2557.000          43.000  
G 8  21371904.988     -836001.051        3874.000          37.000  
G 9  23020960.580     -886455.1501       3512.000          38.000  
G16  19845888.088      231884.894        -392.000          42.000  
G18  24320556.752      -17608.232         713.000          38.000  
G26  20937547.046      345284.702       -1291.000          43.000  
G27  19501859.733    -4200263.231        2310.000          45.000  
G28  22018770.913     1425970.496       -1200.000          44.000  
G31  20603184.750       73158.183        -295.000          46.000  
G32  24306968.756      185988.8991      -3245.000          13.000  
> 2024 12 28  5 15 29.9960001  0 10                     
G 3  23667877.600       88879.1641      -1326.000          28.000  
G 4  20848210.726     -653681.569        2555.000          43.000  
G 8  21371169.077     -839871.647        3870.000          37.000  
G 9  23020300.474     -889965.5091       3510.000          37.000  
G16  19845962.251      232277.529        -392.000          42.000  
G18  24320420.256      -18326.481         718.000          38.000  
G26  20937792.012      346572.895       -1288.000          44.000  
G27  19501420.406    -4202571.829        2308.000          45.000  
G28  22018998.429     1427167.770       -1197.000          44.000  
G31  20603240.521       73450.816        -292.000          46.000  
> 2024 12 28  5 15 30.9960001  0 10                     
G 3  23668134.607       90211.5471      -1332.000          28.000  
G 4  20847725.017     -656234.413        2552.000          43.000  
G 8  21370433.550     -843737.830        3866.000          37.000  
G 9  23019635.830     -893474.768        3508.000          38.000  
G16  19846036.869      232669.565        -392.000          42.000  
G18  24320282.644      -19050.931         724.000          38.000  
G26  20938036.106      347856.945       -1284.000          44.000  
G27  19500981.254    -4204878.794        2306.000          45.000  
G28  22019225.631     1428360.443       -1192.000          44.000  
G31  20603295.454       73739.295        -288.000          46.000  
> 2024 12 28  5 15 31.9960001  0 10                     
G 3  23668390.602       91551.3811      -1339.000          28.000  
G 4  20847239.726     -658784.141        2549.000          43.000  
G 8  21369699.385     -847598.817        3860.000          37.000  
G 9  23018968.813     -896981.014        3506.000          38.000  
G16  19846111.486      233061.471        -391.000          42.000  
G18  24320143.496      -19782.021         731.000          38.000  
G26  20938279.815      349136.759       -1279.000          43.000  
G27  19500542.974    -4207183.530        2304.000          45.000  
G28  22019451.611     1429548.336       -1187.000          43.000  
G31  20603349.585       74023.612        -284.000          46.000  
> 2024 12 28  5 15 32.9960001  0 11                     
G 3  23668646.492       92898.5061      -1347.000          31.000  
G 4  20846754.819     -661330.780        2546.000          43.000  
G 8  21368955.622     -851454.704        3855.000          36.000  
G 9  23018303.610     -900484.909        3503.000          38.000  
G16  19846186.068      233453.079        -391.000          42.000  
G18  24320003.580      -20519.937         737.000          39.000  
G26  20938522.373      350412.216       -1275.000          44.000  
G27  19500104.625    -4209486.089        2302.000          46.000  
G28  22019676.614     1430731.308       -1182.000          44.000  
G31  20603403.122       74303.619        -280.000          46.000  
G32  24309527.551      198976.2341      -3245.000          17.000  
> 2024 12 28  5 15 33.9960001  0 11                     
G 3  23668905.348       94251.5091      -1352.000          30.000  
G 4  20846270.890     -663874.722        2543.000          43.000  
G 8  21368229.797     -855306.0891       3851.000          37.000  
G 9  23017629.613     -903986.5401       3501.000          35.000  
G16  19846261.069      233844.660        -391.000          42.000  
G18  24319862.966      -21263.244         743.000          39.000  
G26  20938764.478      351684.269       -1272.000          44.000  
G27  19499666.868    -4211786.718        2300.000          46.000  
G28  22019901.583     1431910.401       -1179.000          43.000  
G31  20603455.263       74580.207        -276.000          46.000  
G32  24310143.264      202221.3441      -3245.000          21.000  
> 2024 12 28  5 15 34.9960001  0 11                     
G 3  23669168.637       95609.5561      -1358.000          28.000  
G 4  20845787.344     -666416.516        2541.000          43.000  
G 8  21367497.307     -859153.8861       3847.000          37.000  
G 9  23016962.037     -907486.6101       3500.000          31.000  
G16  19846335.372      234236.026        -391.000          42.000  
G18  24319720.712      -22011.282         748.000          38.000  
G26  20939006.128      352953.112       -1268.000          44.000  
G27  19499229.042    -4214085.706        2298.000          46.000  
G28  22020125.539     1433086.044       -1175.000          43.000  
G31  20603506.986       74853.779        -273.000          46.000  
G32  24310757.268      205463.6161      -3242.000          25.000  
> 2024 12 28  5 15 35.9960001  0 11                     
G 3  23669421.281       96974.2981      -1364.000          30.000  
G 4  20845304.846     -668955.464        2538.000          43.000  
G 8  21366774.065     -862996.8141       3842.000          37.000  
G 9  23016304.583     -910984.5071       3497.000          32.000  
G16  19846409.884      234627.019        -390.000          42.000  
G18  24319576.678      -22765.623         754.000          38.000  
G26  20939246.767      354217.830       -1264.000          44.000  
G27  19498791.531    -4216382.764        2297.000          45.000  
G28  22020348.134     1434257.127       -1171.000          43.000  
G31  20603558.254       75123.275        -269.000          46.000  
G32  24311323.772      208700.6491      -3237.000          29.000  
> 2024 12 28  5 15 36.9960001  0 11                     
G 3  23669686.560       98345.9161      -1371.000          29.000  
G 4  20844821.231     -671491.521        2536.000          43.000  
G 8  21366040.528     -866834.952        3838.000          36.000  
G 9  23015641.161     -914480.0501       3495.000          30.000  
G16  19846483.071      235017.854        -390.000          40.000  
G18  24319430.549      -23526.130         760.000          38.000  
G26  20939486.812      355478.602       -1260.000          44.000  
G27  19498354.089    -4218677.690        2294.000          45.000  
G28  22020570.624     1435423.731       -1166.000          43.000  
G31  20603608.686       75388.883        -265.000          46.000  
G32  24311949.851      211944.2811      -3243.000          29.000  
> 2024 12 28  5 15 37.9960001  0 11                     
G 3  23669946.498       99718.4741      -1372.000          28.000  
G 4  20844338.627     -674026.762        2535.000          44.000  
G 8  21365305.699     -870672.131        3837.000          35.000  
G 9  23014965.628     -917975.1561       3495.000          30.000  
G16  19846557.164      235408.779        -390.000          39.000  
G18  24319284.666      -24287.137         761.000          38.000  
G26  20939726.718      356738.784       -1260.000          43.000  
G27  19497917.310    -4220971.887        2294.000          45.000  
G28  22020792.311     1436589.951       -1166.000          44.000  
G31  20603658.803       75654.116        -265.000          46.000  
G32  24312566.157      215181.2821      -3236.000          28.000  
> 2024 12 28  5 15 38.9960001  0 11                     
G 3  23670203.854      101091.1061      -1372.000          27.000  
G 4  20843855.396     -676561.392        2534.000          43.000  
G 8  21364577.781     -874508.925        3836.000          36.000  
G 9  23014313.897     -921469.6831       3494.000          29.000  
G16  19846630.769      235800.131        -391.000          39.000  
G18  24319140.073      -25047.633         760.000          38.000  
G26  20939965.995      357999.130       -1260.000          43.000  
G27  19497480.880    -4223265.299        2293.000          45.000  
G28  22021013.964     1437756.616       -1166.000          43.000  
G31  20603710.071       75919.760        -265.000          46.000  
G32  24313178.311      218418.5631      -3237.000          28.000  
> 2024 12 28  5 15 39.9960001  0 11                     
G 3  23670469.202      102464.1831      -1373.000          29.000  
G 4  20843372.653     -679095.203        2533.000          43.000  
G 8  21363849.688     -878345.187        3836.000          36.000  
G 9  23013644.437     -924963.7311       3494.000          30.000  
G16  19846705.177      236191.991        -391.000          39.000  
G18  24318995.725      -25807.452         759.000          38.000  
G26  20940206.808      359259.761       -1260.000          43.000  
G27  19497044.729    -4225557.892        2292.000          45.000  
G28  22021236.315     1438923.759       -1167.000          43.000  
G31  20603761.061       76185.913        -266.000          47.000  
G32  24313795.106      221656.0991      -3237.000          28.000  
> 2024 12 28  5 15 40.9960001  0 11                     
G 3  23670731.723      103837.1511      -1372.000          29.000  
G 4  20842890.887     -681628.527        2533.000          43.000  
G 8  21363125.155     -882180.991        3835.000          36.000  
G 9  23012984.295     -928457.3431       3493.000          29.000  
G16  19846779.689      236584.081        -392.000          39.000  
G18  24318851.761      -26566.856         759.000          37.000  
G26  20940447.063      360520.436       -1260.000          43.000  
G27  19496608.299    -4227849.860        2291.000          45.000  
G28  22021459.329     1440091.236       -1167.000          43.000  
G31  20603812.120       76452.368        -266.000          46.000  
G32  24314409.703      224893.5681      -3237.000          28.000  
> 2024 12 28  5 15 41.9960001  0 11                     
G 3  23670986.985      105210.4661      -1373.000          28.000  
G 4  20842408.389     -684161.098        2532.000          43.000  
G 8  21362392.036     -886016.390        3835.000          36.000  
G 9  23012322.932     -931950.5011       3493.000          29.000  
G16  19846856.017      236976.603        -392.000          40.000  
G18  24318708.285      -27325.631         758.000          36.000  
G26  20940687.422      361781.384       -1260.000          43.000  
G27  19496172.672    -4230141.000        2291.000          45.000  
G28  22021682.517     1441259.214       -1167.000          43.000  
G31  20603862.726       76719.287        -266.000          47.000  
G32  24315025.835      228131.2061      -3237.000          29.000  
> 2024 12 28  5 15 42.9960001  0 11                     
G 3  23671247.272      106583.8711      -1373.000          28.000  
G 4  20841926.693     -686693.076        2531.000          43.000  
G 8  21361660.488     -889851.308        3834.000          37.000  
G 9  23011653.751     -935443.146        3492.000          29.000  
G16  19846932.379      237369.510        -392.000          40.000  
G18  24318564.251      -28083.885         758.000          36.000  
G26  20940927.502      363042.426       -1261.000          44.000  
G27  19495736.905    -4232431.442        2290.000          45.000  
G28  22021905.077     1442427.544       -1168.000          43.000  
G31  20603913.436       76986.589        -267.000          46.000  
G32  24315645.876      231368.501       -3237.000          29.000  
> 2024 12 28  5 15 43.9960001  0 11                     
G 3  23671516.773      107957.3281      -1373.000          30.000  
G 4  20841445.451     -689224.607        2531.000          43.000  
G 8  21360929.952     -893686.021        3834.000          37.000  
G 9  23010984.884     -938935.6921       3492.000          29.000  
G16  19847006.787      237762.540        -393.000          39.000  
G18  24318419.100      -28841.825         757.000          36.000  
G26  20941167.582      364303.434       -1261.000          43.000  
G27  19495301.313    -4234721.356        2289.000          45.000  
G28  22022127.742     1443596.110       -1168.000          43.000  
G31  20603964.705       77254.057        -267.000          47.000  
G32  24316264.103      234606.100       -3237.000          30.000  
> 2024 12 28  5 15 44.9960001  0 11                     
G 3  23671780.586      109330.7701      -1373.000          30.000  
G 4  20840964.628     -691755.672        2531.000          43.000  
G 8  21360198.369     -897520.505        3834.000          37.000  
G 9  23010311.271     -942427.8301       3492.000          29.000  
G16  19847081.090      238155.789        -393.000          39.000  
G18  24318254.126      -29599.362         757.000          36.000  
G26  20941406.650      365564.438       -1261.000          43.000  
G27  19494866.034    -4237010.698        2289.000          46.000  
G28  22022350.406     1444764.882       -1168.000          43.000  
G31  20604015.799       77521.737        -267.000          47.000  
G32  24316885.331      237843.647       -3237.000          30.000  
> 2024 12 28  5 15 45.9960001  0 11                     
G 3  23672038.430      110704.4001      -1373.000          29.000  
G 4  20840483.316     -694286.145        2530.000          43.000  
G 8  21359468.357     -901354.516        3834.000          37.000  
G 9  23009656.260     -945919.6461       3491.000          30.000  
G16  19847157.417      238549.401        -393.000          40.000  
G18  24318119.619      -30356.363         757.000          35.000  
G26  20941646.800      366825.595       -1261.000          44.000  
G27  19494430.302    -4239299.329        2288.000          45.000  
G28  22022572.652     1445934.068       -1169.000          43.000  
G31  20604066.824       77789.834        -268.000          47.000  
G32  24317503.417      241081.2711      -3237.000          31.000  
> 2024 12 28  5 15 46.9960001  0 11                     
G 3  23672304.022      112078.2591      -1373.000          29.000  
G 4  20840001.829     -696815.810        2529.000          44.000  
G 8  21358739.147     -905188.004        3833.000          38.000  
G 9  23008993.396     -949410.7771       3491.000          29.000  
G16  19847231.650      238943.516        -394.000          40.000  
G18  24317971.607      -31112.720         756.000          34.000  
G26  20941886.217      368087.024       -1261.000          44.000  
G27  19493994.919    -4241587.096        2287.000          45.000  
G28  22022794.829     1447103.788       -1169.000          43.000  
G31  20604118.022       78058.431        -268.000          47.000  
G32  24318124.715      244319.2531      -3237.000          30.000  
> 2024 12 28  5 15 47.9960001  0 11                     
G 3  23672562.844      113452.1091      -1373.000          28.000  
G 4  20839520.866     -699345.120        2529.000          44.000  
G 8  21358010.217     -909021.326        3833.000          37.000  
G 9  23008317.409     -952901.8371       3491.000          29.000  
G16  19847307.524      239337.684        -394.000          40.000  
G18  24317829.387      -31868.829         756.000          34.000  
G26  20942126.227      369348.341       -1261.000          44.000  
G27  19493559.327    -4243874.416        2287.000          45.000  
G28  22023016.830     1448273.660       -1169.000          43.000  
G31  20604169.117       78327.166        -268.000          47.000  
G32  24318730.866      247556.8801      -3237.000          30.000  
> 2024 12 28  5 15 48.9960001  0 11                     
G 3  23672825.714      114826.075       -1373.000          30.000  
G 4  20839040.253     -701873.789        2528.000          44.000  
G 8  21357279.681     -912854.215        3832.000          37.000  
G 9  23007651.474     -956392.4421       3490.000          29.000  
G16  19847382.280      239732.246        -394.000          40.000  
G18  24317688.773      -32624.442         755.000          35.000  
G26  20942365.923      370609.805       -1261.000          44.000  
G27  19493124.363    -4246160.989        2286.000          45.000  
G28  22023239.286     1449443.903       -1170.000          43.000  
G31  20604220.351       78596.259        -269.000          46.000  
G32  24319346.370      250794.673       -3237.000          31.000  
> 2024 12 28  5 15 49.9960001  0 11                     
G 3  23673085.059      116200.149       -1374.000          33.000  
G 4  20838559.150     -704401.889        2528.000          44.000  
G 8  21356550.366     -916686.737        3832.000          38.000  
G 9  23006989.587     -959882.6061       3490.000          30.000  
G16  19847458.608      240127.101        -394.000          40.000  
G18  24317545.053      -33379.509         755.000          35.000  
G26  20942605.689      371871.382       -1261.000          44.000  
G27  19492689.189    -4248446.896        2285.000          45.000  
G28  22023462.020     1450614.513       -1170.000          43.000  
G31  20604271.096       78865.686        -269.000          47.000  
G32  24319961.734      254032.479       -3237.000          29.000  
> 2024 12 28  5 15 50.9960001  0 11                     
G 3  23673349.849      117574.534       -1374.000          32.000  
G 4  20838078.501     -706929.218        2527.000          44.000  
G 8  21355817.806     -920518.712        3831.000          36.000  
G 9  23006318.626     -963372.2111       3489.000          30.000  
G16  19847534.202      240522.427        -395.000          40.000  
G18  24317409.884      -34133.925         754.000          36.000  
G26  20942845.700      373133.237       -1261.000          44.000  
G27  19492254.295    -4250731.963        2285.000          45.000  
G28  22023685.069     1451785.647       -1171.000          42.000  
G31  20604322.399       79135.651        -269.000          47.000  
G32  24320584.532      257270.4931      -3238.000          30.000  
> 2024 12 28  5 15 51.9960001  0 11                     
G 3  23673603.366      118949.109       -1374.000          33.000  
G 4  20837597.294     -709456.085        2526.000          44.000  
G 8  21355083.920     -924350.377        3831.000          35.000  
G 9  23005662.289     -966861.6181       3489.000          30.000  
G16  19847610.494      240917.998        -395.000          40.000  
G18  24317266.862      -34887.993         754.000          36.000  
G26  20943086.792      374395.095       -1261.000          44.000  
G27  19491820.238    -4253016.406        2284.000          45.000  
G28  22023907.803     1452957.049       -1171.000          43.000  
G31  20604373.738       79405.876        -270.000          47.000  
G32  24321202.410      260508.5911      -3238.000          30.000  
> 2024 12 28  5 15 52.9960001  0 11                     
G 3  23673866.340      120323.440       -1374.000          33.000  
G 4  20837117.413     -711982.463        2526.000          44.000  
G 8  21354355.269     -928181.790        3831.000          36.000  
G 9  23004996.633     -970350.6601       3489.000          29.000  
G16  19847686.438      241313.780        -395.000          40.000  
G18  24317124.084      -35641.655         753.000          36.000  
G26  20943326.837      375656.933       -1261.000          44.000  
G27  19491386.147    -4255300.330        2283.000          45.000  
G28  22024130.189     1454128.685       -1171.000          43.000  
G31  20604425.321       79676.288        -270.000          47.000  
G32  24321808.700      263746.4821      -3237.000          30.000  
> 2024 12 28  5 15 53.9960001  0 11                     
G 3  23674136.644      121697.787       -1374.000          31.000  
G 4  20836637.218     -714508.461        2526.000          44.000  
G 8  21353627.350     -932013.045        3831.000          37.000  
G 9  23004335.444     -973839.5661       3488.000          30.000  
G16  19847761.823      241709.612        -395.000          40.000  
G18  24316981.342      -36395.074         753.000          37.000  
G26  20943567.196      376918.642       -1261.000          44.000  
G27  19490951.043    -4257583.787        2283.000          45.000  
G28  22024352.959     1455300.424       -1171.000          43.000  
G31  20604476.729       79946.816        -270.000          47.000  
G32  24322423.332      266984.3321      -3237.000          29.000  
> 2024 12 28  5 15 54.9960001  0 11                     
G 3  23674395.571      123072.231       -1374.000          32.000  
G 4  20836156.360     -717033.937        2525.000          44.000  
G 8  21352898.664     -935843.952        3830.000          37.000  
G 9  23003673.662     -977328.113        3488.000          32.000  
G16  19847835.777      242105.725        -396.000          40.000  
G18  24316840.134      -37148.067         752.000          37.000  
G26  20943807.765      378180.493       -1261.000          44.000  
G27  19490516.393    -4259866.585        2282.000          45.000  
G28  22024574.925     1456472.533       -1172.000          43.000  
G31  20604527.474       80217.668        -270.000          46.000  
G32  24323041.209      270222.0661      -3237.000          29.000  
> 2024 12 28  5 15 55.9960001  0 11                     
G 3  23674659.592      124446.978       -1374.000          32.000  
G 4  20835676.200     -719558.681        2524.000          44.000  
G 8  21352172.735     -939674.357        3830.000          37.000  
G 9  23003016.731     -980816.121        3488.000          31.000  
G16  19847910.743      242502.290        -396.000          40.000  
G18  24316694.879      -37900.389         752.000          36.000  
G26  20944048.194      379442.499       -1262.000          44.000  
G27  19490081.708    -4262148.582        2282.000          45.000  
G28  22024797.765     1457645.092       -1172.000          43.000  
G31  20604578.778       80488.977        -271.000          46.000  
G32  24323662.786      273459.9561      -3237.000          30.000  
> 2024 12 28  5 15 56.9960001  0 11                     
G 3  23674919.217      125821.777       -1374.000          32.000  
G 4  20835195.376     -722082.879        2524.000          44.000  
G 8  21351445.026     -943504.362        3830.000          37.000  
G 9  23002367.792     -984303.776        3487.000          32.000  
G16  19847985.674      242899.134        -396.000          40.000  
G18  24316550.356      -38652.287         751.000          37.000  
G26  20944288.658      380704.604       -1262.000          44.000  
G27  19489647.407    -4264429.924        2281.000          45.000  
G28  22025020.848     1458817.990       -1172.000          43.000  
G31  20604630.675       80760.633        -271.000          46.000  
G32  24324276.510      276697.8771      -3237.000          31.000  
> 2024 12 28  5 15 57.9960001  0 11                     
G 3  23675174.444      127196.507       -1374.000          32.000  
G 4  20834715.111     -724606.615        2523.000          44.000  
G 8  21350716.270     -947334.161        3829.000          37.000  
G 9  23001701.717     -987791.204        3487.000          31.000  
G16  19848061.862      243296.162        -397.000          41.000  
G18  24316407.369      -39403.904         751.000          36.000  
G26  20944528.320      381966.668       -1262.000          44.000  
G27  19489213.350    -4266710.721        2280.000          45.000  
G28  22025244.351     1459991.073       -1173.000          42.000  
G31  20604682.118       81032.438        -271.000          46.000  
G32  24324887.163      279935.8121      -3237.000          30.000  
> 2024 12 28  5 15 58.9960001  0 11                     
G 3  23675443.456      128571.301       -1374.000          32.000  
G 4  20834235.649     -727129.898        2523.000          44.000  
G 8  21349990.306     -951163.748        3829.000          38.000  
G 9  23001041.122     -991278.3221       3487.000          31.000  
G16  19848139.061      243693.359        -397.000          41.000  
G18  24316266.406      -40155.065         751.000          36.000  
G26  20944769.167      383228.699       -1262.000          44.000  
G27  19488779.363    -4268990.993        2280.000          45.000  
G28  22025467.120     1461164.389       -1173.000          42.000  
G31  20604733.806       81304.483        -272.000          46.000  
G32  24325502.667      283173.5601      -3237.000          28.000  
> 2024 12 28  5 15 59.9960001  0 11                     
G 3  23675707.303      129946.373       -1375.000          30.000  
G 4  20833755.559     -729652.436        2522.000          44.000  
G 8  21349263.016     -954992.743        3828.000          37.000  
G 9  23000380.701     -994764.9291       3486.000          30.000  
G16  19848216.087      244091.072        -397.000          41.000  
G18  24316122.267      -40905.597         750.000          37.000  
G26  20945009.527      384491.027       -1262.000          44.000  
G27  19488345.656    -4271270.390        2279.000          45.000  
G28  22025690.553     1462338.252       -1173.000          43.000  
G31  20604785.912       81577.012        -272.000          46.000  
G32  24326114.471      286411.5541      -3237.000          29.000  
> 2024 12 28  5 16  0.9960001  0 11                     
G 3  23675964.450      131321.387       -1375.000          31.000  
G 4  20833274.875     -732174.566        2522.000          44.000  
G 8  21348534.923     -958821.512        3828.000          39.000  
G 9  22999713.160     -998251.326        3486.000          30.000  
G16  19848292.588      244488.845        -397.000          41.000  
G18  24315976.698      -41655.849         750.000          35.000  
G26  20945250.235      385753.285       -1262.000          44.000  
G27  19487912.437    -4273549.335        2278.000          45.000  
G28  22025913.811     1463512.269       -1174.000          42.000  
G31  20604837.984       81849.701        -272.000          46.000  
G32  24326738.072      289649.368       -3237.000          30.000  
> 2024 12 28  5 16  1.9960001  0 11                     
G 3  23676227.529      132696.552       -1375.000          31.000  
G 4  20832794.715     -734696.101        2521.000          44.000  
G 8  21347805.329     -962649.942        3828.000          39.000  
G 9  22999045.655    -1001737.269        3485.000          31.000  
G16  19848367.659      244887.010        -398.000          41.000  
G18  24315837.166      -42405.629         749.000          36.000  
G26  20945490.071      387015.644       -1262.000          44.000  
G27  19487479.601    -4275827.527        2278.000          46.000  
G28  22026137.697     1464686.678       -1174.000          43.000  
G31  20604889.671       82122.762        -273.000          47.000  
G32  24327344.468      292887.2581      -3237.000          27.000  
> 2024 12 28  5 16  2.9960001  0 11                     
G 3  23676484.641      134071.661       -1375.000          32.000  
G 4  20832315.392     -737217.216        2521.000          44.000  
G 8  21347078.039     -966478.145        3828.000          39.000  
G 9  22998386.769    -1005223.032        3485.000          30.000  
G16  19848442.521      245285.294        -398.000          41.000  
G18  24315693.097      -43155.006         749.000          36.000  
G26  20945730.011      388277.969       -1262.000          44.000  
G27  19487046.243    -4278105.203        2277.000          45.000  
G28  22026361.304     1465861.249       -1174.000          43.000  
G31  20604941.184       82395.966        -273.000          46.000  
G32  24327959.274      296125.0651      -3237.000          28.000  
> 2024 12 28  5 16  3.9960001  0 11                     
G 3  23676748.383      135446.751       -1375.000          31.000  
G 4  20831836.070     -739737.881        2520.000          44.000  
G 8  21346348.725     -970306.031        3827.000          38.000  
G 9  22997719.822    -1008708.571        3485.000          30.000  
G16  19848518.324      245683.767        -398.000          41.000  
G18  24315550.354      -43904.120         749.000          37.000  
G26  20945970.336      389540.208       -1262.000          44.000  
G27  19486612.116    -4280382.365        2277.000          45.000  
G28  22026583.864     1467036.041       -1174.000          42.000  
G31  20604993.046       82669.409        -273.000          47.000  
G32  24328583.573      299362.8101      -3237.000          28.000  
> 2024 12 28  5 16  4.9960001  0 11                     
G 3  23677007.065      136821.963       -1375.000          32.000  
G 4  20831356.328     -742257.952        2520.000          44.000  
G 8  21345619.620     -974133.653        3827.000          38.000  
G 9  22997051.234    -1012193.5981       3485.000          28.000  
G16  19848594.372      246082.539        -398.000          41.000  
G18  24315407.786      -44652.7481        748.000          37.000  
G26  20946210.137      390802.574       -1262.000          44.000  
G27  19486178.688    -4282658.851        2276.000          45.000  
G28  22026807.750     1468211.179       -1175.000          43.000  
G31  20605045.362       82943.151        -273.000          47.000  
G32  24329199.530      302600.5501      -3237.000          27.000  
> 2024 12 28  5 16  5.9960001  0 11                     
G 3  23677268.086      138197.021       -1375.000          32.000  
G 4  20830877.180     -744777.777        2519.000          44.000  
G 8  21344891.946     -977961.137        3827.000          38.000  
G 9  22996385.264    -1015678.8011       3485.000          29.000  
G16  19848671.084      246481.273        -398.000          42.000  
G18  24315266.230      -45401.1871        748.000          37.000  
G26  20946450.321      392064.701       -1262.000          44.000  
G27  19485745.120    -4284934.992        2276.000          45.000  
G28  22027030.974     1469386.378       -1175.000          43.000  
G31  20605097.782       83216.917        -273.000          47.000  
G32  24329811.824      305838.0101      -3237.000          27.000  
> 2024 12 28  5 16  6.9960001  0 11                     
G 3  23677528.722      139572.166       -1375.000          31.000  
G 4  20830397.858     -747297.043        2519.000          44.000  
G 8  21344163.853     -981788.266        3827.000          38.000  
G 9  22995726.274    -1019163.3841       3484.000          30.000  
G16  19848746.887      246880.346        -399.000          42.000  
G18  24315125.441      -46149.154         747.000          37.000  
G26  20946690.436      393326.964       -1262.000          44.000  
G27  19485310.749    -4287210.437        2275.000          45.000  
G28  22027254.336     1470561.885       -1175.000          42.000  
G31  20605150.203       83491.026        -274.000          47.000  
G32  24330427.048      309075.4901      -3237.000          28.000  
> 2024 12 28  5 16  7.9960001  0 11                     
G 3  23677792.814      140947.342       -1375.000          32.000  
G 4  20829918.291     -749815.766        2518.000          44.000  
G 8  21343437.121     -985615.115        3826.000          39.000  
G 9  22995062.468    -1022647.7401       3484.000          29.000  
G16  19848822.656      247279.641        -399.000          41.000  
G18  24314983.676      -46896.664         747.000          36.000  
G26  20946930.586      394589.227       -1262.000          44.000  
G27  19484877.879    -4289485.288        2274.000          45.000  
G28  22027477.874     1471737.686       -1175.000          43.000  
G31  20605202.309       83765.396        -274.000          47.000  
G32  24331040.179      312312.9061      -3237.000          27.000  
> 2024 12 28  5 16  8.9960001  0 11                     
G 3  23678049.437      142322.577       -1375.000          32.000  
G 4  20829438.898     -752333.904        2518.000          44.000  
G 8  21342709.238     -989441.576        3826.000          38.000  
G 9  22994398.731    -1026131.7671       3484.000          30.000  
G16  19848898.844      247679.216        -399.000          42.000  
G18  24314839.746      -47643.782         747.000          36.000  
G26  20947170.597      395851.601       -1262.000          44.000  
G27  19484445.288    -4291759.494        2274.000          45.000  
G28  22027701.969     1472913.794       -1176.000          43.000  
G31  20605254.765       84040.093        -274.000          47.000  
G32  24331672.436      315550.4381      -3237.000          28.000  
> 2024 12 28  5 16  9.9960001  0 11                     
G 3  23678309.201      143698.059       -1375.000          32.000  
G 4  20828959.855     -754851.465        2517.000          44.000  
G 8  21341980.866     -993267.627        3826.000          38.000  
G 9  22993732.936    -1029615.2811       3483.000          30.000  
G16  19848974.997      248079.150        -399.000          41.000  
G18  24314697.981      -48390.359         746.000          36.000  
G26  20947410.467      397114.065       -1262.000          44.000  
G27  19484012.697    -4294032.933        2273.000          45.000  
G28  22027925.507     1474090.328       -1176.000          43.000  
G31  20605307.255       84315.132        -275.000          47.000  
G32  24332275.725      318787.8191      -3237.000          27.000  
> 2024 12 28  5 16 10.9960001  0 11                     
G 3  23678570.081      145073.635       -1375.000          30.000  
G 4  20828480.463     -757368.352        2516.000          44.000  
G 8  21341250.644     -997093.258        3825.000          37.000  
G 9  22993067.036    -1033098.3981       3483.000          31.000  
G16  19849050.835      248479.430        -400.000          42.000  
G18  24314556.145      -49136.401         746.000          35.000  
G26  20947650.722      398376.707       -1262.000          44.000  
G27  19483580.315    -4296305.692        2272.000          45.000  
G28  22028149.917     1475267.272       -1176.000          43.000  
G31  20605360.303       84590.610        -275.000          47.000  
G32  24332888.995      322025.6521      -3237.000          25.000  
> 2024 12 28  5 16 11.9960001  0 11                     
G 3  23678834.452      146449.250       -1375.000          29.000  
G 4  20828001.838     -759884.781        2516.000          44.000  
G 8  21340521.992    -1000918.625        3825.000          37.000  
G 9  22992402.008    -1036581.2501       3482.000          29.000  
G16  19849126.639      248879.934        -400.000          41.000  
G18  24314409.843      -49882.095         745.000          36.000  
G26  20947891.151      399639.325       -1262.000          44.000  
G27  19483148.457    -4298577.893        2272.000          44.000  
G28  22028374.291     1476444.403       -1177.000          43.000  
G31  20605412.898       84866.270        -275.000          47.000  
G32  24333504.813      325263.2461      -3237.000          25.000  
> 2024 12 28  5 16 12.9960001  0 11                     
G 3  23679087.934      147825.090       -1375.000          29.000  
G 4  20827522.969     -762400.561        2515.000          44.000  
G 8  21339795.749    -1004743.515        3824.000          38.000  
G 9  22991741.726    -1040063.541        3482.000          30.000  
G16  19849202.862      249280.781        -400.000          41.000  
G18  24314267.030      -50627.140         745.000          34.000  
G26  20948131.406      400902.162       -1262.000          44.000  
G27  19482716.355    -4300849.313        2271.000          45.000  
G28  22028598.422     1477622.033       -1177.000          43.000  
G31  20605465.842       85142.359        -276.000          47.000  
G32  24334114.803      328500.904       -3237.000          24.000  
> 2024 12 28  5 16 13.9960001  0 11                     
G 3  23679352.340      149200.947       -1375.000          29.000  
G 4  20827043.717     -764915.779        2515.000          43.000  
G 8  21339067.622    -1008568.038        3824.000          38.000  
G 9  22991077.152    -1043545.5041       3481.000          30.000  
G16  19849279.573      249681.936        -401.000          41.000  
G18  24314124.636      -51371.822         744.000          35.000  
G26  20948371.172      402165.030       -1262.000          44.000  
G27  19482284.113    -4303120.077        2270.000          45.000  
G28  22028822.518     1478799.925       -1177.000          43.000  
G31  20605519.135       85418.761        -276.000          47.000  
G32  24334736.240      331739.1011      -3238.000          26.000  
> 2024 12 28  5 16 14.9960001  0 11                     
G 3  23679617.653      150576.9911      -1376.000          31.000  
G 4  20826565.301     -767430.413        2514.000          43.000  
G 8  21338340.471    -1012392.200        3824.000          38.000  
G 9  22990420.431    -1047027.1321       3481.000          30.000  
G16  19849355.935      250083.392        -401.000          41.000  
G18  24313984.406      -52116.010         744.000          35.000  
G26  20948611.461      403427.984       -1262.000          44.000  
G27  19481852.011    -4305390.185        2270.000          45.000  
G28  22029047.521     1479978.158       -1178.000          44.000  
G31  20605571.661       85695.497        -276.000          47.000  
G32  24335358.829      334976.8431      -3237.000          28.000  
> 2024 12 28  5 16 15.9960001  0 11                     
G 3  23679885.025      151953.0321      -1376.000          32.000  
G 4  20826086.607     -769944.572        2514.000          43.000  
G 8  21337613.879    -1016216.104        3823.000          38.000  
G 9  22989747.585    -1050508.5401       3481.000          30.000  
G16  19849433.135      250485.055        -401.000          42.000  
G18  24313843.129      -52859.856         743.000          35.000  
G26  20948851.227      404690.976       -1262.000          44.000  
G27  19481420.293    -4307659.745        2269.000          45.000  
G28  22029271.582     1481156.688       -1178.000          44.000  
G31  20605624.674       85972.457        -276.000          47.000  
G32  24335969.342      338214.5421      -3237.000          28.000  
> 2024 12 28  5 16 16.9960001  0 11                     
G 3  23680146.150      153329.0121      -1375.000          31.000  
G 4  20825607.145     -772458.327        2513.000          43.000  
G 8  21336886.030    -1020039.764        3823.000          38.000  
G 9  22989094.668    -1053989.5891       3481.000          30.000  
G16  19849509.601      250886.845        -401.000          42.000  
G18  24313701.538      -53603.327         743.000          35.000  
G26  20949090.714      405953.879       -1262.000          44.000  
G27  19480988.504    -4309928.747        2269.000          45.000  
G28  22029495.817     1482335.375       -1178.000          44.000  
G31  20605677.339       86249.597        -277.000          47.000  
G32  24336579.437      341452.0371      -3237.000          28.000  
> 2024 12 28  5 16 17.9960001  0 11                     
G 3  23680408.078      154704.8961      -1375.000          31.000  
G 4  20825128.834     -774971.688        2513.000          43.000  
G 8  21336158.321    -1023863.320        3823.000          38.000  
G 9  22988430.862    -1057470.5981       3481.000          30.000  
G16  19849584.952      251288.692        -401.000          42.000  
G18  24313563.437      -54346.555         743.000          37.000  
G26  20949330.864      407216.648       -1262.000          44.000  
G27  19480556.367    -4312197.334        2268.000          45.000  
G28  22029719.738     1483514.168       -1178.000          44.000  
G31  20605730.039       86526.841        -277.000          47.000  
G32  24337200.002      344689.4971      -3237.000          29.000  
> 2024 12 28  5 16 18.9960001  0 11                     
G 3  23680674.299      156080.789       -1375.000          31.000  
G 4  20824649.931     -777484.664        2512.000          43.000  
G 8  21335429.426    -1027686.593        3823.000          38.000  
G 9  22987769.987    -1060951.2021       3480.000          29.000  
G16  19849661.732      251690.771        -402.000          42.000  
G18  24313424.708      -55089.415         742.000          36.000  
G26  20949571.223      408479.374       -1262.000          44.000  
G27  19480124.544    -4314465.366        2268.000          45.000  
G28  22029944.602     1484693.228       -1179.000          44.000  
G31  20605782.005       86804.260        -277.000          47.000  
G32  24337820.950      347927.225       -3237.000          29.000  
> 2024 12 28  5 16 19.9960001  0 11                     
G 3  23680929.386      157456.714       -1375.000          30.000  
G 4  20824171.725     -779997.093        2512.000          43.000  
G 8  21334701.996    -1031509.617        3823.000          38.000  
G 9  22987104.401    -1064431.6911       3480.000          30.000  
G16  19849738.164      252093.031        -402.000          42.000  
G18  24313285.106      -55831.896         742.000          36.000  
G26  20949811.652      409742.146       -1262.000          44.000  
G27  19479692.197    -4316732.810        2267.000          44.000  
G28  22030169.535     1485872.521       -1179.000          44.000  
G31  20605834.496       87081.946        -277.000          47.000  
G32  24338447.413      351164.391       -3237.000          29.000  
> 2024 12 28  5 16 20.9960001  0 11                     
G 3  23681195.397      158832.802       -1376.000          30.000  
G 4  20823694.008     -782508.832        2511.000          43.000  
G 8  21333974.147    -1035332.076        3822.000          38.000  
G 9  22986453.194    -1067911.5481       3479.000          29.000  
G16  19849815.504      252495.681        -402.000          42.000  
G18  24313143.480      -56573.810         741.000          36.000  
G26  20950052.221      411005.093       -1262.000          45.000  
G27  19479260.165    -4318999.456        2266.000          44.000  
G28  22030394.154     1487052.278       -1179.000          43.000  
G31  20605887.126       87360.075        -278.000          47.000  
G32  24339061.277      354401.810       -3237.000          29.000  
> 2024 12 28  5 16 21.9960001  0 11                     
G 3  23681459.105      160208.872       -1376.000          30.000  
G 4  20823216.500     -785020.150        2511.000          43.000  
G 8  21333247.276    -1039154.400        3822.000          39.000  
G 9  22985777.731    -1071391.2661       3479.000          28.000  
G16  19849892.634      252898.519        -402.000          42.000  
G18  24313002.203      -57315.419         741.000          36.000  
G26  20950292.475      412267.985       -1262.000          45.000  
G27  19478828.761    -4321265.603        2266.000          45.000  
G28  22030619.053     1488232.207       -1179.000          44.000  
G31  20605939.755       87638.390        -278.000          47.000  
G32  24339666.694      357639.030       -3237.000          29.000  
> 2024 12 28  5 16 22.9960001  0 11                     
G 3  23681718.799      161585.024       -1376.000          30.000  
G 4  20822738.748     -787530.910        2510.000          43.000  
G 8  21332521.661    -1042976.300        3821.000          39.000  
G 9  22985108.201    -1074870.4951       3479.000          29.000  
G16  19849969.380      253301.661        -403.000          42.000  
G18  24312854.784      -58056.519         741.000          35.000  
G26  20950533.428      413530.981       -1262.000          45.000  
G27  19478398.334    -4323531.067        2265.000          45.000  
G28  22030843.253     1489412.492       -1180.000          43.000  
G31  20605992.560       87917.044        -278.000          47.000  
G32  24340285.130      360876.4041      -3237.000          29.000  
> 2024 12 28  5 16 23.9960001  0 11                     
G 3  23681988.335      162961.271       -1376.000          30.000  
G 4  20822261.449     -790041.084        2510.000          43.000  
G 8  21331795.592    -1046797.859        3821.000          39.000  
G 9  22984452.282    -1078349.4491       3478.000          29.000  
G16  19850045.882      253705.089        -403.000          42.000  
G18  24312709.982      -58797.175         740.000          35.000  
G26  20950773.194      414794.070       -1263.000          44.000  
G27  19477967.976    -4325795.869        2264.000          45.000  
G28  22031067.837     1490593.112       -1180.000          43.000  
G31  20606046.027       88196.015        -278.000          47.000  
G32  24340902.798      364113.7031      -3237.000          29.000  
> 2024 12 28  5 16 24.9960001  0 11                     
G 3  23682244.539      164337.771       -1376.000          29.000  
G 4  20821784.046     -792550.590        2509.000          43.000  
G 8  21331068.581    -1050618.906        3821.000          39.000  
G 9  22983781.007    -1081827.8171       3478.000          28.000  
G16  19850122.558      254108.899        -403.000          42.000  
G18  24312571.532      -59537.221         740.000          35.000  
G26  20951013.902      416057.347       -1263.000          45.000  
G27  19477538.073    -4328059.894        2264.000          45.000  
G28  22031292.526     1491774.202       -1181.000          43.000  
G31  20606099.250       88475.417        -279.000          47.000  
G32  24341510.729      367351.075       -3237.000          28.000  
> 2024 12 28  5 16 25.9960001  0 11                     
G 3  23682501.301      165714.511       -1376.000          29.000  
G 4  20821306.329     -795059.367        2508.000          43.000  
G 8  21330342.059    -1054439.495        3820.000          40.000  
G 9  22983123.378    -1085305.7161       3477.000          28.000  
G16  19850198.885      254513.143        -404.000          42.000  
G18  24312425.578      -60276.599         739.000          33.000  
G26  20951255.029      417320.824       -1263.000          44.000  
G27  19477108.169    -4330323.136        2263.000          46.000  
G28  22031517.390     1492955.743       -1181.000          43.000  
G31  20606152.474       88755.260        -279.000          47.000  
G32  24342134.190      370588.710       -3237.000          29.000  
> 2024 12 28  5 16 26.9960001  0 11                     
G 3  23682753.492      167091.2801      -1376.000          28.000  
G 4  20820828.298     -797567.678        2508.000          43.000  
G 8  21329614.175    -1058259.742        3820.000          40.000  
G 9  22982465.086    -1088783.3441       3477.000          28.000  
G16  19850275.806      254917.609        -404.000          41.000  
G18  24312283.045      -61015.710         739.000          34.000  
G26  20951495.842      418584.339       -1263.000          45.000  
G27  19476678.621    -4332585.754        2262.000          46.000  
G28  22031743.161     1494137.543       -1181.000          44.000  
G31  20606206.395       89035.362        -280.000          47.000  
G32  24342745.890      373826.220       -3237.000          29.000  
> 2024 12 28  5 16 27.9960001  0 11                     
G 3  23683018.596      168468.1221      -1376.000          28.000  
G 4  20820350.406     -800075.440        2507.000          43.000  
G 8  21328888.421    -1062079.716        3819.000          39.000  
G 9  22981797.057    -1092260.6321       3477.000          29.000  
G16  19850352.447      255322.304        -404.000          41.000  
G18  24312151.470      -61754.280         738.000          35.000  
G26  20951735.748      419847.877       -1263.000          44.000  
G27  19476248.163    -4334847.791        2262.000          46.000  
G28  22031967.850     1495319.621       -1182.000          44.000  
G31  20606260.107       89315.734        -280.000          47.000  
G32  24343364.326      377063.806       -3237.000          29.000  
> 2024 12 28  5 16 28.9960001  0 11                     
G 3  23683283.455      169845.0281      -1376.000          29.000  
G 4  20819873.492     -802582.771        2507.000          43.000  
G 8  21328161.515    -1065899.403        3819.000          39.000  
G 9  22981138.171    -1095737.6851       3477.000          30.000  
G16  19850429.472      255727.185        -404.000          41.000  
G18  24312008.623      -62492.623         738.000          34.000  
G26  20951976.247      421111.377       -1263.000          44.000  
G27  19475817.813    -4337109.278        2261.000          46.000  
G28  22032193.097     1496501.935       -1182.000          43.000  
G31  20606313.609       89596.320        -280.000          47.000  
G32  24343984.786      380301.209       -3237.000          31.000  
> 2024 12 28  5 16 29.9960001  0 11                     
G 3  23683541.718      171221.8051      -1376.000          28.000  
G 4  20819397.031     -805089.676        2506.000          43.000  
G 8  21327431.956    -1069718.863        3819.000          39.000  
G 9  22980484.242    -1099214.4921       3476.000          30.000  
G16  19850506.114      256132.221        -405.000          41.000  
G18  24311870.871      -63230.571         737.000          35.000  
G26  20952217.095      422374.824       -1263.000          45.000  
G27  19475387.562    -4339370.227        2260.000          46.000  
G28  22032418.344     1497684.437       -1182.000          43.000  
G31  20606366.832       89877.091        -280.000          47.000  
G32  24344600.360      383538.516       -3237.000          30.000  
> 2024 12 28  5 16 30.9960001  0 11                     
G 3  23683807.520      172598.6641      -1376.000          28.000  
G 4  20818920.815     -807595.926        2506.000          43.000  
G 8  21326704.736    -1073537.942        3819.000          39.000  
G 9  22979825.531    -1102690.8481       3476.000          30.000  
G16  19850583.942      256537.558        -405.000          41.000  
G18  24311732.735      -63968.014         737.000          35.000  
G26  20952457.245      423638.409       -1263.000          44.000  
G27  19474957.450    -4341630.461        2260.000          46.000  
G28  22032643.173     1498867.356       -1182.000          43.000  
G31  20606420.579       90158.229        -281.000          47.000  
G32  24345210.803      386775.909       -3237.000          29.000  
> 2024 12 28  5 16 31.9960001  0 11                     
G 3  23684070.600      173975.8091      -1377.000          28.000  
G 4  20818444.179     -810101.543        2505.000          43.000  
G 8  21325977.934    -1077356.578        3818.000          39.000  
G 9  22979162.388    -1106166.6681       3475.000          30.000  
G16  19850660.478      256943.324        -405.000          41.000  
G18  24311603.429      -64704.884         736.000          36.000  
G26  20952697.604      424902.177       -1263.000          44.000  
G27  19474527.484    -4343889.969        2259.000          46.000  
G28  22032868.735     1500050.647       -1183.000          43.000  
G31  20606474.430       90439.767        -281.000          47.000  
G32  24345833.950      390013.392       -3237.000          29.000  
> 2024 12 28  5 16 32.9960001  0 11                     
G 3  23684338.879      175352.9341      -1377.000          26.000  
G 4  20817967.090     -812606.538        2504.000          43.000  
G 8  21325251.516    -1081174.764        3818.000          39.000  
G 9  22978504.375    -1109642.1671       3475.000          32.000  
G16  19850735.759      257349.418        -406.000          42.000  
G18  24311459.918      -65441.283         736.000          36.000  
G26  20952938.068      426166.056       -1263.000          44.000  
G27  19474097.657    -4346148.765        2258.000          46.000  
G28  22033094.191     1501234.339       -1183.000          43.000  
G31  20606528.002       90721.673        -281.000          47.000  
G32  24346447.884      393250.9671      -3237.000          30.000  
> 2024 12 28  5 16 33.9960001  0 11                     
G 3  23684602.482      176730.2271      -1377.000          28.000  
G 4  20817489.687     -815111.134        2504.000          43.000  
G 8  21324526.181    -1084992.771        3818.000          39.000  
G 9  22977846.153    -1113117.5081       3475.000          31.000  
G16  19850813.079      257755.635        -406.000          41.000  
G18  24311319.130      -66177.371         736.000          36.000  
G26  20953178.148      427429.848       -1263.000          44.000  
G27  19473667.933    -4348407.045        2258.000          46.000  
G28  22033319.299     1502418.210       -1183.000          44.000  
G31  20606581.644       91003.744        -282.000          47.000  
G32  24347073.195      396488.4421      -3237.000          30.000  
> 2024 12 28  5 16 34.9960001  0 11                     
G 3  23684858.023      178107.1841      -1376.000          28.000  
G 4  20817012.005     -817615.213        2504.000          43.000  
G 8  21323801.368    -1088810.529        3817.000          39.000  
G 9  22977184.929    -1116592.3781       3474.000          31.000  
G16  19850890.473      258162.220        -406.000          42.000  
G18  24311176.143      -66912.724         735.000          35.000  
G26  20953418.891      428693.961       -1264.000          44.000  
G27  19473238.336    -4350664.662        2257.000          46.000  
G28  22033544.721     1503602.635       -1184.000          44.000  
G31  20606635.216       91286.325        -282.000          47.000  
G32  24347694.597      399725.9711      -3237.000          29.000  
> 2024 12 28  5 16 35.9960001  0 11                     
G 3  23685117.159      179482.2771      -1375.000          28.000  
G 4  20816535.684     -820119.673        2504.000          42.000  
G 8  21323074.776    -1092629.826        3819.000          37.000  
G 9  22976517.458    -1120067.8661       3475.000          31.000  
G16  19850967.980      258569.396        -407.000          41.000  
G18  24311037.344      -67644.634         731.000          37.000  
G26  20953660.123      429959.994       -1266.000          44.000  
G27  19472808.754    -4352922.209        2257.000          46.000  
G28  22033770.771     1504789.558       -1186.000          44.000  
G31  20606689.103       91571.154        -284.000          46.000  
G32  24348292.267      402963.5031      -3237.000          26.000  
> 2024 12 28  5 16 36.9960001  0 11                     
G 3  23685385.613      180853.6111      -1370.000          28.000  
G 4  20816059.747     -822626.078        2506.000          42.000  
G 8  21322346.439    -1096453.312        3823.000          38.000  
G 9  22975857.107    -1123543.8731       3476.000          28.000  
G16  19851045.574      258977.085        -407.000          42.000  
G18  24310895.020      -68370.057         725.000          36.000  
G26  20953901.879      431229.660       -1269.000          43.000  
G27  19472379.007    -4355180.624        2258.000          45.000  
G28  22033997.135     1505981.028       -1191.000          43.000  
G31  20606743.617       91860.010        -288.000          46.000  
G32  24348902.571      406200.6901      -3237.000          29.000  
> 2024 12 28  5 16 37.9960001  0 11                     
G 3  23685647.750      182215.8311      -1362.000          27.000  
G 4  20815582.728     -825134.606        2508.000          43.000  
G 8  21321616.776    -1100281.4251       3828.000          37.000  
G 9  22975204.609    -1127018.5171       3474.000          24.000  
G16  19851123.325      259385.626        -408.000          41.000  
G18  24310758.559      -69087.819         717.000          38.000  
G26  20954144.925      432503.912       -1274.000          43.000  
G27  19471949.073    -4357440.007        2259.000          45.000  
G28  22034224.826     1507177.904       -1196.000          42.000  
G31  20606799.667       92153.771        -293.000          46.000  
G32  24349514.864      409438.1381      -3237.000          34.000  
> 2024 12 28  5 16 38.9960001  0 11                     
G 3  23685897.742      183575.8291      -1359.000          28.000  
G 4  20815105.778     -827645.306        2510.000          43.000  
G 8  21320886.798    -1104114.2121       3832.000          37.000  
G 9  22974551.936    -1130493.2861       3474.000          23.000  
G16  19851201.184      259794.782        -409.000          41.000  
G18  24310623.564      -69797.958         710.000          40.000  
G26  20954388.286      433782.539       -1278.000          42.000  
G27  19471518.924    -4359700.517        2260.000          45.000  
G28  22034453.459     1508380.201       -1202.000          43.000  
G31  20606856.346       92452.248        -298.000          46.000  
G32  24350136.895      412675.7621      -3237.000          33.000  
> 2024 12 28  5 16 39.9960001  0 11                     
G 3  23686164.032      184931.0501      -1355.000          26.000  
G 4  20814627.572     -830158.210        2512.000          43.000  
G 8  21320156.576    -1107951.8571       3837.000          37.000  
G 9  22973886.629    -1133966.5151       3473.000          21.000  
G16  19851279.240      260205.001        -410.000          41.000  
G18  24310490.943      -70499.802         701.000          38.000  
G26  20954632.065      435066.148       -1283.000          43.000  
G27  19471088.624    -4361961.805        2261.000          45.000  
G28  22034683.173     1509588.588       -1208.000          43.000  
G31  20606914.350       92756.172        -303.000          46.000  
G32  24350745.105      415914.0651      -3238.000          30.000  
> 2024 12 28  5 16 40.9960001  0 11                     
G 3  23686417.165      186275.1771      -1344.000          28.000  
G 4  20814148.669     -832673.512        2515.000          43.000  
G 8  21319425.063    -1111794.6921       3842.000          37.000  
G 9  22973272.486    -1137436.5861       3470.000          18.000  
G16  19851357.466      260616.116        -411.000          42.000  
G18  24310359.577      -71193.333         693.000          37.000  
G26  20954877.695      436354.736       -1288.000          43.000  
G27  19470658.102    -4364224.246        2262.000          45.000  
G28  22034914.598     1510802.876       -1214.000          43.000  
G31  20606972.878       93065.434        -309.000          45.000  
G32  24351363.610      419151.9771      -3237.000          35.000  
> 2024 12 28  5 16 41.9960001  0 10                     
G 3  23686658.990      187609.5701      -1334.000          29.000  
G 4  20813669.939     -835190.651        2517.000          43.000  
G 8  21318692.224    -1115641.8341       3847.000          38.000  
G16  19851435.884      261028.244        -412.000          42.000  
G18  24310229.538      -71879.071         685.000          37.000  
G26  20955123.813      437647.988       -1293.000          44.000  
G27  19470227.474    -4366487.233        2262.000          46.000  
G28  22035146.930     1512022.856       -1219.000          44.000  
G31  20607032.837       93379.786        -314.000          46.000  
G32  24351973.810      422389.4381      -3237.000          34.000  
> 2024 12 28  5 16 42.9960001  0 10                     
G 4  20813190.791     -837709.225        2518.000          44.000  
G 8  21317959.664    -1119492.263        3850.000          38.000  
G 9  22971883.937    -1144367.7201       3462.000          18.000  
G16  19851514.495      261441.395        -413.000          42.000  
G18  24310090.041      -72558.4381        679.000          37.000  
G26  20955370.628      438945.079       -1297.000          44.000  
G27  19469796.798    -4368750.470        2263.000          46.000  
G28  22035380.065     1513247.523       -1224.000          44.000  
G31  20607093.459       93698.389        -318.000          46.000  
G32  24352580.379      425630.0961      -3241.000          30.000  
> 2024 12 28  5 16 43.9960001  0 10                     
G 4  20812711.853     -840228.720        2519.000          43.000  
G 8  21317226.371    -1123344.7071       3852.000          37.000  
G 9  22971207.113    -1147840.7201       3473.000          19.000  
G16  19851593.126      261854.660        -413.000          41.000  
G18  24309964.958      -73234.5531        676.000          34.000  
G26  20955617.305      440243.846       -1298.000          43.000  
G27  19469366.061    -4371014.030        2263.000          45.000  
G28  22035613.863     1514474.513       -1226.000          43.000  
G31  20607154.535       94019.027        -320.000          46.000  
G32  24353184.436      428876.8951      -3246.000          18.000  
> 2024 12 28  5 16 44.9960001  0 10                     
G 4  20812231.902     -842748.879        2520.000          44.000  
G 8  21316491.961    -1127198.3991       3853.000          37.000  
G 9  22970522.262    -1151313.8111       3473.000          15.000  
G16  19851671.815      262268.238        -413.000          41.000  
G18  24309832.336      -73907.1491        672.000          36.000  
G26  20955864.749      441544.261       -1300.000          43.000  
G27  19468935.380    -4373277.286        2263.000          45.000  
G28  22035848.604     1515704.213       -1229.000          43.000  
G31  20607215.925       94341.810        -322.000          46.000  
G32  24353769.856      432135.7401      -3258.000          13.000  
> 2024 12 28  5 16 45.9960001  0  9                     
G 4  20811752.440     -845270.372        2521.000          44.000  
G 8  21315758.772    -1131052.9121       3854.000          38.000  
G 9  22969832.420    -1154775.0401       3461.000          17.000  
G16  19851750.497      262681.809        -413.000          41.000  
G18  24309713.605      -74576.0291        668.000          36.000  
G26  20956112.786      442846.214       -1301.000          43.000  
G27  19468504.825    -4375539.870        2262.000          45.000  
G28  22036083.100     1516937.241       -1233.000          43.000  
G31  20607278.048       94667.088        -325.000          46.000  
> 2024 12 28  5 16 46.9960001  0  9                     
G 4  20811272.629     -847793.128        2522.000          42.000  
G 8  21315025.235    -1134908.5661       3855.000          38.000  
G 9  22969214.124    -1158247.5101       3472.000          23.000  
G16  19851829.110      263095.019        -413.000          41.000  
G18  24309588.138      -75241.8371        665.000          36.000  
G26  20956360.719      444149.296       -1303.000          43.000  
G27  19468074.314    -4377802.235        2262.000          45.000  
G28  22036318.433     1518172.802       -1235.000          42.000  
G31  20607340.450       94994.386        -327.000          46.000  
> 2024 12 28  5 16 47.9960001  0 10                     
G 3  23688170.982        3664.8681      -1312.000          29.000  
G 4  20810792.643     -850315.731        2522.000          42.000  
G 8  21314293.303    -1138764.1991       3855.000          38.000  
G 9  22968589.371    -1161729.7201       3482.000          21.000  
G16  19851907.775      263508.477        -413.000          41.000  
G18  24309461.868      -75906.9921        665.000          37.000  
G26  20956608.477      445452.542       -1303.000          44.000  
G27  19467643.918    -4380063.996        2261.000          46.000  
G28  22036553.383     1519408.978       -1236.000          43.000  
G31  20607402.991       95322.234        -327.000          46.000  
> 2024 12 28  5 16 48.9960001  0 10                     
G 3  23688424.185        4979.2081      -1314.000          30.000  
G 4  20810310.319     -852836.7941       2521.000          39.000  
G 8  21313560.045    -1142619.4771       3855.000          38.000  
G 9  22967955.614    -1165207.7291       3478.000          18.000  
G16  19851985.264      263922.7861       -414.000          40.000  
G18  24309335.424      -76572.739         665.000          38.000  
G26  20956856.514      446755.702       -1303.000          44.000  
G27  19467213.579    -4382325.459        2261.000          46.000  
G28  22036788.577     1520644.100       -1235.000          43.000  
G31  20607465.637       95649.498        -327.000          46.000  
> 2024 12 28  5 16 49.9960001  0 10                     
G 3  23688669.919        6295.3271      -1316.000          29.000  
G 4  20809825.482     -855356.2341       2519.000          42.000  
G 8  21312826.961    -1146473.2561       3853.000          38.000  
G 9  22967273.799    -1168674.2441       3466.000          19.000  
G16  19852063.231      264337.1681       -414.000          39.000  
G18  24309208.701      -77240.015         667.000          39.000  
G26  20957098.305      448057.905       -1302.000          39.000  
G27  19466783.413    -4384586.015        2260.000          46.000  
G28  22037022.968     1521877.850       -1233.000          44.000  
G31  20607527.446       95975.654        -326.000          46.000  
> 2024 12 28  5 16 50.9960001  0 10                     
G 3  23688921.341        7615.4191      -1320.000          31.000  
G 4  20809349.684     -857872.8661       2516.000          43.000  
G 8  21312092.831    -1150324.4591       3851.000          38.000  
G 9  22966575.371    -1172150.0151       3475.000          32.000  
G16  19852142.665      264752.4491       -415.000          41.000  
G18  24309081.977      -77910.687         670.000          39.000  
G26  20957351.914      449358.182       -1300.000          41.000  
G27  19466353.480    -4386845.340        2259.000          45.000  
G28  22037256.906     1523108.736       -1230.000          44.000  
G31  20607588.350       96299.725        -324.000          45.000  
> 2024 12 28  5 16 51.9960001  0 10                     
G 3  23689177.196        8940.7481      -1325.000          29.000  
G 4  20808873.189     -860386.8331       2513.000          44.000  
G 8  21311360.375    -1154172.0781       3847.000          38.000  
G 9  22965904.829    -1175634.9961       3484.000          34.000  
G16  19852222.028      265167.7871       -415.000          42.000  
G18  24308952.880      -78586.276         675.000          37.000  
G26  20957598.820      450655.682       -1297.000          43.000  
G27  19465923.851    -4389103.068        2257.000          45.000  
G28  22037490.390     1524335.950       -1227.000          44.000  
G31  20607649.441       96620.757        -321.000          46.000  
> 2024 12 28  5 16 52.9960001  0 11                     
G 3  23689408.482       10271.1601      -1330.000          19.000  
G 4  20808396.204     -862898.1081       2511.000          44.000  
G 8  21310628.513    -1158014.4211       3842.000          38.000  
G 9  22965238.056    -1179118.0031       3483.000          35.000  
G16  19852300.519      265582.5581       -414.000          42.000  
G18  24308820.573      -79268.079         681.000          37.000  
G26  20957844.884      451948.766       -1293.000          44.000  
G27  19465494.638    -4391358.609        2255.000          45.000  
G28  22037723.106     1525558.748       -1222.000          44.000  
G31  20607709.757       96937.699        -316.000          46.000  
G32  24358767.110        9038.8741      -3240.000          28.000  
> 2024 12 28  5 16 53.9960001  0 10                     
G 4  20807918.976     -865408.3201       2510.000          42.000  
G 8  21309899.548    -1161848.9111       3834.000          40.000  
G 9  22964575.751    -1182601.6561       3483.000          38.000  
G16  19852379.011      265995.0901       -412.000          40.000  
G18  24308682.507      -79956.503         688.000          37.000  
G26  20958089.787      453235.734       -1286.000          43.000  
G27  19465066.181    -4393610.203        2251.000          46.000  
G28  22037955.892     1526778.708       -1219.000          41.000  
G31  20607769.328       97250.720        -313.000          46.000  
G32  24359386.418       12280.5711      -3241.000          30.000  
> 2024 12 28  5 16 54.9960001  0 11                     
G 3  23689923.647       12944.9771      -1338.000          17.000  
G 4  20807441.329     -867918.571        2510.000          41.000  
G 8  21309171.699    -1165673.615        3824.000          40.000  
G 9  22963913.166    -1186088.3691       3486.000          37.000  
G16  19852456.524      266404.031        -408.000          41.000  
G18  24308560.146      -80652.550         696.000          34.000  
G26  20958333.217      454514.976       -1279.000          39.000  
G27  19464638.653    -4395856.908        2246.000          46.000  
G28  22038187.491     1527995.968       -1217.000          41.000  
G31  20607828.065       97559.374        -308.000          45.000  
G32  24360001.712       15528.5351      -3247.000          33.000  
> 2024 12 28  5 16 55.9960001  0 11                     
G 3  23690172.906       14287.6551      -1342.000          19.000  
G 4  20806965.287     -870430.327        2511.000          41.000  
G 8  21308446.573    -1169489.216        3815.000          43.000  
G 9  22963258.120    -1189578.2471       3489.000          33.000  
G16  19852533.864      266808.562        -404.000          43.000  
G18  24308421.731      -81355.643         703.000          33.000  
G26  20958575.134      455786.282       -1271.000          39.000  
G27  19464211.966    -4398099.183        2242.000          45.000  
G28  22038417.101     1529211.140       -1215.000          39.000  
G31  20607885.981       97863.723        -304.000          44.000  
G32  24360617.147       18784.1871      -3255.000          35.000  
> 2024 12 28  5 16 56.9960001  0 11                     
G 3  23690399.689       15645.6531      -1357.000          16.000  
G 4  20806487.465     -872941.764        2511.000          40.000  
G 8  21307722.598    -1173295.005        3805.000          42.000  
G 9  22962588.101    -1193069.9261       3491.000          30.000  
G16  19852610.470      267209.345        -400.000          44.000  
G18  24308278.988      -82067.3301        711.000          35.000  
G26  20958815.416      457048.975       -1262.000          41.000  
G27  19463786.178    -4400336.719        2237.000          45.000  
G28  22038647.694     1530422.699       -1211.000          40.000  
G31  20607942.867       98162.685        -298.000          41.000  
G32  24361238.235       22045.6451      -3261.000          36.000  
> 2024 12 28  5 16 57.9960001  0 11                     
G 3  23690716.201       17021.8841      -1376.000          20.000  
G 4  20806009.748     -875453.194        2511.000          39.000  
G 8  21307000.752    -1177093.061        3798.000          39.000  
G 9  22961905.903    -1196556.0051       3486.000          23.000  
G16  19852686.518      267606.759        -397.000          43.000  
G18  24308149.403      -82786.2091        718.000          27.000  
G26  20959054.401      458304.807       -1255.000          42.000  
G27  19463361.055    -4402570.782        2234.000          45.000  
G28  22038877.658     1531631.180       -1208.000          43.000  
G31  20607998.927       98457.319        -294.000          40.000  
G32  24361859.323       25311.3951      -3265.000          30.000  
> 2024 12 28  5 16 58.9960001  0 11                     
G 3  23690992.542       18404.9161      -1383.000          23.000  
G 4  20805531.018     -877967.4201       2514.000          38.000  
G 8  21306268.471    -1180885.4721       3792.000          40.000  
G 9  22961271.308    -1200035.5941       3479.000          26.000  
G16  19852761.484      267999.999        -393.000          43.000  
G18  24308014.826      -83503.5011        717.000          26.000  
G26  20959292.374      459555.302       -1250.000          42.000  
G27  19462936.596    -4404801.355        2230.000          44.000  
G28  22039107.845     1532840.879       -1209.000          43.000  
G31  20608054.720       98750.536        -293.000          43.000  
G32  24362483.552       28583.8111      -3272.000          34.000  
> 2024 12 28  5 16 59.9960001  0 11                     
G 3  23691231.645       19786.2021      -1381.000          23.000  
G 4  20805050.928     -880486.3471       2518.000          40.000  
G 8  21305545.439    -1184672.6511       3787.000          36.000  
G 9  22960591.762    -1203512.5881       3476.000          26.000  
G16  19852835.404      268389.177        -389.000          43.000  
G18  24307879.762      -84222.6941        719.000          27.000  
G26  20959529.650      460802.114       -1246.000          42.000  
G27  19462512.779    -4407028.577        2227.000          45.000  
G28  22039337.495     1534054.2011      -1213.000          41.000  
G31  20608110.581       99044.126        -293.000          43.000  
G32  24363109.387       31864.6581      -3280.000          35.000  
> 2024 12 28  5 17  0.9960001  0 11                     
G 3  23691510.081       21166.1711      -1379.000          21.000  
G 4  20804569.825     -883008.8431       2523.000          39.000  
G 8  21304839.264    -1188455.9061       3783.000          40.000  
G 9  22959932.806    -1206989.0311       3476.000          24.000  
G16  19852909.881      268774.541        -385.000          43.000  
G18  24307730.946      -84941.0951        718.000          29.000  
G26  20959766.308      462045.685       -1243.000          42.000  
G27  19462089.529    -4409252.814        2224.000          45.000  
G28  22039568.118     1535271.184       -1216.000          41.000  
G31  20608166.600       99338.551        -294.000          42.000  
G32  24363743.144       35152.5781      -3287.000          34.000  
> 2024 12 28  5 17  1.9960001  0 11                     
G 3  23691744.612       22539.3161      -1373.000          19.000  
G 4  20804089.944     -885535.5431       2526.000          39.000  
G 8  21304111.031    -1192235.5071       3779.000          39.000  
G 9  22959288.544    -1210461.5271       3472.000          25.000  
G16  19852982.474      269156.525        -381.000          43.000  
G18  24307606.456      -85660.7991        719.000          28.000  
G26  20960002.428      463286.438       -1240.000          41.000  
G27  19461666.813    -4411474.265        2221.000          45.000  
G28  22039799.752     1536491.1701      -1219.000          42.000  
G31  20608222.738       99633.588        -295.000          42.000  
G32  24364362.871       38446.7051      -3294.000          36.000  
> 2024 12 28  5 17  2.9960001  0 11                     
G 3  23692039.974       23909.0661      -1369.000          20.000  
G 4  20803608.388     -888063.7451       2528.000          40.000  
G 8  21303394.525    -1196013.0501       3777.000          39.000  
G 9  22958608.440    -1213937.9581       3476.000          23.000  
G16  19853054.927      269537.028        -380.000          43.000  
G18  24307467.378      -86379.4501        718.000          29.000  
G26  20960238.269      464525.703       -1239.000          42.000  
G27  19461244.391    -4413694.173        2219.000          45.000  
G28  22040032.538     1537713.2251      -1222.000          40.000  
G31  20608278.970       99929.123        -295.000          43.000  
G32  24364989.543       41744.1721      -3297.000          37.000  
> 2024 12 28  5 17  3.9960001  0 10                     
G 4  20803126.937     -890593.0641       2529.000          40.000  
G 8  21302678.578    -1199788.9381       3775.000          40.000  
G 9  22957913.712    -1217408.4761       3470.000          22.000  
G16  19853127.101      269916.367        -379.000          43.000  
G18  24307329.731      -87095.3911        715.000          29.000  
G26  20960473.942      465764.069       -1238.000          42.000  
G27  19460822.285    -4415912.412        2218.000          45.000  
G28  22040265.603     1538936.9131      -1223.000          42.000  
G31  20608335.359      100225.461        -296.000          41.000  
G32  24365618.414       45044.1881      -3300.000          38.000  
> 2024 12 28  5 17  4.9960001  0 10                     
G 4  20802645.031     -893123.3111       2530.000          39.000  
G 8  21301961.374    -1203562.6811       3773.000          39.000  
G 9  22957259.922    -1220867.2371       3458.000          22.000  
G16  19853199.380      270294.8361       -378.000          43.000  
G18  24307194.422      -87806.3761        710.000          26.000  
G26  20960709.495      467001.799       -1237.000          42.000  
G27  19460400.471    -4418129.120        2216.000          45.000  
G28  22040498.493     1540162.5941      -1225.000          41.000  
G31  20608391.899      100522.584        -297.000          42.000  
G32  24366246.657       48347.0061      -3302.000          38.000  
> 2024 12 28  5 17  5.9960001  0 10                     
G 4  20802163.091     -895654.1891       2530.000          40.000  
G 8  21301244.275    -1207335.5671       3772.000          42.000  
G 9  22956578.246    -1224320.1351       3452.000          21.000  
G16  19853271.136      270672.7181       -377.000          43.000  
G18  24307070.944      -88518.9501        712.000          28.000  
G26  20960949.987      468240.6711      -1238.000          38.000  
G27  19459978.971    -4420344.172        2215.000          45.000  
G28  22040732.082     1541390.1461      -1227.000          41.000  
G31  20608448.648      100820.825        -298.000          42.000  
G32  24366875.458       51652.0221      -3305.000          37.000  
> 2024 12 28  5 17  6.9960001  0  8                     
G 4  20801681.326     -898184.5791       2530.000          39.000  
G 8  21300527.734    -1211108.286        3772.000          42.000  
G16  19853343.100      271051.109        -378.000          43.000  
G18  24306916.684      -89233.4441        713.000          28.000  
G27  19459557.572    -4422558.690        2214.000          45.000  
G28  22040966.089     1542618.436       -1228.000          43.000  
G31  20608505.529      101119.750        -298.000          43.000  
G32  24367504.748       54956.737       -3305.000          37.000  
> 2024 12 28  5 17  7.9960001  0  9                     
G 4  20801200.188     -900713.3391       2528.000          40.000  
G 8  21299810.251    -1214881.153        3772.000          42.000  
G16  19853414.576      271430.641        -379.000          43.000  
G18  24306789.053      -89947.4531        714.000          34.000  
G26  20961435.975      470717.9511      -1234.000          17.000  
G27  19459136.261    -4424772.745        2214.000          45.000  
G28  22041200.516     1543846.848       -1228.000          43.000  
G31  20608562.512      101419.200        -299.000          44.000  
G32  24368133.374       58261.056       -3304.000          38.000  
> 2024 12 28  5 17  8.9960001  0  9                     
G 4  20800719.749     -903240.7451       2527.000          40.000  
G 8  21299092.942    -1218654.2131       3773.000          40.000  
G16  19853486.890      271811.064        -380.000          43.000  
G18  24306672.556      -90654.2321        706.000          22.000  
G26  20961650.613      471954.8821      -1236.000          37.000  
G27  19458714.993    -4426986.573        2213.000          45.000  
G28  22041432.010     1545076.0901      -1229.000          42.000  
G31  20608624.681      101723.2121       -304.000          29.000  
G32  24368761.652       61564.037       -3302.000          38.000  
> 2024 12 28  5 17  9.9960001  0 10                     
G 3  23693861.393        3850.5421      -1380.000          23.000  
G 4  20800239.240     -905765.6851       2524.000          40.000  
G 8  21298374.377    -1222428.8041       3774.000          41.000  
G 9  22953886.829       -9813.0331       3512.000          24.000  
G16  19853559.972      272193.322        -382.000          43.000  
G26  20961893.869      473194.2871      -1239.000          42.000  
G27  19458293.573    -4429201.211        2214.000          45.000  
G28  22041682.840     1546312.1941      -1236.000          17.000  
G31  20608682.092      102024.5011       -301.000          35.000  
G32  24369389.685       64863.480       -3299.000          38.000  
