     3.02           OBSERVATION DATA    G: GPS              RINEX VERSION / TYPE
convert_skytraq_raw Skytraq Corp.       20241228 100653 UTC PGM / RUN BY / DATE 
Test version 0.1                                            COMMENT             
                                                            MARKER NAME         
                                                            MARKER NUMBER       
                                                            MARKER TYPE         
Skytraq Corp.                                               OBSERVER / AGENCY   
                                                            REC # / TYPE / VERS 
                                                            ANT # / TYPE        
 -2964410.4769  5075134.6638  2468938.9608                  APPROX POSITION XYZ 
        0.0000        0.0000        0.0000                  ANTENNA: DELTA H/E/N
G    4 C1C L1C D1C S1C                                      SYS / # / OBS TYPES 
  2024    12    28     3    23   34.9949999     GPS         TIME OF FIRST OBS   
  2024    12    28     4    15    1.9940000     GPS         TIME OF LAST OBS    
                                                            END OF HEADER       
> 2024 12 28  3 23 34.9949999  0  8                     
G10  23585251.447      217125.843       -2822.000          36.000  
G16  20056944.144     -194890.970        2499.000          45.000  
G25  23903844.749      102480.8201      -2948.000          16.000  
G27  23229461.017     -322280.861        4202.000          36.000  
G28  20568780.529       -9433.350         118.000          40.000  
G29  22248526.204       59384.434        -790.000          36.000  
G31  20163568.290      -64379.096         828.000          43.000  
G32  20066744.500       98033.400       -1287.000          49.000  
> 2024 12 28  3 23 35.9949999  0  8                     
G10  23585793.695      219947.615       -2821.000          35.000  
G16  20056468.032     -197390.527        2499.000          45.000  
G25  23904402.668      105425.2051      -2944.000          20.000  
G27  23228660.576     -326483.596        4202.000          36.000  
G28  20568757.739       -9552.418         119.000          40.000  
G29  22248664.409       60175.022        -790.000          35.000  
G31  20163410.610      -65208.086         828.000          43.000  
G32  20066989.257       99320.880       -1287.000          48.000  
> 2024 12 28  3 23 36.9949999  0  8                     
G10  23586332.663      222768.434       -2820.000          35.000  
G16  20055991.397     -199890.382        2499.000          46.000  
G25  23904978.315      108379.6171      -2954.000          16.000  
G27  23227864.357     -330687.158        4203.000          36.000  
G28  20568734.670       -9672.172         119.000          40.000  
G29  22248823.695       60965.347        -790.000          36.000  
G31  20163252.720      -66037.738         829.000          44.000  
G32  20067233.944      100608.085       -1287.000          49.000  
> 2024 12 28  3 23 37.9949999  0  8                     
G10  23586868.454      225588.582       -2820.000          34.000  
G16  20055515.146     -202390.213        2499.000          46.000  
G25  23905498.751      111321.8231      -2942.000          20.000  
G27  23227064.753     -334891.308        4204.000          36.000  
G28  20568711.426       -9792.392         120.000          40.000  
G29  22248974.535       61755.746        -790.000          36.000  
G31  20163095.040      -66867.878         830.000          44.000  
G32  20067478.805      101895.315       -1287.000          49.000  
> 2024 12 28  3 23 38.9949999  0  8                     
G10  23587407.352      228408.100       -2819.000          35.000  
G16  20055039.139     -204889.992        2499.000          46.000  
G25  23906057.681      114259.2531      -2937.000          18.000  
G27  23226265.079     -339096.002        4204.000          36.000  
G28  20568687.484       -9912.960         120.000          41.000  
G29  22249124.432       62546.292        -790.000          36.000  
G31  20162937.569      -67698.307         830.000          44.000  
G32  20067723.039      103182.619       -1287.000          49.000  
> 2024 12 28  3 23 39.9949999  0  8                     
G10  23587944.993      231228.832       -2820.000          35.000  
G16  20054563.655     -207387.973        2497.000          46.000  
G25  23906626.314      117200.6101      -2941.000          16.000  
G27  23225463.731     -343299.420        4203.000          36.000  
G28  20568664.310      -10032.095         119.000          41.000  
G29  22249274.818       63338.679        -792.000          36.000  
G31  20162780.238      -68527.329         829.000          44.000  
G32  20067967.481      104471.784       -1289.000          48.000  
> 2024 12 28  3 23 40.9949999  0  8                     
G10  23588481.029      234051.942       -2823.000          35.000  
G16  20054088.835     -209882.853        2494.000          46.000  
G25  23907178.509      120141.7191      -2941.000          18.000  
G27  23224663.813     -347500.387        4200.000          36.000  
G28  20568641.206      -10148.596         116.000          40.000  
G29  22249426.007       64134.222        -795.000          37.000  
G31  20162623.012      -69353.719         826.000          44.000  
G32  20068212.936      105764.048       -1292.000          48.000  
> 2024 12 28  3 23 41.9949999  0  8                     
G10  23589013.540      236876.406       -2824.000          34.000  
G16  20053615.026     -212375.764        2492.000          46.000  
G25  23907771.188      123090.6751      -2948.000          18.000  
G27  23223863.964     -351699.894        4199.000          36.000  
G28  20568619.359      -10263.516         114.000          41.000  
G29  22249577.649       64931.836        -797.000          37.000  
G31  20162466.274      -70178.519         824.000          44.000  
G32  20068458.740      107058.312       -1294.000          48.000  
> 2024 12 28  3 23 42.9949999  0  8                     
G10  23589547.133      239698.305       -2821.000          33.000  
G16  20053141.148     -214870.556        2494.000          46.000  
G25  23908314.099      126034.6321      -2943.000          21.000  
G27  23223063.872     -355901.853        4201.000          37.000  
G28  20568596.708      -10380.749         117.000          41.000  
G29  22249729.920       65727.579        -795.000          38.000  
G31  20162308.943      -71005.611         827.000          44.000  
G32  20068704.334      108350.738       -1292.000          48.000  
> 2024 12 28  3 23 43.9949999  0  8                     
G10  23590087.007      242520.553       -2822.000          34.000  
G16  20052666.537     -217364.304        2493.000          45.000  
G25  23908865.840      128979.1111      -2944.000          21.000  
G27  23222263.954     -360103.399        4201.000          37.000  
G28  20568574.861      -10497.361         116.000          41.000  
G29  22249883.202       66524.439        -796.000          38.000  
G31  20162151.332      -71832.081         826.000          44.000  
G32  20068950.417      109644.226       -1293.000          48.000  
> 2024 12 28  3 23 44.9949999  0  8                     
G10  23590622.555      245344.569       -2824.000          33.000  
G16  20052192.450     -219855.653        2491.000          46.000  
G25  23909446.234      131922.4681      -2943.000          20.000  
G27  23221464.315     -364303.110        4199.000          37.000  
G28  20568553.571      -10611.981         114.000          41.000  
G29  22250036.450       67323.804        -799.000          38.000  
G31  20161993.826      -72656.545         824.000          44.000  
G32  20069196.814      110940.124       -1295.000          48.000  
> 2024 12 28  3 23 45.9949999  0  8                     
G10  23591158.939      248167.730       -2823.000          33.000  
G16  20051718.222     -222347.143        2491.000          46.000  
G25  23909980.385      134872.3461      -2949.000          20.000  
G27  23220665.095     -368503.496        4200.000          36.000  
G28  20568532.701      -10727.142         115.000          42.000  
G29  22250188.930       68123.076        -799.000          39.000  
G31  20161836.879      -73481.540         824.000          43.000  
G32  20069443.456      112235.925       -1295.000          48.000  
> 2024 12 28  3 23 46.9949999  0  8                     
G10  23591701.013      250989.983       -2822.000          33.000  
G16  20051243.262     -224838.896        2491.000          46.000  
G25  23910548.320      137816.2521      -2943.000          21.000  
G27  23219864.584     -372704.759        4201.000          36.000  
G28  20568511.761      -10843.000         115.000          41.000  
G29  22250340.991       68922.109        -799.000          39.000  
G31  20161679.653      -74307.230         825.000          43.000  
G32  20069689.853      113531.499       -1295.000          48.000  
> 2024 12 28  3 23 47.9949999  0  8                     
G10  23592238.480      253811.443       -2821.000          33.000  
G16  20050769.070     -227330.781        2491.000          46.000  
G25  23911125.992      140763.5661      -2947.000          19.000  
G27  23219058.907     -376906.688        4201.000          36.000  
G28  20568491.274      -10959.395         116.000          41.000  
G29  22250492.599       69721.097        -798.000          39.000  
G31  20161521.589      -75133.453         826.000          43.000  
G32  20069936.424      114826.961       -1295.000          48.000  
> 2024 12 28  3 23 48.9949999  0  8                     
G10  23592782.368      256631.523       -2820.000          33.000  
G16  20050294.808     -229823.384        2492.000          46.000  
G25  23911635.259      143711.7951      -2948.000          18.000  
G27  23218260.665     -381109.918        4203.000          36.000  
G28  20568470.718      -11076.913         117.000          42.000  
G29  22250644.276       70519.450        -798.000          39.000  
G31  20161364.013      -75960.813         827.000          44.000  
G32  20070182.193      116121.725       -1294.000          48.000  
> 2024 12 28  3 23 49.9949999  0  8                     
G10  23593316.903      259450.772       -2819.000          34.000  
G16  20049820.442     -232316.151        2492.000          46.000  
G25  23912230.068      146653.0501      -2941.000          23.000  
G27  23217462.387     -385313.922        4204.000          36.000  
G28  20568448.940      -11195.042         118.000          42.000  
G29  22250795.116       71317.672        -798.000          38.000  
G31  20161206.473      -76788.740         827.000          43.000  
G32  20070427.648      117416.339       -1294.000          48.000  
> 2024 12 28  3 23 50.9949999  0  8                     
G10  23593853.846      262269.404       -2818.000          34.000  
G16  20049345.830     -234808.848        2492.000          46.000  
G25  23912782.262      149593.5381      -2940.000          23.000  
G27  23216662.329     -389518.408        4204.000          36.000  
G28  20568426.708      -11313.518         118.000          42.000  
G29  22250945.188       72116.032        -798.000          38.000  
G31  20161048.967      -77616.987         828.000          43.000  
G32  20070673.242      118711.078       -1294.000          48.000  
> 2024 12 28  3 23 51.9949999  0  8                     
G10  23594391.313      265087.686       -2818.000          34.000  
G16  20048871.778     -237301.218        2492.000          46.000  
G25  23913335.609      152532.5321      -2938.000          21.000  
G27  23215862.411     -393723.126        4204.000          36.000  
G28  20568404.163      -11432.052         118.000          42.000  
G29  22251095.957       72914.804        -798.000          38.000  
G31  20160891.636      -78445.343         828.000          43.000  
G32  20070919.779      120006.161       -1295.000          48.000  
> 2024 12 28  3 23 52.9949999  0  8                     
G10  23594930.525      267906.026       -2818.000          35.000  
G16  20048398.109     -239792.868        2491.000          46.000  
G25  23913906.405      155472.9941      -2940.000          24.000  
G27  23215061.551     -397927.764        4204.000          36.000  
G28  20568380.570      -11550.300         118.000          41.000  
G29  22251247.984       73714.330        -799.000          38.000  
G31  20160734.235      -79273.380         828.000          43.000  
G32  20071166.665      121301.962       -1295.000          48.000  
> 2024 12 28  3 23 53.9949999  0  8                     
G10  23595471.202      270724.334       -2818.000          35.000  
G16  20047924.475     -242283.896        2491.000          46.000  
G25  23914470.745      158412.8381      -2939.000          24.000  
G27  23214252.001     -402132.349        4204.000          36.000  
G28  20568358.059      -11668.378         118.000          41.000  
G29  22251401.022       74514.542        -800.000          39.000  
G31  20160577.253      -80101.203         827.000          44.000  
G32  20071413.864      122598.406       -1296.000          48.000  
> 2024 12 28  3 23 54.9949999  0  8                     
G10  23596011.182      273543.112       -2818.000          36.000  
G16  20047450.981     -244773.787        2489.000          46.000  
G25  23915019.380      161353.4091      -2940.000          24.000  
G27  23213455.852     -406336.356        4204.000          36.000  
G28  20568334.606      -11785.697         117.000          41.000  
G29  22251553.956       75315.914        -801.000          39.000  
G31  20160419.642      -80928.333         827.000          44.000  
G32  20071661.343      123896.003       -1297.000          48.000  
> 2024 12 28  3 23 55.9949999  0  8                     
G10  23596545.542      276361.860       -2818.000          36.000  
G16  20046977.068     -247262.973        2489.000          46.000  
G25  23915579.009      164294.7281      -2941.000          23.000  
G27  23212655.899     -410540.206        4203.000          36.000  
G28  20568311.013      -11902.742         117.000          41.000  
G29  22251706.261       76118.121        -802.000          39.000  
G31  20160262.416      -81755.163         826.000          43.000  
G32  20071908.648      125194.383       -1298.000          48.000  
> 2024 12 28  3 23 56.9949999  0  8                     
G10  23597080.985      279179.051       -2817.000          35.000  
G16  20046503.295     -249753.115        2490.000          46.000  
G25  23916113.299      167235.3861      -2940.000          21.000  
G27  23211856.260     -414745.595        4205.000          36.000  
G28  20568287.909      -12021.141         118.000          41.000  
G29  22251858.323       76919.451        -801.000          38.000  
G31  20160104.701      -82583.333         828.000          43.000  
G32  20072155.499      126491.832       -1297.000          48.000  
> 2024 12 28  3 23 57.9949999  0  8                     
G10  23597624.699      281994.935       -2815.000          36.000  
G16  20046028.509     -252243.884        2490.000          45.000  
G25  23916711.877      170174.0231      -2938.000          23.000  
G27  23211053.411     -418952.1991       4206.000          35.000  
G28  20568264.735      -12140.623         119.000          41.000  
G29  22252010.489       77720.152        -800.000          38.000  
G31  20159946.776      -83412.509         829.000          43.000  
G32  20072402.175      127788.657       -1296.000          48.000  
> 2024 12 28  3 23 58.9949999  0  8                     
G10  23598158.117      284810.672       -2815.000          36.000  
G16  20045553.828     -254734.134        2490.000          45.000  
G25  23917278.381      173114.1611      -2940.000          22.000  
G27  23210251.224     -423158.8431       4206.000          34.000  
G28  20568241.945      -12259.960         119.000          41.000  
G29  22252162.689       78521.422        -801.000          38.000  
G31  20159789.306      -84241.646         829.000          43.000  
G32  20072649.270      129086.016       -1297.000          48.000  
> 2024 12 28  3 23 59.9949999  0  8                     
G10  23598687.417      287625.839       -2815.000          36.000  
G16  20045079.880     -257224.276        2490.000          45.000  
G25  23917838.847      176052.1221      -2937.000          22.000  
G27  23209447.781     -427365.9681       4207.000          34.000  
G28  20568218.946      -12379.641         119.000          41.000  
G29  22252315.065       79322.910        -801.000          38.000  
G31  20159631.172      -85071.022         829.000          43.000  
G32  20072896.505      130383.505       -1297.000          48.000  
> 2024 12 28  3 24  0.9949999  0  8                     
G10  23599219.439      290440.751       -2814.000          35.000  
G16  20044606.282     -259713.985        2489.000          45.000  
G25  23918394.497      178990.6631      -2938.000          19.000  
G27  23208642.593     -431573.254        4207.000          34.000  
G28  20568196.540      -12499.273         119.000          41.000  
G29  22252467.300       80124.885        -801.000          39.000  
G31  20159472.863      -85900.411         829.000          43.000  
G32  20073143.739      131681.462       -1297.000          48.000  
> 2024 12 28  3 24  1.9949999  0  8                     
G10  23599752.369      293256.334       -2815.000          35.000  
G16  20044132.892     -262202.404        2488.000          46.000  
G25  23918963.269      181924.8471      -2934.000          20.000  
G27  23207836.114     -435779.740        4206.000          33.000  
G28  20568173.575      -12618.049         118.000          41.000  
G29  22252619.780       80928.203        -803.000          38.000  
G31  20159314.485      -86728.903         828.000          43.000  
G32  20073390.869      132980.765       -1299.000          48.000  
> 2024 12 28  3 24  2.9949999  0  8                     
G10  23600287.183      296071.717       -2815.000          35.000  
G16  20043659.258     -264690.354        2487.000          46.000  
G25  23919537.067      184860.5781      -2935.000          17.000  
G27  23207035.254     -439986.356        4206.000          33.000  
G28  20568149.843      -12736.769         118.000          41.000  
G29  22252772.889       81732.061        -803.000          38.000  
G31  20159156.596      -87557.308         828.000          43.000  
G32  20073638.069      134280.530       -1299.000          48.000  
> 2024 12 28  3 24  3.9949999  0  8                     
G10  23600822.835      298887.157       -2815.000          34.000  
G16  20043185.869     -267177.502        2487.000          46.000  
G25  23920091.844      187796.8501      -2936.000          12.000  
G27  23206237.988     -444192.862        4206.000          34.000  
G28  20568126.390      -12855.094         118.000          41.000  
G29  22252926.136       82536.764        -804.000          38.000  
G31  20158998.252      -88385.378         828.000          43.000  
G32  20073885.269      135581.135       -1300.000          48.000  
> 2024 12 28  3 24  4.9949999  0  8                     
G10  23601352.659      301702.205       -2815.000          33.000  
G16  20042712.793     -269664.457        2486.000          46.000  
G25  23920669.935      190734.7611      -2937.000          17.000  
G27  23205439.396     -448399.625        4206.000          34.000  
G28  20568103.670      -12973.600         118.000          41.000  
G29  22253080.396       83341.762        -804.000          37.000  
G31  20158839.735      -89213.606         828.000          43.000  
G32  20074132.678      136881.968       -1300.000          48.000  
> 2024 12 28  3 24  5.9949999  0  8                     
G10  23601884.157      304517.017       -2814.000          33.000  
G16  20042239.962     -272150.918        2486.000          46.000  
G25  23921171.315      193671.2301      -2936.000          20.000  
G27  23204637.663     -452606.516        4206.000          33.000  
G28  20568081.124      -13092.100         118.000          41.000  
G29  22253234.551       84147.336        -805.000          36.000  
G31  20158681.147      -90041.781         828.000          42.000  
G32  20074380.332      138183.313       -1301.000          48.000  
> 2024 12 28  3 24  6.9949999  0  8                     
G10  23602431.431      307330.785       -2813.000          34.000  
G16  20041767.341     -274637.778        2486.000          45.000  
G25  23921709.340      196607.4751      -2936.000          17.000  
G27  23203835.791     -456814.362        4207.000          33.000  
G28  20568059.242      -13211.377         119.000          41.000  
G29  22253386.613       84952.522        -805.000          37.000  
G31  20158523.188      -90870.764         828.000          43.000  
G32  20074628.090      139484.263       -1300.000          48.000  
> 2024 12 28  3 24  7.9949999  0  9                     
G10  23602959.928      310143.986       -2813.000          34.000  
G16  20041294.335     -277124.547        2486.000          46.000  
G25  23922265.269      199543.5121      -2936.000          16.000  
G26  19098232.846       -2126.2621        349.000          31.000  
G27  23203035.245     -461022.749        4208.000          32.000  
G28  20568038.266      -13330.979         119.000          42.000  
G29  22253539.197       85757.849        -805.000          36.000  
G31  20158364.460      -91700.074         829.000          43.000  
G32  20074876.406      140785.353       -1301.000          48.000  
> 2024 12 28  3 24  8.9949999  0  9                     
G10  23603502.386      312956.584       -2812.000          33.000  
G16  20040821.713     -279611.184        2486.000          45.000  
G25  23922864.544      202489.8571      -2946.000          16.000  
G26  19098162.801       -2475.2931        349.000          31.000  
G27  23202232.989     -465231.507        4208.000          31.000  
G28  20568017.221      -13450.901         119.000          42.000  
G29  22253692.201       86563.367        -805.000          37.000  
G31  20158206.885      -92529.646         829.000          42.000  
G32  20075124.549      142086.592       -1301.000          48.000  
> 2024 12 28  3 24  9.9949999  0  9                     
G10  23604036.921      315769.644       -2813.000          34.000  
G16  20040349.136     -282096.815        2485.000          46.000  
G25  23923420.299      205430.5621      -2940.000          19.000  
G26  19098086.089       -2823.4031        348.000          30.000  
G27  23201432.687     -469439.788        4208.000          33.000  
G28  20567992.864      -13570.177         119.000          42.000  
G29  22253846.182       87370.017        -806.000          36.000  
G31  20158053.090      -93358.604         828.000          42.000  
G32  20075371.661      143388.864       -1302.000          48.000  
> 2024 12 28  3 24 10.9949999  0  9                     
G10  23604568.629      318583.505       -2813.000          33.000  
G16  20039876.423     -284580.919        2484.000          46.000  
G25  23923948.866      208368.8831      -2938.000          18.000  
G26  19098025.049       -3169.9721        346.000          31.000  
G27  23200631.791     -473647.184        4207.000          33.000  
G28  20567970.414      -13688.369         118.000          42.000  
G29  22253999.429       88178.253        -808.000          36.000  
G31  20157895.519      -94186.449         827.000          43.000  
G32  20075619.784      144692.702       -1303.000          48.000  
> 2024 12 28  3 24 11.9949999  0  9                     
G10  23605109.097      321396.867       -2813.000          33.000  
G16  20039403.748     -287064.827        2483.000          46.000  
G25  23924579.901      211308.5031      -2939.000          19.000  
G26  19097963.903       -3516.5181        346.000          31.000  
G27  23199833.793     -477854.993        4207.000          32.000  
G28  20567947.920      -13806.818         118.000          42.000  
G29  22254146.639       88986.639        -808.000          35.000  
G31  20157737.913      -95014.539         828.000          43.000  
G32  20075867.945      145996.734       -1304.000          48.000  
> 2024 12 28  3 24 12.9949999  0  9                     
G10  23605643.842      324210.370       -2813.000          34.000  
G16  20038931.227     -289547.963        2483.000          46.000  
G25  23925148.987      214247.2411      -2938.000          23.000  
G26  19097902.234       -3862.264         345.000          30.000  
G27  23199035.899     -482062.484        4207.000          32.000  
G28  20567925.518      -13924.831         118.000          42.000  
G29  22254300.690       89795.995        -809.000          35.000  
G31  20157580.398      -95842.214         827.000          43.000  
G32  20076116.269      147301.617       -1304.000          49.000  
> 2024 12 28  3 24 13.9949999  0  9                     
G10  23606180.645      327024.414       -2814.000          33.000  
G16  20038458.943     -292029.907        2481.000          46.000  
G25  23925667.119      217185.5881      -2938.000          23.000  
G26  19097835.539       -4206.667         344.000          31.000  
G27  23198237.028     -486269.490        4207.000          33.000  
G28  20567903.247      -14042.134         117.000          42.000  
G29  22254454.426       90606.469        -810.000          34.000  
G31  20157423.033      -96669.142         826.000          43.000  
G32  20076364.810      148607.645       -1306.000          49.000  
> 2024 12 28  3 24 14.9949999  0  9                     
G10  23606713.086      329838.101       -2813.000          32.000  
G16  20037986.737     -294511.438        2481.000          46.000  
G25  23926227.480      220122.1201      -2936.000          21.000  
G26  19097778.093       -4550.888         344.000          31.000  
G27  23197441.857     -490476.638        4207.000          33.000  
G28  20567880.981      -14159.392         117.000          42.000  
G29  22254607.674       91417.558        -811.000          35.000  
G31  20157265.666      -97496.065         826.000          43.000  
G32  20076613.444      149914.176       -1306.000          49.000  
> 2024 12 28  3 24 15.9949999  0  9                     
G10  23607248.982      332651.512       -2813.000          31.000  
G16  20037514.584     -296992.691        2481.000          46.000  
G25  23926805.711      223060.5401      -2938.000          19.000  
G26  19097714.330       -4894.835         343.000          31.000  
G27  23196639.740     -494684.038        4207.000          34.000  
G28  20567858.668      -14276.852         117.000          42.000  
G29  22254762.702       92228.898        -811.000          35.000  
G31  20157108.271      -98323.146         827.000          43.000  
G32  20076862.124      151220.963       -1306.000          48.000  
> 2024 12 28  3 24 16.9949999  0  9                     
G10  23607775.386      335464.603       -2813.000          32.000  
G16  20037042.516     -299473.521        2480.000          46.000  
G25  23927356.195      225997.4351      -2936.000          22.000  
G26  19097648.717       -5238.391         343.000          30.000  
G27  23195841.148     -498891.609        4207.000          34.000  
G28  20567836.352      -14394.271         117.000          41.000  
G29  22254915.391       93040.709        -811.000          34.000  
G31  20156950.897      -99150.178         827.000          43.000  
G32  20077110.893      152528.224       -1307.000          49.000  
> 2024 12 28  3 24 17.9949999  0  9                     
G10  23608306.570      338278.3571      -2813.000          30.000  
G16  20036570.691     -301953.076        2479.000          46.000  
G25  23927907.238      228934.3651      -2936.000          21.000  
G26  19097571.901       -5580.6711        342.000          29.000  
G27  23195038.717     -503098.413        4206.000          33.000  
G28  20567814.182      -14510.819         116.000          41.000  
G29  22255067.732       93853.933        -813.000          34.000  
G31  20156793.699      -99976.314         826.000          43.000  
G32  20077359.907      153836.762       -1308.000          49.000  
> 2024 12 28  3 24 18.9949999  0  9                     
G10  23608820.479      341091.663       -2813.000          29.000  
G16  20036098.914     -304432.388        2479.000          46.000  
G25  23928448.823      231873.5191      -2939.000          21.000  
G26  19097506.638       -5922.751         342.000          29.000  
G27  23194244.314     -507305.653        4207.000          34.000  
G28  20567791.966      -14627.535         116.000          41.000  
G29  22255221.747       94667.448        -813.000          33.000  
G31  20156636.459     -100802.667         826.000          43.000  
G32  20077608.980      155145.595       -1308.000          49.000  
> 2024 12 28  3 24 19.9949999  0  9                     
G10  23609358.086      343904.291       -2812.000          29.000  
G16  20035627.132     -306911.751        2479.000          46.000  
G25  23929017.212      234810.1841      -2936.000          22.000  
G26  19097441.758       -6264.880         342.000          30.000  
G27  23193436.857     -511513.468        4207.000          36.000  
G28  20567769.629      -14744.750         117.000          40.000  
G29  22255375.938       95480.918        -813.000          33.000  
G31  20156479.127     -101629.484         826.000          42.000  
G32  20077858.043      156454.374       -1308.000          49.000  
> 2024 12 28  3 24 20.9949999  0  9                     
G10  23609891.225      346716.1291      -2811.000          28.000  
G16  20035155.342     -309391.153        2479.000          46.000  
G25  23929560.647      237744.8341      -2934.000          17.000  
G26  19097385.742       -6607.161         342.000          30.000  
G27  23192638.266     -515721.903        4208.000          35.000  
G28  20567747.191      -14862.421         117.000          41.000  
G29  22255538.329       96294.483        -813.000          33.000  
G31  20156321.714     -102456.745         827.000          43.000  
G32  20078107.111      157763.169       -1308.000          49.000  
> 2024 12 28  3 24 21.9949999  0  9                     
G10  23610420.106      349528.1741      -2812.000          28.000  
G16  20034683.728     -311869.639        2478.000          46.000  
G25  23930113.993      240680.0781      -2935.000          19.000  
G26  19097322.852       -6948.545         341.000          30.000  
G27  23191841.314     -519930.017        4208.000          35.000  
G28  20567724.840      -14979.603         117.000          41.000  
G29  22255696.603       97108.896        -814.000          32.000  
G31  20156164.395     -103283.492         826.000          43.000  
G32  20078356.350      159072.836       -1309.000          49.000  
> 2024 12 28  3 24 22.9949999  0  9                     
G10  23610966.647      352340.6581      -2812.000          30.000  
G16  20034212.314     -314347.093        2477.000          46.000  
G25  23930654.601      243617.7041      -2937.000          18.000  
G26  19097264.045       -7288.940         340.000          31.000  
G27  23191040.942     -524137.665        4207.000          35.000  
G28  20567702.611      -15096.168         116.000          41.000  
G29  22255850.899       97924.401        -815.000          34.000  
G31  20156007.188     -104109.618         826.000          43.000  
G32  20078605.802      160383.609       -1310.000          49.000  
> 2024 12 28  3 24 23.9949999  0  9                     
G10  23611505.021      355154.1761      -2813.000          30.000  
G16  20033741.217     -316822.848        2475.000          46.000  
G25  23931186.483      246554.9331      -2937.000          20.000  
G26  19097191.696       -7627.6791        338.000          29.000  
G27  23190246.050     -528344.171        4206.000          37.000  
G28  20567680.640      -15211.411         115.000          41.000  
G29  22256006.451       98741.742        -817.000          34.000  
G31  20155850.221     -104934.474         824.000          43.000  
G32  20078855.585      161696.106       -1312.000          49.000  
> 2024 12 28  3 24 24.9949999  0  9                     
G10  23612032.541      357967.088       -2812.000          29.000  
G16  20033270.121     -319298.551        2475.000          46.000  
G25  23931755.395      249493.9891      -2939.000          18.000  
G26  19097126.816       -7966.351         338.000          30.000  
G27  23189444.806     -532551.162        4206.000          37.000  
G28  20567658.608      -15327.024         115.000          41.000  
G29  22256162.010       99559.228        -817.000          33.000  
G31  20155693.184     -105759.663         825.000          43.000  
G32  20079105.382      163008.673       -1312.000          49.000  
> 2024 12 28  3 24 25.9949999  0  9                     
G10  23612571.927      360779.246       -2812.000          29.000  
G16  20032799.016     -321774.271        2475.000          45.000  
G25  23932350.657      252422.4131      -2928.000          18.000  
G26  19097058.272       -8305.1381        338.000          29.000  
G27  23188643.666     -536758.786        4207.000          36.000  
G28  20567636.501      -15443.099         116.000          41.000  
G29  22256317.523      100376.752        -817.000          33.000  
G31  20155536.052     -106585.294         825.000          43.000  
G32  20079355.183      164321.266       -1312.000          48.000  
> 2024 12 28  3 24 26.9949999  0  9                     
G10  23613107.021      363591.055       -2811.000          29.000  
G16  20032327.963     -324249.666        2475.000          46.000  
G25  23932898.699      255351.6791      -2929.000           0.000  
G26  19096995.381       -8643.5661        338.000          30.000  
G27  23187842.806     -540966.667        4207.000          36.000  
G28  20567614.402      -15559.258         116.000          41.000  
G29  22256473.065      101194.572        -817.000          33.000  
G31  20155378.907     -107410.990         825.000          43.000  
G32  20079605.043      165634.182       -1312.000          48.000  
> 2024 12 28  3 24 27.9949999  0  8                     
G10  23613646.826      366403.2861      -2812.000          29.000  
G16  20031857.107     -326724.020        2474.000          46.000  
G26  19096933.782       -8981.0671        337.000          29.000  
G27  23187042.400     -545174.052        4207.000          36.000  
G28  20567592.431      -15674.792         115.000          41.000  
G29  22256628.836      102013.575        -818.000          34.000  
G31  20155221.881     -108236.049         825.000          43.000  
G32  20079855.104      166948.170       -1313.000          49.000  
> 2024 12 28  3 24 28.9949999  0  8                     
G10  23614186.212      369215.2261      -2811.000          29.000  
G16  20031386.347     -329197.874        2473.000          46.000  
G26  19096866.145       -9318.0221        336.000          30.000  
G27  23186237.491     -549381.563        4207.000          36.000  
G28  20567570.480      -15790.250         115.000          41.000  
G29  22256784.712      102833.063        -819.000          34.000  
G31  20155064.868     -109061.044         824.000          43.000  
G32  20080105.265      168262.675       -1314.000          49.000  
> 2024 12 28  3 24 29.9949999  0  8                     
G10  23614716.000      372026.8361      -2811.000          28.000  
G16  20030915.627     -331671.543        2473.000          46.000  
G26  19096801.928       -9654.8811        336.000          29.000  
G27  23185443.715     -553589.407        4207.000          36.000  
G28  20567548.482      -15905.934         115.000          41.000  
G29  22256940.659      103652.856        -819.000          34.000  
G31  20154907.812     -109886.284         825.000          43.000  
G32  20080355.465      169577.390       -1314.000          49.000  
> 2024 12 28  3 24 30.9949999  0  8                     
G10  23615253.537      374838.0471      -2811.000          28.000  
G16  20030444.968     -334144.905        2473.000          46.000  
G26  19096747.483       -9991.4231        336.000          30.000  
G27  23184636.189     -557797.551        4208.000          36.000  
G28  20567526.467      -16021.670         115.000          41.000  
G29  22257096.758      104472.992        -820.000          35.000  
G31  20154750.756     -110711.579         825.000          44.000  
G32  20080605.728      170892.459       -1315.000          49.000  
> 2024 12 28  3 24 31.9949999  0  8                     
G10  23615789.119      377648.5261      -2810.000          28.000  
G16  20029974.312     -336618.219        2473.000          46.000  
G26  19096685.221      -10328.0491        336.000          30.000  
G27  23183834.770     -562006.176        4208.000          36.000  
G28  20567504.358      -16137.843         116.000          41.000  
G29  22257252.876      105293.229        -820.000          35.000  
G31  20154593.622     -111537.313         825.000          44.000  
G32  20080856.001      172207.584       -1315.000          49.000  
> 2024 12 28  3 24 32.9949999  0  9                     
G10  23616329.866      380459.0981      -2810.000          28.000  
G16  20029503.783     -339090.829        2472.000          46.000  
G25  23936263.520      272930.8231      -2930.000          16.000  
G26  19096616.676      -10663.9831        335.000          29.000  
G27  23183034.713     -566214.694        4208.000          36.000  
G28  20567482.300      -16253.705         115.000          40.000  
G29  22257409.117      106114.256        -821.000          35.000  
G31  20154436.563     -112362.687         825.000          44.000  
G32  20081106.418      173523.448       -1315.000          49.000  
> 2024 12 28  3 24 33.9949999  0  8                     
G10  23616867.403      383269.0051      -2809.000          29.000  
G16  20029033.246     -341563.446        2472.000          46.000  
G26  19096555.636      -10999.8551        335.000          30.000  
G27  23182235.039     -570423.783        4209.000          36.000  
G28  20567460.167      -16369.957         116.000          40.000  
G29  22257565.413      106935.341        -821.000          35.000  
G31  20154279.427     -113188.470         825.000          44.000  
G32  20081356.834      174839.313       -1315.000          49.000  
> 2024 12 28  3 24 34.9949999  0  9                     
G10  23617415.444      386078.2751      -2809.000          29.000  
G16  20028562.709     -344036.063        2472.000          45.000  
G25  23937369.898      278796.7621      -2933.000          21.000  
G26  19096488.313      -11335.8671        336.000          31.000  
G27  23181433.690     -574633.471        4209.000          36.000  
G28  20567437.946      -16486.695         116.000          40.000  
G29  22257721.739      107756.449        -821.000          33.000  
G31  20154122.203     -114014.708         826.000          44.000  
G32  20081607.254      176155.206       -1315.000          49.000  
> 2024 12 28  3 24 35.9949999  0  9                     
G10  23617960.240      388887.0071      -2808.000          29.000  
G16  20028092.196     -346508.517        2472.000          45.000  
G25  23937936.262      281731.4771      -2934.000          20.000  
G26  19096426.155      -11671.7671        335.000          31.000  
G27  23180632.900     -578843.561        4210.000          36.000  
G28  20567415.694      -16603.631         116.000          40.000  
G29  22257878.078      108577.790        -821.000          34.000  
G31  20153964.926     -114841.194         826.000          44.000  
G32  20081857.707      177471.296       -1316.000          49.000  
> 2024 12 28  3 24 36.9949999  0  9                     
G10  23618493.065      391695.160       -2808.000          29.000  
G16  20027621.712     -348980.831        2472.000          45.000  
G25  23938536.096      284665.5771      -2934.000          20.000  
G26  19096361.764      -12007.485         335.000          30.000  
G27  23179831.865     -583054.049        4210.000          36.000  
G28  20567393.402      -16720.865         117.000          41.000  
G29  22258034.418      109399.354        -821.000          34.000  
G31  20153807.597     -115667.928         826.000          44.000  
G32  20082108.182      178787.533       -1316.000          49.000  
> 2024 12 28  3 24 37.9949999  0  9                     
G10  23619027.810      394503.111       -2807.000          29.000  
G16  20027151.305     -351452.735        2471.000          45.000  
G25  23939099.878      287599.8281      -2934.000          22.000  
G26  19096301.107      -12342.846         335.000          30.000  
G27  23179030.027     -587264.707        4210.000          36.000  
G28  20567371.124      -16838.089         117.000          41.000  
G29  22258190.772      110221.415        -822.000          33.000  
G31  20153650.261     -116494.646         826.000          43.000  
G32  20082358.741      180104.229       -1316.000          49.000  
> 2024 12 28  3 24 38.9949999  0  9                     
G10  23619553.864      397310.901       -2807.000          29.000  
G16  20026680.980     -353924.188        2471.000          45.000  
G25  23939645.197      290532.0551      -2932.000          21.000  
G26  19096244.777      -12677.863         335.000          30.000  
G27  23178220.407     -591475.504        4210.000          35.000  
G28  20567348.843      -16955.321         117.000          40.000  
G29  22258347.193      111043.924        -822.000          33.000  
G31  20153492.920     -117321.354         826.000          44.000  
G32  20082609.381      181421.359       -1317.000          49.000  
> 2024 12 28  3 24 39.9949999  0  9                     
G10  23620094.541      400117.729       -2806.000          29.000  
G16  20026210.619     -356395.814        2471.000          44.000  
G25  23940184.374      293465.3421      -2933.000          22.000  
G26  19096176.233      -13013.0401        335.000          29.000  
G27  23177423.386     -595687.049        4211.000          35.000  
G28  20567326.447      -17073.126         117.000          40.000  
G29  22258503.567      111866.349        -822.000          32.000  
G31  20153335.470     -118148.643         827.000          43.000  
G32  20082859.998      182738.366       -1317.000          48.000  
> 2024 12 28  3 24 40.9949999  0  9                     
G10  23620623.632      402923.765       -2806.000          29.000  
G16  20025740.229     -358867.625        2471.000          45.000  
G25  23940747.004      296392.3131      -2926.000          21.000  
G26  19096104.059      -13348.4091        335.000          29.000  
G27  23176621.897     -599899.327        4212.000          35.000  
G28  20567303.927      -17191.528         118.000          41.000  
G29  22258659.937      112688.672        -822.000          33.000  
G31  20153177.910     -118976.527         827.000          44.000  
G32  20083110.588      184055.221       -1316.000          49.000  
> 2024 12 28  3 24 41.9949999  0  9                     
G10  23621150.908      405728.6941      -2804.000          28.000  
G16  20025269.770     -361339.813        2472.000          45.000  
G25  23941317.103      299322.1321      -2929.000          22.000  
G26  19096032.024      -13684.1831        335.000          28.000  
G27  23175817.372     -604112.560        4213.000          34.000  
G28  20567281.238      -17310.738         119.000          40.000  
G29  22258816.274      113510.675        -821.000          31.000  
G31  20153020.203     -119805.182         828.000          44.000  
G32  20083361.113      185371.718       -1316.000          49.000  
> 2024 12 28  3 24 42.9949999  0  9                     
G10  23621689.073      408533.086       -2804.000          28.000  
G16  20024799.343     -363811.845        2472.000          45.000  
G25  23941860.991      302252.6771      -2930.000          22.000  
G26  19095959.536      -14019.943         335.000          27.000  
G27  23175011.137     -608326.218        4213.000          34.000  
G28  20567258.481      -17430.182         119.000          40.000  
G29  22258972.659      114332.859        -822.000          32.000  
G31  20152862.440     -120634.100         828.000          44.000  
G32  20083611.673      186688.379       -1316.000          49.000  
> 2024 12 28  3 24 43.9949999  0  9                     
G10  23622221.234      411337.309       -2804.000          28.000  
G16  20024329.028     -366283.314        2471.000          45.000  
G25  23942424.040      305182.6021      -2929.000          20.000  
G26  19095897.274      -14355.176         335.000          27.000  
G27  23174208.951     -612539.890        4213.000          34.000  
G28  20567235.722      -17549.513         119.000          39.000  
G29  22259129.201      115155.670        -822.000          35.000  
G31  20152704.702     -121462.900         828.000          45.000  
G32  20083862.346      188005.638       -1317.000          49.000  
> 2024 12 28  3 24 44.9949999  0  9                     
G10  23622751.407      414141.309       -2803.000          28.000  
G16  20023858.770     -368754.475        2471.000          45.000  
G25  23942977.945      308112.0991      -2929.000          23.000  
G26  19095842.759      -14690.0261        334.000          28.000  
G27  23173409.696     -616753.813        4213.000          35.000  
G28  20567212.941      -17668.896         119.000          38.000  
G29  22259285.800      115978.860        -823.000          35.000  
G31  20152546.957     -122291.759         828.000          44.000  
G32  20084113.079      189323.219       -1317.000          49.000  
> 2024 12 28  3 24 45.9949999  0  9                     
G10  23623277.705      416945.429       -2804.000          27.000  
G16  20023388.662     -371224.873        2470.000          45.000  
G25  23943527.731      311042.2931      -2930.000          22.000  
G26  19095791.979      -15024.1541        334.000          30.000  
G27  23172607.963     -620967.571        4213.000          34.000  
G28  20567190.210      -17788.003         119.000          39.000  
G29  22259442.523      116802.838        -823.000          34.000  
G31  20152389.277     -123120.292         828.000          45.000  
G32  20084363.956      190641.545       -1318.000          49.000  
> 2024 12 28  3 24 46.9949999  0  9                     
G10  23623816.638      419749.279       -2803.000          28.000  
G16  20022918.657     -373694.701        2469.000          45.000  
G25  23944109.801      313972.9451      -2930.000          22.000  
G26  19095731.950      -15357.7711        333.000          29.000  
G27  23171805.428     -625181.290        4213.000          34.000  
G28  20567167.525      -17906.900         118.000          39.000  
G29  22259599.352      117627.510        -824.000          33.000  
G31  20152231.637     -123948.658         828.000          45.000  
G32  20084614.961      191960.543       -1318.000          49.000  
> 2024 12 28  3 24 47.9949999  0  9                     
G10  23624358.956      422553.066       -2803.000          28.000  
G16  20022448.756     -376163.960        2469.000          45.000  
G25  23944634.808      316903.9391      -2930.000          23.000  
G26  19095662.673      -15691.0081        333.000          30.000  
G27  23171006.208     -629395.092        4213.000          34.000  
G28  20567144.860      -18025.683         118.000          39.000  
G29  22259756.260      118452.733        -825.000          30.000  
G31  20152074.023     -124776.883         828.000          45.000  
G32  20084866.064      193280.050       -1319.000          49.000  
> 2024 12 28  3 24 48.9949999  0  9                     
G10  23624883.963      425357.102       -2804.000          28.000  
G16  20021979.005     -378632.406        2468.000          45.000  
G25  23945217.645      319833.8601      -2929.000          22.000  
G26  19095607.251      -16023.217         332.000          31.000  
G27  23170207.442     -633608.556        4213.000          35.000  
G28  20567122.287      -18144.021         118.000          39.000  
G29  22259913.361      119278.944        -826.000          30.000  
G31  20151916.497     -125604.660         827.000          44.000  
G32  20085117.342      194600.464       -1320.000          49.000  
> 2024 12 28  3 24 49.9949999  0  9                     
G10  23625401.537      428160.2271      -2803.000          24.000  
G16  20021509.215     -381101.030        2468.000          45.000  
G25  23945738.360      322762.9611      -2929.000          22.000  
G26  19095534.205      -16355.834         332.000          31.000  
G27  23169410.351     -637822.813        4214.000          35.000  
G28  20567099.611      -18263.022         119.000          40.000  
G29  22260070.433      120104.904        -825.000          30.000  
G31  20151758.861     -126433.035         828.000          44.000  
G32  20085368.583      195920.688       -1320.000          49.000  
> 2024 12 28  3 24 50.9949999  0  9                     
G10  23625942.633      430962.7951      -2802.000          26.000  
G16  20021039.441     -383569.563        2468.000          44.000  
G25  23946291.252      325691.6371      -2928.000          20.000  
G26  19095457.842      -16688.318         332.000          31.000  
G27  23168609.700     -642037.558        4214.000          35.000  
G28  20567076.906      -18382.310         119.000          40.000  
G29  22260227.585      120931.049        -826.000          31.000  
G31  20151601.148     -127261.790         828.000          44.000  
G32  20085619.847      197241.031       -1320.000          49.000  
> 2024 12 28  3 24 51.9949999  0  9                     
G10  23626486.521      433764.5951      -2801.000          25.000  
G16  20020569.678     -386038.042        2468.000          44.000  
G25  23946860.199      328620.1311      -2928.000          22.000  
G26  19095396.104      -17020.857         332.000          31.000  
G27  23167809.153     -646252.811        4215.000          34.000  
G28  20567054.159      -18501.962         119.000          41.000  
G29  22260384.732      121757.286        -826.000          29.000  
G31  20151443.373     -128090.855         829.000          44.000  
G32  20085871.125      198561.451       -1320.000          49.000  
> 2024 12 28  3 24 52.9949999  0  9                     
G10  23627031.143      436566.2951      -2801.000          26.000  
G16  20020100.008     -388506.087        2468.000          44.000  
G25  23947426.389      331550.5111      -2930.000          21.000  
G26  19095334.853      -17352.915         332.000          31.000  
G27  23167010.073     -650468.197        4215.000          35.000  
G28  20567031.435      -18621.604         119.000          41.000  
G29  22260541.957      122584.030        -826.000          30.000  
G31  20151285.598     -128919.919         829.000          44.000  
G32  20086122.487      199882.323       -1320.000          48.000  
> 2024 12 28  3 24 53.9949999  0  9                     
G10  23627554.928      439367.5191      -2801.000          27.000  
G16  20019630.368     -390973.969        2467.000          45.000  
G25  23947976.455      334477.8531      -2927.000          22.000  
G26  19095280.339      -17684.928         332.000          31.000  
G27  23166210.050     -654683.964        4215.000          35.000  
G28  20567008.676      -18741.478         119.000          40.000  
G29  22260699.248      123411.053        -827.000          31.000  
G31  20151127.772     -129749.228         829.000          44.000  
G32  20086373.893      201203.415       -1321.000          48.000  
> 2024 12 28  3 24 54.9949999  0  9                     
G10  23628090.510      442168.289       -2800.000          27.000  
G16  20019160.792     -393441.488        2467.000          45.000  
G25  23948505.755      337403.5391      -2925.000          20.000  
G26  19095231.897      -18016.557         331.000          31.000  
G27  23165405.002     -658900.038        4216.000          35.000  
G28  20566985.913      -18861.417         119.000          41.000  
G29  22260856.639      124238.484        -827.000          33.000  
G31  20150969.936     -130578.571         829.000          44.000  
G32  20086625.359      202524.834       -1321.000          48.000  
> 2024 12 28  3 24 55.9949999  0  9                     
G10  23628633.212      444968.7471      -2800.000          27.000  
G16  20018691.262     -395908.724        2467.000          44.000  
G25  23949102.447      340333.7501      -2930.000          18.000  
G26  19095167.436      -18347.972         331.000          32.000  
G27  23164607.283     -663116.336        4216.000          35.000  
G28  20566963.113      -18981.538         120.000          41.000  
G29  22261014.114      125066.224        -827.000          34.000  
G31  20150812.069     -131408.059         829.000          45.000  
G32  20086876.884      203846.575       -1321.000          48.000  
> 2024 12 28  3 24 56.9949999  0  9                     
G10  23629151.833      447770.4011      -2801.000          28.000  
G16  20018222.093     -398374.098        2465.000          45.000  
G25  23949645.743      343262.4351      -2928.000          21.000  
G26  19095102.347      -18677.549         329.000          31.000  
G27  23163813.298     -667331.340        4215.000          36.000  
G28  20566940.592      -19100.157         118.000          41.000  
G29  22261171.953      125895.947        -829.000          35.000  
G31  20150654.492     -132236.060         828.000          45.000  
G32  20087128.773      205170.217       -1323.000          49.000  
> 2024 12 28  3 24 57.9949999  0  9                     
G10  23629689.299      450573.5631      -2803.000          28.000  
G16  20017753.338     -400837.280        2463.000          44.000  
G25  23950218.843      346193.0141      -2930.000          19.000  
G26  19095032.022      -19005.0141        327.000          32.000  
G27  23163011.391     -671544.802        4213.000          37.000  
G28  20566918.372      -19217.053         116.000          40.000  
G29  22261330.193      126727.726        -831.000          32.000  
G31  20150497.250     -133062.351         826.000          45.000  
G32  20087381.076      206496.039       -1325.000          48.000  
> 2024 12 28  3 24 58.9949999  0  9                     
G10  23630227.464      453376.3101      -2802.000          28.000  
G16  20017284.640     -403300.191        2462.000          44.000  
G25  23950778.331      349123.9671      -2930.000          20.000  
G26  19094964.699      -19332.1521        327.000          32.000  
G27  23162209.239     -675758.438        4213.000          37.000  
G28  20566896.105      -19333.991         116.000          40.000  
G29  22261488.546      127560.077        -832.000          33.000  
G31  20150340.002     -133888.693         826.000          45.000  
G32  20087633.454      207822.229       -1326.000          49.000  
> 2024 12 28  3 24 59.9949999  0  9                     
G10  23630781.997      456178.5101      -2802.000          29.000  
G16  20016815.965     -405762.952        2462.000          44.000  
G25  23951309.202      352053.1841      -2929.000          20.000  
G26  19094897.725      -19659.2801        327.000          31.000  
G27  23161407.925     -679972.522        4214.000          36.000  
G28  20566873.748      -19451.264         117.000          40.000  
G29  22261646.955      128392.480        -832.000          33.000  
G31  20150182.689     -134715.359         826.000          45.000  
G32  20087885.853      209148.510       -1326.000          49.000  
> 2024 12 28  3 25  0.9949999  0  9                     
G10  23631321.104      458979.473       -2800.000          29.000  
G16  20016347.193     -408226.208        2463.000          44.000  
G25  23951858.535      354979.8081      -2927.000          17.000  
G26  19094845.340      -19986.863         327.000          31.000  
G27  23160597.537     -684187.723        4215.000          35.000  
G28  20566851.190      -19569.453         118.000          40.000  
G29  22261805.326      129224.551        -832.000          33.000  
G31  20150025.205     -135542.924         827.000          45.000  
G32  20088138.175      210474.357       -1325.000          49.000  
> 2024 12 28  3 25  1.9949999  0  9                     
G10  23631846.600      461780.235       -2800.000          30.000  
G16  20015878.479     -410689.181        2462.000          44.000  
G25  23952417.744      357908.8121      -2928.000          20.000  
G26  19094786.463      -20314.274         327.000          32.000  
G27  23159800.097     -688403.167        4215.000          36.000  
G28  20566828.611      -19687.773         118.000          40.000  
G29  22261963.701      130056.921        -832.000          34.000  
G31  20149867.700     -136370.603         827.000          45.000  
G32  20088390.557      211800.492       -1326.000          49.000  
> 2024 12 28  3 25  2.9949999  0  9                     
G10  23632375.691      464580.7371      -2800.000          30.000  
G16  20015409.881     -413151.548        2462.000          44.000  
G25  23952978.525      360835.8621      -2927.000          21.000  
G26  19094726.783      -20641.105         326.000          32.000  
G27  23158999.237     -692618.643        4215.000          36.000  
G28  20566806.076      -19805.920         118.000          40.000  
G29  22262122.263      130889.907        -832.000          35.000  
G31  20149710.229     -137198.099         827.000          45.000  
G32  20088643.064      213127.259       -1326.000          48.000  
> 2024 12 28  3 25  3.9949999  0  9                     
G10  23632893.334      467382.3251      -2801.000          30.000  
G16  20014941.585     -415612.364        2460.000          44.000  
G25  23953525.135      363764.2231      -2928.000          23.000  
G26  19094662.112      -20966.433         325.000          31.000  
G27  23158198.865     -696833.085        4214.000          36.000  
G28  20566783.775      -19922.889         116.000          41.000  
G29  22262281.193      131724.574        -834.000          36.000  
G31  20149552.974     -138024.438         826.000          45.000  
G32  20088895.873      214455.623       -1328.000          48.000  
> 2024 12 28  3 25  4.9949999  0  9                     
G10  23633433.278      470186.4081      -2804.000          31.000  
G16  20014473.923     -418069.888        2457.000          44.000  
G25  23954102.912      366696.4921      -2932.000          21.000  
G26  19094598.594      -21288.411         321.000          31.000  
G27  23157398.737     -701044.828        4211.000          36.000  
G28  20566762.024      -20037.023         114.000          41.000  
G29  22262440.658      132562.558        -837.000          36.000  
G31  20149396.265     -138847.896         823.000          45.000  
G32  20089149.301      215787.262       -1331.000          48.000  
> 2024 12 28  3 25  5.9949999  0  9                     
G10  23633969.873      472989.7301      -2803.000          30.000  
G16  20014006.247     -420527.466        2457.000          44.000  
G25  23954630.781      369622.5411      -2926.000          19.000  
G26  19094538.425      -21610.623         322.000          31.000  
G27  23156598.296     -705257.196        4212.000          37.000  
G28  20566740.192      -20151.641         114.000          41.000  
G29  22262600.171      133400.479        -837.000          35.000  
G31  20149239.461     -139671.872         823.000          45.000  
G32  20089402.722      217118.884       -1331.000          48.000  
> 2024 12 28  3 25  6.9949999  0  9                     
G10  23634513.970      475793.989       -2804.000          30.000  
G16  20013538.861     -422983.515        2456.000          43.000  
G25  23955178.125      372553.5471      -2931.000          19.000  
G26  19094473.301      -21931.182         320.000          30.000  
G27  23155797.959     -709468.599        4211.000          36.000  
G28  20566718.597      -20265.077         113.000          41.000  
G29  22262759.962      134240.069        -839.000          34.000  
G31  20149082.893     -140494.633         822.000          45.000  
G32  20089656.439      218452.091       -1333.000          48.000  
> 2024 12 28  3 25  7.9949999  0  9                     
G10  23635042.782      478599.235       -2805.000          30.000  
G16  20013071.809     -425437.809        2454.000          43.000  
G25  23955751.504      375484.1561      -2930.000          19.000  
G26  19094407.688      -22250.144         318.000          31.000  
G27  23154996.226     -713678.799        4210.000          36.000  
G28  20566697.244      -20377.288         112.000          41.000  
G29  22262920.028      135081.407        -841.000          34.000  
G31  20148926.566     -141316.147         821.000          45.000  
G32  20089910.483      219787.017       -1334.000          48.000  
> 2024 12 28  3 25  8.9949999  0  9                     
G10  23635570.651      481406.072       -2806.000          30.000  
G16  20012605.175     -427889.915        2452.000          44.000  
G25  23956300.802      378416.8791      -2932.000          18.000  
G26  19094355.128      -22566.908         316.000          30.000  
G27  23154193.761     -717887.354        4208.000          36.000  
G28  20566676.248      -20487.632         110.000          41.000  
G29  22263080.528      135925.047        -843.000          35.000  
G31  20148770.587     -142135.850         819.000          45.000  
G32  20090164.948      221124.172       -1337.000          48.000  
> 2024 12 28  3 25  9.9949999  0  9                     
G10  23636108.536      484213.006       -2806.000          30.000  
G16  20012138.709     -430341.150        2451.000          44.000  
G25  23956866.608      381351.4091      -2934.000          16.000  
G26  19094293.075      -22882.929         316.000          30.000  
G27  23153392.935     -722095.680        4208.000          36.000  
G28  20566655.326      -20597.566         109.000          41.000  
G29  22263241.199      136769.563        -844.000          35.000  
G31  20148614.700     -142955.098         819.000          45.000  
G32  20090419.580      222462.224       -1338.000          48.000  
> 2024 12 28  3 25 10.9949999  0  9                     
G10  23636635.254      487021.699       -2808.000          30.000  
G16  20011672.670     -432790.146        2448.000          44.000  
G25  23957441.104      384291.6461      -2940.000          19.000  
G26  19094235.908      -23196.597         313.000          31.000  
G27  23152590.539     -726302.284        4206.000          36.000  
G28  20566634.742      -20705.639         108.000          41.000  
G29  22263402.362      137616.444        -846.000          35.000  
G31  20148459.169     -143772.484         817.000          45.000  
G32  20090674.643      223802.560       -1340.000          48.000  
> 2024 12 28  3 25 11.9949999  0  9                     
G10  23637168.986      489831.371       -2809.000          29.000  
G16  20011206.982     -435237.311        2447.000          44.000  
G25  23957985.585      387227.5521      -2935.000          18.000  
G26  19094179.335      -23508.592         311.000          31.000  
G27  23151776.068     -730507.611        4205.000          36.000  
G28  20566614.424      -20812.272         106.000          41.000  
G29  22263563.866      138465.157        -848.000          34.000  
G31  20148303.909     -144588.449         815.000          46.000  
G32  20090930.060      225144.753       -1342.000          48.000  
> 2024 12 28  3 25 12.9949999  0  9                     
G10  23637707.081      492640.936       -2809.000          31.000  
G16  20010741.397     -437683.902        2446.000          44.000  
G25  23958545.633      390166.3311      -2938.000          18.000  
G26  19094124.367      -23820.062         311.000          30.000  
G27  23150975.766     -734712.999        4205.000          35.000  
G28  20566594.114      -20918.828         106.000          41.000  
G29  22263725.499      139314.501        -849.000          35.000  
G31  20148148.673     -145404.302         815.000          46.000  
G32  20091185.580      226487.482       -1342.000          48.000  
> 2024 12 28  3 25 13.9949999  0  8                     
G10  23638244.967      495450.224       -2809.000          31.000  
G16  20010275.879     -440130.129        2446.000          44.000  
G26  19094064.477      -24131.175         311.000          31.000  
G27  23150175.080     -738918.521        4205.000          35.000  
G28  20566573.807      -21025.377         106.000          41.000  
G29  22263887.220      140164.309        -849.000          35.000  
G31  20147993.443     -146220.155         815.000          45.000  
G32  20091441.181      227830.633       -1343.000          48.000  
> 2024 12 28  3 25 14.9949999  0  8                     
G10  23638785.644      498259.684       -2809.000          32.000  
G16  20009810.521     -442575.494        2445.000          43.000  
G26  19094004.169      -24441.455         310.000          31.000  
G27  23149377.221     -743123.811        4205.000          34.000  
G28  20566553.594      -21131.509         106.000          41.000  
G29  22264049.130      141015.047        -850.000          35.000  
G31  20147838.295     -147035.581         815.000          45.000  
G32  20091696.953      229174.666       -1344.000          48.000  
> 2024 12 28  3 25 15.9949999  0  9                     
G10  23639309.849      501069.037       -2809.000          33.000  
G16  20009345.256     -445020.367        2444.000          44.000  
G25  23960238.409      398991.2541      -2950.000          13.000  
G26  19093947.317      -24751.237         309.000          31.000  
G27  23148575.035     -747329.132        4205.000          35.000  
G28  20566533.410      -21237.549         106.000          42.000  
G29  22264211.158      141866.280        -851.000          35.000  
G31  20147683.170     -147850.907         815.000          45.000  
G32  20091952.825      230519.221       -1344.000          48.000  
> 2024 12 28  3 25 16.9949999  0  9                     
G10  23639847.804      503876.901       -2807.000          32.000  
G16  20008879.863     -447465.937        2445.000          44.000  
G25  23960800.061      401939.8431      -2948.000          13.000  
G26  19093874.096      -25061.832         310.000          30.000  
G27  23147772.150     -751535.673        4206.000          35.000  
G28  20566513.033      -21344.697         107.000          42.000  
G29  22264373.109      142716.930        -850.000          35.000  
G31  20147527.821     -148667.373         816.000          45.000  
G32  20092208.573      231863.124       -1343.000          48.000  
> 2024 12 28  3 25 17.9949999  0  8                     
G10  23640378.186      506683.399       -2806.000          31.000  
G16  20008414.344     -449912.216        2446.000          44.000  
G26  19093812.636      -25373.205         311.000          29.000  
G27  23146974.396     -755743.622        4207.000          34.000  
G28  20566492.461      -21453.002         108.000          42.000  
G29  22264534.894      143566.869        -849.000          36.000  
G31  20147372.253     -149484.960         817.000          45.000  
G32  20092464.181      233206.301       -1343.000          48.000  
> 2024 12 28  3 25 18.9949999  0  8                     
G10  23640918.061      509489.901       -2806.000          31.000  
G16  20007948.945     -452357.847        2445.000          43.000  
G26  19093750.129      -25683.874         310.000          30.000  
G27  23146167.289     -759951.459        4207.000          34.000  
G28  20566471.937      -21561.068         108.000          42.000  
G29  22264696.855      144417.521        -850.000          36.000  
G31  20147216.729     -150302.303         817.000          45.000  
G32  20092719.911      234550.127       -1343.000          48.000  
> 2024 12 28  3 25 19.9949999  0  8                     
G10  23641457.587      512295.399       -2805.000          33.000  
G16  20007483.478     -454803.810        2445.000          43.000  
G26  19093700.396      -25994.9261        311.000          30.000  
G27  23145372.850     -764160.183        4208.000          34.000  
G28  20566451.280      -21669.850         108.000          42.000  
G29  22264858.758      145267.964        -850.000          35.000  
G31  20147061.057     -151120.374         818.000          45.000  
G32  20092975.586      235893.682       -1343.000          48.000  
> 2024 12 28  3 25 20.9949999  0  8                     
G10  23641990.167      515099.558       -2804.000          32.000  
G16  20007017.893     -457250.384        2446.000          44.000  
G26  19093635.132      -26306.7181        311.000          29.000  
G27  23144572.967     -768370.115        4209.000          33.000  
G28  20566430.413      -21779.706         109.000          42.000  
G29  22265020.490      146117.752        -849.000          35.000  
G31  20146905.182     -151939.514         819.000          45.000  
G32  20093231.140      237236.620       -1342.000          48.000  
> 2024 12 28  3 25 21.9949999  0  9                     
G10  23642517.408      517902.947       -2803.000          32.000  
G16  20006552.270     -459697.139        2446.000          44.000  
G25  23963619.667      416659.2541      -2942.000          10.000  
G26  19093593.426      -26618.6951        311.000          31.000  
G27  23143761.148     -772580.743        4210.000          32.000  
G28  20566409.414      -21890.134         110.000          41.000  
G29  22265182.177      146967.452        -849.000          35.000  
G31  20146749.203     -152759.185         819.000          45.000  
G32  20093486.669      238579.423       -1342.000          48.000  
> 2024 12 28  3 25 22.9949999  0  9                     
G10  23643050.652      520706.163       -2803.000          32.000  
G16  20006086.745     -462143.359        2446.000          44.000  
G25  23964186.765      419602.9111      -2943.000          12.000  
G26  19093529.977      -26930.1281        311.000          30.000  
G27  23142955.157     -776791.387        4210.000          31.000  
G28  20566388.418      -22000.435         110.000          41.000  
G29  22265343.982      147817.785        -850.000          35.000  
G31  20146593.242     -153578.751         819.000          45.000  
G32  20093742.302      239922.779       -1343.000          48.000  
> 2024 12 28  3 25 23.9949999  0  8                     
G10  23643586.094      523509.510       -2803.000          32.000  
G16  20005621.380     -464588.768        2445.000          44.000  
G26  19093475.951      -27240.8121        310.000          31.000  
G27  23142147.282     -781001.837        4210.000          31.000  
G28  20566367.486      -22110.325         109.000          41.000  
G29  22265505.951      148668.952        -851.000          35.000  
G31  20146437.357     -154397.901         819.000          45.000  
G32  20093998.094      241266.965       -1344.000          48.000  
> 2024 12 28  3 25 24.9949999  0  8                     
G10  23644119.303      526312.701       -2803.000          32.000  
G16  20005156.122     -467033.646        2444.000          43.000  
G26  19093413.863      -27551.012         310.000          31.000  
G27  23141351.343     -785212.263        4210.000          31.000  
G28  20566346.564      -22220.126         109.000          41.000  
G29  22265668.030      149520.664        -851.000          35.000  
G31  20146281.489     -155216.970         819.000          45.000  
G32  20094253.993      242611.694       -1344.000          48.000  
> 2024 12 28  3 25 25.9949999  0  8                     
G10  23644647.242      529116.732       -2804.000          33.000  
G16  20004691.156     -469477.014        2443.000          44.000  
G26  19093347.588      -27859.721         308.000          33.000  
G27  23140546.853     -789421.780        4209.000          32.000  
G28  20566325.853      -22328.807         108.000          41.000  
G29  22265830.380      150374.086        -853.000          33.000  
G31  20146125.825     -156034.949         817.000          45.000  
G32  20094510.192      243957.988       -1346.000          48.000  
> 2024 12 28  3 25 26.9949999  0  8                     
G10  23645181.219      531920.142       -2803.000          33.000  
G16  20004226.197     -471920.323        2443.000          44.000  
G26  19093284.941      -28168.469         308.000          31.000  
G27  23139750.774     -793631.806        4210.000          33.000  
G28  20566305.062      -22437.895         109.000          41.000  
G29  22265992.700      151227.501        -853.000          33.000  
G31  20145970.110     -156853.215         818.000          45.000  
G32  20094766.404      245304.324       -1346.000          48.000  
> 2024 12 28  3 25 27.9949999  0  8                     
G10  23645714.428      534723.421       -2803.000          33.000  
G16  20003761.348     -474363.050        2442.000          44.000  
G26  19093224.459      -28476.669         308.000          32.000  
G27  23138951.903     -797841.834        4210.000          34.000  
G28  20566284.313      -22546.774         108.000          41.000  
G29  22266155.141      152081.542        -854.000          33.000  
G31  20145814.422     -157671.346         818.000          45.000  
G32  20095022.728      246651.240       -1346.000          48.000  
> 2024 12 28  3 25 28.9949999  0  8                     
G10  23646236.433      537526.910       -2803.000          32.000  
G16  20003296.659     -476804.932        2441.000          44.000  
G26  19093168.304      -28784.088         307.000          32.000  
G27  23138149.856     -802051.581        4209.000          34.000  
G28  20566263.649      -22655.270         108.000          41.000  
G29  22266317.764      152936.547        -855.000          33.000  
G31  20145658.817     -158489.052         817.000          45.000  
G32  20095279.224      247999.051       -1347.000          48.000  
> 2024 12 28  3 25 29.9949999  0  8                     
G10  23646776.622      540329.896       -2802.000          31.000  
G16  20002832.019     -479246.598        2441.000          44.000  
G26  19093119.653      -29091.221         307.000          32.000  
G27  23137349.694     -806261.670        4210.000          34.000  
G28  20566242.963      -22763.952         108.000          41.000  
G29  22266480.429      153791.812        -855.000          34.000  
G31  20145503.177     -159306.933         817.000          45.000  
G32  20095535.774      249347.136       -1348.000          48.000  
> 2024 12 28  3 25 30.9949999  0  8                     
G10  23647299.187      543132.703       -2802.000          32.000  
G16  20002367.458     -481687.853        2441.000          44.000  
G26  19093066.569      -29398.021         306.000          33.000  
G27  23136549.078     -810471.906        4210.000          34.000  
G28  20566222.298      -22872.581         108.000          42.000  
G29  22266643.261      154647.529        -855.000          35.000  
G31  20145347.533     -160124.826         817.000          45.000  
G32  20095792.399      250695.630       -1348.000          48.000  
> 2024 12 28  3 25 31.9949999  0  8                     
G10  23647836.933      545934.769       -2802.000          31.000  
G16  20001902.903     -484129.077        2441.000          44.000  
G26  19093011.182      -29704.908         306.000          33.000  
G27  23135751.777     -814682.703        4210.000          33.000  
G28  20566201.554      -22981.670         109.000          42.000  
G29  22266795.883      155503.3101       -855.000          34.000  
G31  20145191.812     -160943.122         818.000          45.000  
G32  20096049.029      252044.146       -1348.000          48.000  
> 2024 12 28  3 25 32.9949999  0  8                     
G10  23648367.000      548736.769       -2801.000          30.000  
G16  20001438.468     -486569.705        2440.000          44.000  
G26  19092949.513      -30011.207         306.000          33.000  
G27  23134944.879     -818893.457        4210.000          32.000  
G28  20566180.855      -23090.553         108.000          42.000  
G29  22266967.000      156359.8211       -856.000          36.000  
G31  20145036.130     -161761.214         818.000          45.000  
G32  20096305.778      253393.294       -1349.000          48.000  
> 2024 12 28  3 25 33.9949999  0  8                     
G10  23648892.287      551538.6951      -2801.000          30.000  
G16  20000974.158     -489009.648        2439.000          44.000  
G26  19092883.761      -30316.900         305.000          33.000  
G27  23134142.483     -823104.100        4210.000          33.000  
G28  20566160.209      -23199.188         108.000          42.000  
G29  22267130.474      157217.0341       -857.000          36.000  
G31  20144880.489     -162579.053         817.000          45.000  
G32  20096562.657      254743.133       -1349.000          48.000  
> 2024 12 28  3 25 34.9949999  0  8                     
G10  23649421.587      554341.0581      -2802.000          27.000  
G16  20000510.051     -491448.501        2438.000          43.000  
G26  19092819.753      -30621.509         304.000          33.000  
G27  23133345.322     -827314.316        4210.000          33.000  
G28  20566139.690      -23307.142         107.000          41.000  
G29  22267294.192      158075.3171       -858.000          36.000  
G31  20144724.974     -163396.219         817.000          45.000  
G32  20096819.748      256094.073       -1350.000          48.000  
> 2024 12 28  3 25 35.9949999  0  8                     
G10  23649964.917      557144.1201      -2803.000          28.000  
G16  20000046.204     -493885.987        2437.000          44.000  
G26  19092759.201      -30924.727         303.000          33.000  
G27  23132551.896     -831523.590        4209.000          34.000  
G28  20566119.353      -23414.110         106.000          41.000  
G29  22267453.408      158935.1291       -859.000          36.000  
G31  20144569.642     -164212.408         816.000          45.000  
G32  20097077.105      257446.431       -1352.000          48.000  
> 2024 12 28  3 25 36.9949999  0  8                     
G10  23650475.336      559948.0081      -2803.000          24.000  
G16  19999582.567     -496322.368        2436.000          44.000  
G26  19092702.104      -31226.904         302.000          33.000  
G27  23131750.372     -835732.354        4208.000          35.000  
G28  20566099.148      -23520.377         106.000          41.000  
G29  22267620.441      159796.061        -860.000          37.000  
G31  20144414.447     -165027.863         815.000          45.000  
G32  20097334.674      258799.928       -1353.000          49.000  
> 2024 12 28  3 25 37.9949999  0  8                     
G10  23651007.986      562751.4551      -2803.000          22.000  
G16  19999119.052     -498758.127        2435.000          44.000  
G26  19092647.450      -31528.585         301.000          33.000  
G27  23130951.676     -839941.117        4208.000          35.000  
G28  20566078.972      -23626.495         106.000          41.000  
G29  22267784.159      160657.639        -861.000          36.000  
G31  20144259.280     -165843.184         815.000          45.000  
G32  20097592.356      260154.026       -1354.000          48.000  
> 2024 12 28  3 25 38.9949999  0  8                     
G10  23651569.464      565553.8391      -2802.000          21.000  
G16  19998655.507     -501194.074        2435.000          44.000  
G26  19092588.433      -31830.451         301.000          33.000  
G27  23130148.163     -844150.623        4209.000          34.000  
G28  20566058.684      -23733.234         106.000          42.000  
G29  22267944.003      161519.118        -861.000          35.000  
G31  20144104.002     -166659.101         815.000          45.000  
G32  20097850.004      261507.951       -1353.000          49.000  
> 2024 12 28  3 25 39.9949999  0  8                     
G10  23652104.348      568356.3771      -2802.000          25.000  
G16  19998192.066     -503629.468        2435.000          44.000  
G26  19092533.116      -32131.805         301.000          34.000  
G27  23129348.490     -848360.120        4209.000          34.000  
G28  20566038.441      -23839.765         106.000          42.000  
G29  22268114.282      162381.214        -862.000          36.000  
G31  20143948.756     -167474.824         815.000          45.000  
G32  20098107.772      262862.506       -1354.000          49.000  
> 2024 12 28  3 25 40.9949999  0  8                     
G10  23652632.706      571160.9871      -2804.000          22.000  
G16  19997728.766     -506064.113        2434.000          44.000  
G26  19092477.904      -32432.409         300.000          33.000  
G27  23128543.825     -852569.472        4209.000          34.000  
G28  20566018.257      -23946.018         106.000          42.000  
G29  22268278.978      163244.139        -862.000          37.000  
G31  20143793.563     -168290.269         815.000          45.000  
G32  20098365.677      264217.773       -1355.000          48.000  
> 2024 12 28  3 25 41.9949999  0  8                     
G10  23653164.658      573965.2521      -2804.000          24.000  
G16  19997265.736     -508497.351        2433.000          44.000  
G26  19092418.852      -32731.700         299.000          33.000  
G27  23127742.930     -856777.954        4208.000          34.000  
G28  20565998.267      -24051.259         105.000          42.000  
G29  22268443.708      164108.493        -864.000          36.000  
G31  20143638.571     -169104.657         814.000          45.000  
G32  20098623.866      265574.528       -1356.000          48.000  
> 2024 12 28  3 25 42.9949999  0  8                     
G10  23653680.068      576772.4741      -2807.000          21.000  
G16  19996803.167     -510928.192        2430.000          44.000  
G26  19092357.846      -33028.615         296.000          33.000  
G27  23126942.478     -860984.610        4206.000          34.000  
G28  20565978.655      -24154.510         103.000          42.000  
G29  22268600.725      164975.318        -866.000          35.000  
G31  20143483.960     -169917.063         812.000          45.000  
G32  20098882.508      266933.661       -1359.000          48.000  
> 2024 12 28  3 25 43.9949999  0  8                     
G10  23654236.346      579577.0871      -2804.000          21.000  
G16  19996340.798     -513358.007        2429.000          44.000  
G26  19092296.945      -33324.562         295.000          33.000  
G27  23126142.124     -865190.809        4206.000          35.000  
G28  20565959.159      -24257.149         102.000          41.000  
G29  22268774.878      165843.227        -867.000          36.000  
G31  20143329.459     -170728.890         811.000          45.000  
G32  20099141.355      268293.874       -1360.000          49.000  
> 2024 12 28  3 25 44.9949999  0  8                     
G10  23654743.903      582383.0731      -2805.000          24.000  
G16  19995878.677     -515786.511        2428.000          44.000  
G26  19092243.373      -33619.244         294.000          33.000  
G27  23125341.893     -869396.317        4205.000          35.000  
G28  20565939.818      -24358.954         101.000          41.000  
G29  22268940.969      166712.478        -869.000          37.000  
G31  20143175.130     -171539.839         810.000          46.000  
G32  20099400.439      269655.343       -1361.000          49.000  
> 2024 12 28  3 25 45.9949999  0  8                     
G10  23655295.156      585188.4291      -2805.000          24.000  
G16  19995416.463     -518215.525        2429.000          44.000  
G26  19092188.474      -33914.475         295.000          34.000  
G27  23124541.492     -873602.818        4206.000          34.000  
G28  20565920.316      -24461.623         102.000          41.000  
G29  22269095.368      167581.259        -868.000          35.000  
G31  20143020.635     -172351.682         811.000          46.000  
G32  20099659.437      271016.353       -1361.000          48.000  
> 2024 12 28  3 25 46.9949999  0  8                     
G10  23655837.613      587992.2051      -2803.000          25.000  
G16  19994954.194     -520644.841        2429.000          44.000  
G26  19092133.611      -34209.997         295.000          34.000  
G27  23123740.927     -877810.219        4207.000          34.000  
G28  20565900.671      -24565.013         103.000          41.000  
G29  22269270.569      168449.861        -868.000          35.000  
G31  20142866.013     -173164.219         812.000          46.000  
G32  20099918.391      272377.132       -1360.000          48.000  
> 2024 12 28  3 25 47.9949999  0  8                     
G10  23656371.764      590795.5971      -2803.000          26.000  
G16  19994491.985     -523073.827        2428.000          44.000  
G26  19092083.319      -34505.307         295.000          34.000  
G27  23122940.318     -882017.807        4207.000          34.000  
G28  20565880.996      -24668.509         103.000          41.000  
G29  22269435.264      169318.820        -868.000          35.000  
G31  20142711.367     -173976.866         812.000          45.000  
G32  20100177.402      273738.200       -1361.000          49.000  
> 2024 12 28  3 25 48.9949999  0  8                     
G10  23656911.081      593598.992       -2803.000          29.000  
G16  19994029.878     -525502.239        2428.000          44.000  
G26  19092027.513      -34800.039         294.000          34.000  
G27  23122139.637     -886225.422        4207.000          33.000  
G28  20565861.336      -24771.849         103.000          40.000  
G29  22269600.517      170188.350        -869.000          36.000  
G31  20142556.756     -174789.337         812.000          45.000  
G32  20100436.532      275099.882       -1361.000          49.000  
> 2024 12 28  3 25 49.9949999  0  8                     
G10  23657451.828      596401.984       -2802.000          30.000  
G16  19993567.846     -527930.237        2428.000          44.000  
G26  19091970.905      -35094.446         294.000          34.000  
G27  23121338.910     -890433.239        4207.000          33.000  
G28  20565841.664      -24875.198         103.000          40.000  
G29  22269766.643      171058.453        -870.000          36.000  
G31  20142402.148     -175601.812         812.000          46.000  
G32  20100695.743      276461.994       -1362.000          49.000  
> 2024 12 28  3 25 50.9949999  0  8                     
G10  23657991.354      599205.224       -2803.000          30.000  
G16  19993105.963     -530357.425        2427.000          45.000  
G26  19091913.249      -35388.062         293.000          35.000  
G27  23120538.224     -894640.745        4207.000          32.000  
G28  20565822.067      -24978.137         102.000          40.000  
G29  22269931.897      171929.318        -870.000          36.000  
G31  20142247.612     -176413.916         812.000          45.000  
G32  20100955.108      277824.932       -1362.000          48.000  
> 2024 12 28  3 25 51.9949999  0  8                     
G10  23658520.793      602007.859       -2802.000          30.000  
G16  19992644.115     -532784.451        2427.000          45.000  
G26  19091856.955      -35681.582         293.000          35.000  
G27  23119737.378     -898848.744        4208.000          32.000  
G28  20565802.420      -25081.330         103.000          40.000  
G29  22270097.814      172800.428        -871.000          35.000  
G31  20142093.043     -177226.226         812.000          45.000  
G32  20101214.511      279188.065       -1363.000          49.000  
> 2024 12 28  3 25 52.9949999  0  8                     
G10  23659052.397      604809.941       -2802.000          30.000  
G16  19992182.288     -535211.370        2426.000          45.000  
G26  19091803.697      -35975.019         293.000          35.000  
G27  23118936.464     -903057.124        4208.000          33.000  
G28  20565782.699      -25184.844         103.000          40.000  
G29  22270260.345      173671.702        -871.000          35.000  
G31  20141938.404     -178038.894         812.000          45.000  
G32  20101473.934      280551.304       -1363.000          49.000  
> 2024 12 28  3 25 53.9949999  0  8                     
G10  23659585.641      607611.453       -2801.000          30.000  
G16  19991720.482     -537638.183        2426.000          45.000  
G26  19091747.752      -36268.378         293.000          35.000  
G27  23118135.433     -907266.019        4208.000          33.000  
G28  20565762.914      -25288.670         103.000          41.000  
G29  22270425.843      174543.164        -871.000          35.000  
G31  20141783.711     -178851.819         812.000          45.000  
G32  20101733.383      281914.673       -1363.000          49.000  
> 2024 12 28  3 25 54.9949999  0  8                     
G10  23660111.695      610413.1881      -2801.000          30.000  
G16  19991258.844     -540064.066        2425.000          45.000  
G26  19091698.682      -36560.851         292.000          35.000  
G27  23117334.513     -911474.457        4208.000          32.000  
G28  20565743.241      -25391.942         103.000          41.000  
G29  22270597.867      175415.626        -872.000          37.000  
G31  20141629.114     -179664.224         812.000          45.000  
G32  20101993.026      283279.033       -1364.000          49.000  
> 2024 12 28  3 25 55.9949999  0  8                     
G10  23660637.435      613214.2841      -2801.000          29.000  
G16  19990797.199     -542489.979        2425.000          45.000  
G26  19091642.527      -36853.425         292.000          35.000  
G27  23116519.578     -915683.5681       4209.000          32.000  
G28  20565723.478      -25495.711         103.000          41.000  
G29  22270764.621      176288.042        -872.000          37.000  
G31  20141474.423     -180477.103         812.000          45.000  
G32  20102252.658      284643.341       -1364.000          49.000  
> 2024 12 28  3 25 56.9949999  0  8                     
G10  23661167.852      616014.7431      -2800.000          29.000  
G16  19990335.580     -544915.751        2425.000          45.000  
G26  19091588.012      -37145.884         292.000          35.000  
G27  23115720.358     -919893.0921       4209.000          33.000  
G28  20565703.668      -25599.711         104.000          41.000  
G29  22270929.596      177160.708        -872.000          36.000  
G31  20141319.680     -181290.256         813.000          45.000  
G32  20102512.317      286007.795       -1364.000          49.000  
> 2024 12 28  3 25 57.9949999  0  9                     
G10  23661699.385      618815.3971      -2800.000          27.000  
G16  19989874.106     -547340.783        2425.000          45.000  
G25  23983656.845        8188.6141      -2933.000          15.000  
G26  19091528.821      -37437.653         291.000          35.000  
G27  23114930.422     -924102.4801       4209.000          34.000  
G28  20565683.915      -25703.415         103.000          41.000  
G29  22271095.094      178034.126        -873.000          36.000  
G31  20141165.005     -182103.042         812.000          45.000  
G32  20102772.124      287373.038       -1365.000          49.000  
> 2024 12 28  3 25 58.9949999  0  9                     
G10  23662232.176      621617.1991      -2801.000          25.000  
G16  19989412.800     -549764.951        2424.000          45.000  
G25  23984220.348       11120.3961      -2931.000          14.000  
G26  19091471.724      -37728.622         290.000          35.000  
G27  23114130.085     -928311.5001       4209.000          35.000  
G28  20565664.240      -25806.705         103.000          41.000  
G29  22271256.648      178908.534        -874.000          36.000  
G31  20141010.408     -182915.408         812.000          45.000  
G32  20103032.092      288739.128       -1366.000          49.000  
> 2024 12 28  3 25 59.9949999  0  9                     
G10  23662782.730      624420.4161      -2803.000          22.000  
G16  19988951.602     -552188.538        2423.000          45.000  
G25  23984789.853       14050.8801      -2930.000          14.000  
G26  19091416.721      -38019.023         290.000          34.000  
G27  23113329.120     -932518.5211       4207.000          30.000  
G28  20565644.603      -25909.787         103.000          41.000  
G29  22271428.602      179783.531        -874.000          36.000  
G31  20140855.845     -183727.603         812.000          45.000  
G32  20103292.189      290105.877       -1366.000          49.000  
> 2024 12 28  3 26  0.9949999  0  9                     
G10  23663318.382      627222.1771      -2801.000          27.000  
G16  19988490.504     -554611.608        2423.000          45.000  
G25  23985376.110       16980.7901      -2929.000          17.000  
G26  19091358.333      -38308.964         289.000          34.000  
G27  23112532.413     -936727.6501       4209.000          26.000  
G28  20565624.991      -26012.758         102.000          41.000  
G29  22271594.728      180659.116        -875.000          36.000  
G31  20140701.304     -184539.684         812.000          45.000  
G32  20103552.381      291473.107       -1367.000          49.000  
> 2024 12 28  3 26  1.9949999  0  9                     
G10  23663841.051      630022.9831      -2800.000          29.000  
G16  19988029.597     -557033.663        2422.000          45.000  
G25  23985910.960       19910.7061      -2929.000          18.000  
G26  19091303.329      -38597.870         288.000          34.000  
G27  23111721.850     -940936.2291       4208.000          33.000  
G28  20565605.493      -26115.133         102.000          41.000  
G29  22271762.983      181535.738        -876.000          36.000  
G31  20140546.874     -185351.167         811.000          45.000  
G32  20103812.778      292841.395       -1368.000          49.000  
> 2024 12 28  3 26  2.9949999  0  9                     
G10  23664378.413      632823.1851      -2800.000          28.000  
G16  19987568.695     -559455.655        2421.000          45.000  
G25  23986465.458       22841.6361      -2930.000          20.000  
G26  19091243.371      -38886.865         288.000          33.000  
G27  23110927.970     -945145.3971       4209.000          33.000  
G28  20565585.915      -26217.926         102.000          41.000  
G29  22271930.296      182412.490        -876.000          36.000  
G31  20140392.376     -186162.997         811.000          45.000  
G32  20104073.193      294209.767       -1368.000          49.000  
> 2024 12 28  3 26  3.9949999  0  9                     
G10  23664924.256      635624.5021      -2801.000          26.000  
G16  19987108.129     -561875.893        2420.000          45.000  
G25  23986997.619       25770.7231      -2929.000          18.000  
G26  19091182.539      -39174.066         287.000          33.000  
G27  23110121.142     -949353.3661       4207.000          33.000  
G28  20565566.606      -26319.291         101.000          41.000  
G29  22272097.574      183291.059        -878.000          36.000  
G31  20140238.124     -186973.518         810.000          45.000  
G32  20104333.944      295579.897       -1370.000          49.000  
> 2024 12 28  3 26  4.9949999  0  9                     
G10  23665467.620      638425.3691      -2800.000          28.000  
G16  19986647.623     -564295.814        2419.000          45.000  
G25  23987574.838       28694.1981      -2923.000          17.000  
G26  19091136.261      -39461.012         286.000          33.000  
G27  23109326.843     -953561.5821       4208.000          34.000  
G28  20565547.266      -26420.797         101.000          41.000  
G29  22272264.712      184170.028        -878.000          36.000  
G31  20140083.866     -187784.073         810.000          45.000  
G32  20104594.762      296950.393       -1370.000          49.000  
> 2024 12 28  3 26  5.9949999  0  9                     
G10  23666000.934      641225.3741      -2800.000          24.000  
G16  19986187.066     -566716.011        2420.000          45.000  
G25  23988147.065       31625.0721      -2930.000          17.000  
G26  19091080.665      -39748.288         287.000          34.000  
G27  23108528.181     -957770.5581       4208.000          33.000  
G28  20565527.791      -26522.989         102.000          40.000  
G29  22272426.196      185048.759        -878.000          35.000  
G31  20139929.475     -188595.342         811.000          46.000  
G32  20104855.522      298320.606       -1370.000          49.000  
> 2024 12 28  3 26  6.9949999  0  9                     
G10  23666549.115      644024.6661      -2799.000          24.000  
G16  19985726.519     -569136.178        2420.000          45.000  
G25  23988684.951       34556.5361      -2931.000          20.000  
G26  19091032.502      -40035.586         287.000          33.000  
G27  23107723.377     -961980.184        4209.000          33.000  
G28  20565508.237      -26625.601         102.000          40.000  
G29  22272595.533      185927.524        -878.000          35.000  
G31  20139775.011     -189407.012         811.000          46.000  
G32  20105116.285      299690.854       -1370.000          49.000  
> 2024 12 28  3 26  7.9949999  0  9                     
G10  23667080.195      646823.2051      -2798.000          24.000  
G16  19985265.956     -571556.410        2420.000          44.000  
G25  23989241.997       37487.9121      -2931.000          20.000  
G26  19090978.790      -40322.958         287.000          34.000  
G27  23106921.749     -966190.350        4210.000          33.000  
G28  20565488.609      -26728.618         103.000          40.000  
G29  22272762.253      186806.332        -878.000          34.000  
G31  20139620.463     -190219.126         812.000          46.000  
G32  20105377.047      301061.104       -1370.000          49.000  
> 2024 12 28  3 26  8.9949999  0  9                     
G10  23667605.342      649621.0551      -2797.000          24.000  
G16  19984805.408     -573976.555        2420.000          44.000  
G25  23989809.931       40413.1701      -2925.000          18.000  
G26  19090923.752      -40610.323         287.000          33.000  
G27  23106121.726     -970401.056        4210.000          33.000  
G28  20565468.904      -26832.070         103.000          40.000  
G29  22272928.728      187685.263        -878.000          35.000  
G31  20139465.841     -191031.621         812.000          46.000  
G32  20105637.809      302431.374       -1370.000          49.000  
> 2024 12 28  3 26  9.9949999  0  9                     
G10  23668128.988      652418.7601      -2797.000          20.000  
G16  19984344.893     -576396.470        2419.000          44.000  
G25  23990326.947       43341.7631      -2928.000          19.000  
G26  19090872.169      -40897.499         287.000          33.000  
G27  23105322.367     -974612.087        4211.000          33.000  
G28  20565449.177      -26935.631         103.000          40.000  
G29  22273093.004      188564.483        -879.000          34.000  
G31  20139311.202     -191844.239         812.000          46.000  
G32  20105898.630      303801.972       -1370.000          49.000  
> 2024 12 28  3 26 10.9949999  0  9                     
G10  23668677.169      655223.4571      -2804.000          14.000  
G16  19983884.435     -578816.088        2419.000          44.000  
G25  23990905.456       46275.1041      -2933.000          18.000  
G26  19090816.433      -41184.418         286.000          34.000  
G27  23104524.194     -978823.390        4211.000          34.000  
G28  20565429.418      -27039.339         103.000          40.000  
G29  22273260.561      189444.056        -879.000          35.000  
G31  20139156.533     -192657.020         812.000          46.000  
G32  20106159.501      305172.854       -1370.000          49.000  
> 2024 12 28  3 26 11.9949999  0  8                     
G16  19983424.003     -581235.550        2419.000          44.000  
G25  23991457.930       49202.9071      -2927.000          18.000  
G26  19090761.081      -41471.229         286.000          34.000  
G27  23103730.732     -983035.096        4211.000          33.000  
G28  20565409.600      -27143.286         103.000          40.000  
G29  22273424.698      190323.840        -879.000          35.000  
G31  20139001.824     -193470.023         813.000          46.000  
G32  20106420.410      306543.931       -1371.000          49.000  
> 2024 12 28  3 26 12.9949999  0  8                     
G16  19982963.668     -583654.504        2418.000          44.000  
G25  23992028.308       52132.4951      -2929.000          19.000  
G26  19090705.485      -41757.600         286.000          34.000  
G27  23102932.071     -987246.797        4211.000          34.000  
G28  20565389.801      -27247.124         103.000          40.000  
G29  22273590.335      191204.156        -880.000          35.000  
G31  20138847.142     -194282.925         812.000          46.000  
G32  20106681.416      307915.520       -1371.000          49.000  
> 2024 12 28  3 26 13.9949999  0  8                     
G16  19982503.585     -586072.109        2417.000          44.000  
G25  23992579.490       55059.5961      -2927.000          18.000  
G26  19090651.459      -42042.627         285.000          34.000  
G27  23102127.057     -991457.821        4211.000          33.000  
G28  20565370.169      -27350.100         102.000          39.000  
G29  22273761.522      192085.879        -881.000          35.000  
G31  20138692.643     -195094.921         812.000          46.000  
G32  20106942.683      309288.463       -1372.000          49.000  
> 2024 12 28  3 26 14.9949999  0  8                     
G16  19982043.701     -588488.677        2416.000          44.000  
G25  23993150.008       57988.1321      -2928.000          21.000  
G26  19090602.319      -42326.691         284.000          34.000  
G27  23101325.569     -995668.350        4210.000          34.000  
G28  20565350.673      -27452.400         102.000          40.000  
G29  22273928.520      192968.696        -882.000          35.000  
G31  20138538.271     -195906.291         811.000          46.000  
G32  20107204.152      310662.480       -1374.000          49.000  
> 2024 12 28  3 26 15.9949999  0  8                     
G16  19981583.940     -590904.633        2415.000          44.000  
G25  23993727.505       60918.4741      -2930.000          22.000  
G26  19090545.222      -42610.201         283.000          34.000  
G27  23100523.976     -999878.808        4210.000          35.000  
G28  20565331.218      -27554.540         102.000          41.000  
G29  22274100.440      193852.191        -883.000          34.000  
G31  20138383.937     -196717.463         811.000          46.000  
G32  20107465.736      312037.127       -1374.000          48.000  
> 2024 12 28  3 26 16.9949999  0  9                     
G10  23671791.719      672069.3771      -2796.000          20.000  
G16  19981124.257     -593320.181        2415.000          44.000  
G25  23994290.135       63845.0471      -2926.000          22.000  
G26  19090491.790      -42893.336         283.000          34.000  
G27  23099719.660    -1004089.426        4210.000          34.000  
G28  20565311.768      -27656.666         102.000          40.000  
G29  22274269.428      194736.110        -883.000          35.000  
G31  20138229.612     -197528.625         811.000          46.000  
G32  20107727.393      313412.182       -1375.000          48.000  
> 2024 12 28  3 26 17.9949999  0  9                     
G10  23672325.591      674869.3001      -2799.000          19.000  
G16  19980664.669     -595735.246        2415.000          45.000  
G25  23994842.470       66774.3681      -2929.000          24.000  
G26  19090437.624      -43175.973         282.000          34.000  
G27  23098918.695    -1008300.107        4210.000          34.000  
G28  20565292.343      -27758.719         102.000          41.000  
G29  22274440.510      195620.641        -884.000          35.000  
G31  20138075.311     -198339.678         811.000          46.000  
G32  20107989.146      314787.768       -1375.000          48.000  
> 2024 12 28  3 26 18.9949999  0  8                     
G16  19980205.371     -598148.809        2413.000          45.000  
G25  23995400.842       69704.8701      -2930.000          22.000  
G26  19090384.541      -43457.208         281.000          34.000  
G27  23098109.808    -1012509.854        4209.000          34.000  
G28  20565273.124      -27859.738         101.000          41.000  
G29  22274611.417      196506.640        -885.000          36.000  
G31  20137921.198     -199149.723         810.000          46.000  
G32  20108251.182      316164.843       -1377.000          48.000  
> 2024 12 28  3 26 19.9949999  0  9                     
G10  23673435.146      680468.9701      -2799.000          21.000  
G16  19979746.162     -600561.931        2413.000          45.000  
G25  23995989.647       72634.2301      -2929.000          23.000  
G26  19090325.349      -43738.034         280.000          34.000  
G27  23097306.993    -1016719.715        4209.000          33.000  
G28  20565253.926      -27960.688         100.000          41.000  
G29  22274777.508      197393.2271       -886.000          36.000  
G31  20137767.092     -199959.684         809.000          46.000  
G32  20108513.304      317542.386       -1377.000          48.000  
> 2024 12 28  3 26 20.9949999  0  9                     
G10  23673945.983      683266.3781      -2797.000          22.000  
G16  19979287.114     -602974.243        2412.000          45.000  
G25  23996529.975       75563.5611      -2929.000          22.000  
G26  19090268.846      -44018.154         280.000          33.000  
G27  23096509.972    -1020929.382        4209.000          34.000  
G28  20565234.792      -28061.262         100.000          41.000  
G29  22274947.648      198280.6081       -887.000          36.000  
G31  20137613.036     -200769.304         809.000          45.000  
G32  20108775.581      318920.730       -1378.000          48.000  
> 2024 12 28  3 26 21.9949999  0  9                     
G10  23674499.748      686063.9101      -2797.000          23.000  
G16  19978828.180     -605385.986        2411.000          45.000  
G25  23997079.587       78493.6981      -2930.000          22.000  
G26  19090204.943      -44297.658         279.000          32.000  
G27  23095705.203    -1025139.021        4209.000          33.000  
G28  20565215.687      -28161.671         100.000          41.000  
G29  22275118.137      199168.6231       -888.000          35.000  
G31  20137459.010     -201578.708         809.000          45.000  
G32  20109037.976      320299.684       -1378.000          48.000  
> 2024 12 28  3 26 22.9949999  0  9                     
G10  23675060.529      688861.3581      -2797.000          25.000  
G16  19978369.398     -607796.952        2410.000          44.000  
G25  23997651.082       81422.8441      -2929.000          22.000  
G26  19090150.568      -44576.446         278.000          32.000  
G27  23094898.968    -1029348.455        4209.000          32.000  
G28  20565196.637      -28261.729         100.000          40.000  
G29  22275282.587      200057.4401       -888.000          35.000  
G31  20137305.039     -202387.779         809.000          45.000  
G32  20109300.530      321679.438       -1379.000          49.000  
> 2024 12 28  3 26 23.9949999  0  9                     
G10  23675581.522      691658.7151      -2797.000          24.000  
G16  19977910.609     -610207.940        2410.000          44.000  
G25  23998209.140       84352.7721      -2929.000          22.000  
G26  19090099.544      -44855.389         278.000          33.000  
G27  23094093.361    -1033558.485        4210.000          33.000  
G28  20565177.493      -28362.246         100.000          40.000  
G29  22275454.088      200946.3291       -888.000          35.000  
G31  20137150.979     -203197.293         809.000          45.000  
G32  20109563.085      323059.163       -1379.000          49.000  
> 2024 12 28  3 26 24.9949999  0  9                     
G10  23676105.936      694454.961       -2796.000          25.000  
G16  19977451.943     -612618.244        2410.000          44.000  
G25  23998758.927       87281.7401      -2928.000          22.000  
G26  19090047.402      -45133.594         278.000          33.000  
G27  23093295.048    -1037768.352        4209.000          33.000  
G28  20565158.399      -28462.447         100.000          40.000  
G29  22275622.099      201835.956        -889.000          35.000  
G31  20136996.974     -204006.511         809.000          45.000  
G32  20109825.787      324439.638       -1380.000          49.000  
> 2024 12 28  3 26 25.9949999  0  9                     
G10  23676634.399      697253.2261      -2798.000          26.000  
G16  19976993.675     -615026.422        2408.000          44.000  
G25  23999307.666       90213.2871      -2931.000          23.000  
G26  19089997.809      -45409.767         276.000          33.000  
G27  23092488.953    -1041976.694        4208.000          32.000  
G28  20565139.634      -28560.952          98.000          41.000  
G29  22275790.424      202727.744        -891.000          35.000  
G31  20136843.290     -204814.049         807.000          46.000  
G32  20110088.896      325822.232       -1382.000          48.000  
> 2024 12 28  3 26 26.9949999  0  9                     
G10  23677170.190      700051.1721      -2797.000          27.000  
G16  19976535.473     -617434.238        2407.000          44.000  
G25  23999866.876       93143.9491      -2930.000          23.000  
G26  19089945.319      -45685.652         275.000          33.000  
G27  23091687.116    -1046185.228        4208.000          31.000  
G28  20565120.863      -28659.517          98.000          40.000  
G29  22275970.196      203619.995        -892.000          36.000  
G31  20136689.603     -205621.617         807.000          46.000  
G32  20110352.074      327205.180       -1382.000          49.000  
> 2024 12 28  3 26 27.9949999  0  9                     
G10  23677683.890      702849.3081      -2798.000          26.000  
G16  19976077.439     -619841.161        2406.000          44.000  
G25  24000430.064       96074.1811      -2930.000          22.000  
G26  19089894.085      -45960.619         274.000          33.000  
G27  23090888.524    -1050393.473        4208.000          32.000  
G28  20565102.188      -28757.642          98.000          41.000  
G29  22276137.613      204513.160        -893.000          37.000  
G31  20136536.011     -206428.687         807.000          46.000  
G32  20110615.435      328589.078       -1383.000          49.000  
> 2024 12 28  3 26 28.9949999  0  9                     
G10  23678213.748      705647.9601      -2798.000          28.000  
G16  19975619.646     -622246.803        2405.000          44.000  
G25  24000970.672       99006.8681      -2932.000          23.000  
G26  19089839.570      -46234.416         273.000          33.000  
G27  23090083.999    -1054600.877        4207.000          31.000  
G28  20565083.696      -28854.876          97.000          41.000  
G29  22276307.369      205407.629        -894.000          37.000  
G31  20136382.583     -207234.917         806.000          46.000  
G32  20110879.043      329974.254       -1385.000          49.000  
> 2024 12 28  3 26 29.9949999  0  9                     
G10  23678745.491      708446.0411      -2798.000          28.000  
G16  19975161.842     -624652.512        2405.000          44.000  
G25  24001554.068      101938.0031      -2931.000          23.000  
G26  19089784.602      -46508.302         273.000          33.000  
G27  23089288.409    -1058808.982        4208.000          32.000  
G28  20565065.118      -28952.574          97.000          41.000  
G29  22276476.601      206302.115        -894.000          36.000  
G31  20136229.065     -208041.633         806.000          46.000  
G32  20111142.641      331359.383       -1385.000          49.000  
> 2024 12 28  3 26 30.9949999  0  9                     
G10  23679287.460      711243.187       -2797.000          27.000  
G16  19974704.013     -627058.338        2405.000          44.000  
G25  24002102.109      104867.8971      -2929.000          23.000  
G26  19089732.600      -46782.300         274.000          33.000  
G27  23088488.875    -1063017.769        4208.000          31.000  
G28  20565046.447      -29050.797          98.000          41.000  
G29  22276645.903      207196.546        -894.000          36.000  
G31  20136075.456     -208848.820         807.000          46.000  
G32  20111406.222      332744.428       -1385.000          49.000  
> 2024 12 28  3 26 31.9949999  0  9                     
G10  23679818.470      714039.632       -2796.000          26.000  
G16  19974246.174     -629464.180        2405.000          44.000  
G25  24002661.598      107798.0471      -2930.000          24.000  
G26  19089682.937      -47056.425         274.000          33.000  
G27  23087687.281    -1067227.118        4209.000          32.000  
G28  20565027.694      -29149.462          98.000          42.000  
G29  22276814.612      208091.023        -894.000          36.000  
G31  20135921.755     -209656.494         807.000          46.000  
G32  20111669.804      334129.474       -1385.000          49.000  
> 2024 12 28  3 26 32.9949999  0  9                     
G10  23680341.977      716835.585       -2795.000          26.000  
G16  19973788.375     -631869.816        2405.000          44.000  
G25  24003222.518      110727.4141      -2929.000          23.000  
G26  19089631.878      -47330.406         273.000          33.000  
G27  23086884.606    -1071436.936        4209.000          32.000  
G28  20565008.888      -29248.391          98.000          41.000  
G29  22276984.821      208985.719        -894.000          37.000  
G31  20135768.016     -210464.373         807.000          46.000  
G32  20111933.424      335514.710       -1385.000          49.000  
> 2024 12 28  3 26 33.9949999  0  9                     
G10  23680877.838      719632.117       -2796.000          26.000  
G16  19973330.804     -634274.233        2404.000          44.000  
G25  24003793.873      113658.3101      -2930.000          23.000  
G26  19089583.436      -47603.190         272.000          33.000  
G27  23086087.096    -1075645.938        4209.000          32.000  
G28  20564990.237      -29346.474          98.000          41.000  
G29  22277154.123      209881.730        -896.000          36.000  
G31  20135614.430     -211271.438         807.000          46.000  
G32  20112197.279      336901.188       -1386.000          49.000  
> 2024 12 28  3 26 34.9949999  0  9                     
G10  23681423.297      722428.9441      -2796.000          24.000  
G16  19972873.441     -636677.579        2403.000          44.000  
G25  24004327.605      116586.0911      -2927.000          23.000  
G26  19089534.645      -47874.928         271.000          33.000  
G27  23085289.063    -1079854.529        4208.000          33.000  
G28  20564971.705      -29443.896          97.000          41.000  
G29  22277317.806      210778.871        -897.000          35.000  
G31  20135460.969     -212077.821         806.000          46.000  
G32  20112461.346      338288.793       -1387.000          49.000  
> 2024 12 28  3 26 35.9949999  0  9                     
G10  23681956.890      725225.7581      -2796.000          25.000  
G16  19972416.257     -639079.999        2402.000          43.000  
G25  24004906.289      119516.3461      -2930.000          22.000  
G26  19089480.340      -48145.828         270.000          33.000  
G27  23084488.656    -1084062.705        4208.000          33.000  
G28  20564953.268      -29540.808          96.000          41.000  
G29  22277488.714      211676.961        -898.000          36.000  
G31  20135307.608     -212883.703         805.000          46.000  
G32  20112725.585      339677.318       -1388.000          49.000  
> 2024 12 28  3 26 36.9949999  0  9                     
G10  23682495.124      728023.228       -2796.000          25.000  
G16  19971959.180     -641481.889        2401.000          44.000  
G25  24005454.889      122446.9961      -2930.000          24.000  
G26  19089425.651      -48416.252         270.000          33.000  
G27  23083690.728    -1088270.955        4208.000          32.000  
G28  20564934.849      -29637.618          96.000          41.000  
G29  22277664.542      212575.617        -898.000          36.000  
G31  20135154.267     -213689.487         805.000          45.000  
G32  20112989.919      341066.371       -1389.000          49.000  
> 2024 12 28  3 26 37.9949999  0  9                     
G10  23683040.688      730820.423       -2797.000          26.000  
G16  19971502.283     -643882.828        2400.000          43.000  
G25  24006013.680      125378.3971      -2931.000          23.000  
G26  19089371.137      -48685.721         269.000          33.000  
G27  23082888.821    -1092478.833        4207.000          33.000  
G28  20564916.535      -29733.889          96.000          41.000  
G29  22277837.928      213475.289        -899.000          36.000  
G31  20135001.029     -214494.729         805.000          46.000  
G32  20113254.437      342456.414       -1390.000          49.000  
> 2024 12 28  3 26 38.9949999  0  9                     
G10  23683587.787      733617.491       -2797.000          24.000  
G16  19971045.480     -646283.271        2400.000          44.000  
G25  24006545.109      128309.8541      -2931.000          22.000  
G26  19089320.775      -48954.731         269.000          32.000  
G27  23082089.670    -1096686.728        4207.000          33.000  
G28  20564898.249      -29830.076          96.000          41.000  
G29  22278004.123      214375.499        -900.000          36.000  
G31  20134847.805     -215299.882         805.000          46.000  
G32  20113519.045      343846.950       -1390.000          49.000  
> 2024 12 28  3 26 39.9949999  0  9                     
G10  23684117.820      736414.610       -2797.000          25.000  
G16  19970588.826     -648682.927        2399.000          44.000  
G25  24007146.513      131241.1911      -2931.000          21.000  
G26  19089271.636      -49223.012         268.000          33.000  
G27  23081290.415    -1100894.457        4207.000          34.000  
G28  20564880.040      -29925.905          95.000          41.000  
G29  22278180.057      215276.574        -901.000          35.000  
G31  20134694.658     -216104.637         804.000          46.000  
G32  20113783.810      345238.308       -1391.000          48.000  
> 2024 12 28  3 26 40.9949999  0  9                     
G10  23684685.440      739212.0421      -2797.000          23.000  
G16  19970132.331     -651081.705        2398.000          44.000  
G25  24007724.046      134172.0381      -2930.000          20.000  
G26  19089225.113      -49490.534         267.000          33.000  
G27  23080485.262    -1105101.824        4207.000          33.000  
G28  20564861.929      -30021.273          95.000          41.000  
G29  22278350.057      216178.574        -901.000          35.000  
G31  20134541.592     -216908.979         804.000          46.000  
G32  20114048.746      346630.535       -1392.000          48.000  
> 2024 12 28  3 26 41.9949999  0  9                     
G10  23685219.452      742009.0431      -2796.000          20.000  
G16  19969672.638     -653479.9421       2398.000          43.000  
G25  24008244.621      137098.1951      -2926.000          16.000  
G26  19089175.624      -49757.430         266.000          32.000  
G27  23079681.087    -1109309.209        4207.000          31.000  
G28  20564843.845      -30116.506          95.000          41.000  
G29  22278520.685      217081.226        -902.000          34.000  
G31  20134386.779     -217713.1221        804.000          45.000  
G32  20114313.793      348023.392       -1392.000          47.000  
> 2024 12 28  3 26 42.9949999  0  9                     
G10  23685776.672      744805.6451      -2796.000          17.000  
G16  19969217.362     -655878.597        2398.000          43.000  
G25  24008788.788      140025.5631      -2927.000          15.000  
G26  19089127.113      -50024.937         267.000          33.000  
G27  23078888.847    -1113517.595        4208.000          32.000  
G28  20564825.598      -30212.593          96.000          41.000  
G29  22278695.117      217983.396        -902.000          35.000  
G31  20134233.880     -218518.182         805.000          46.000  
G32  20114578.753      349415.746       -1392.000          48.000  
> 2024 12 28  3 26 43.9949999  0  9                     
G10  23686300.528      747603.1091      -2797.000          19.000  
G16  19968761.004     -658277.7031       2399.000          43.000  
G25  24009328.698      142960.0151      -2934.000          15.000  
G26  19089072.947      -50292.837         267.000          33.000  
G27  23078083.449    -1117726.971        4209.000          32.000  
G28  20564807.191      -30309.487          96.000          41.000  
G29  22278872.062      218885.253        -901.000          35.000  
G31  20134080.004     -219324.060         805.000          46.000  
G32  20114843.631      350807.731       -1391.000          48.000  
> 2024 12 28  3 26 44.9949999  0  9                     
G10  23686845.708      750399.4791      -2796.000          16.000  
G16  19968304.925     -660677.1311       2399.000          44.000  
G25  24009915.793      145893.6541      -2933.000          18.000  
G26  19089017.491      -50561.162         268.000          33.000  
G27  23077286.777    -1121937.256        4210.000          32.000  
G28  20564788.628      -30407.178          97.000          41.000  
G29  22279043.598      219786.793        -901.000          36.000  
G31  20133926.512     -220130.677         806.000          46.000  
G32  20115108.454      352199.397       -1391.000          49.000  
> 2024 12 28  3 26 45.9949999  0  9                     
G10  23687392.597      753209.6681      -2810.000          14.000  
G16  19967848.323     -663076.5121       2399.000          44.000  
G25  24010484.705      148820.5411      -2926.000          18.000  
G26  19088965.698      -50829.440         268.000          33.000  
G27  23076483.962    -1126148.036        4210.000          33.000  
G28  20564770.000      -30505.236          98.000          41.000  
G29  22279214.122      220688.450        -901.000          35.000  
G31  20133772.671     -220937.666         806.000          46.000  
G32  20115373.289      353591.106       -1391.000          49.000  
> 2024 12 28  3 26 46.9949999  0  9                     
G10  23687943.955      756033.1411      -2823.000           6.000  
G16  19967390.953     -665475.9841       2399.000          43.000  
G25  24011029.885      151748.4751      -2927.000          17.000  
G26  19088918.478      -51097.963         268.000          32.000  
G27  23075682.230    -1130359.487        4211.000          33.000  
G28  20564753.019      -30603.7931         98.000          41.000  
G29  22279378.468      221590.039        -901.000          34.000  
G31  20133618.481     -221745.143         807.000          46.000  
G32  20115638.109      354982.745       -1391.000          48.000  
> 2024 12 28  3 26 47.9949999  0  8                     
G16  19966934.455     -667874.9451       2398.000          44.000  
G25  24011579.357      154673.8561      -2925.000          17.000  
G26  19088862.672      -51365.902         267.000          32.000  
G27  23074880.462    -1134571.010        4211.000          33.000  
G28  20564734.486      -30702.2591         98.000          41.000  
G29  22279550.597      222492.211        -902.000          35.000  
G31  20133465.478     -222552.544         807.000          46.000  
G32  20115903.040      356374.935       -1392.000          49.000  
> 2024 12 28  3 26 48.9949999  0  8                     
G16  19966477.294     -670274.021        2399.000          44.000  
G25  24012129.981      157598.6541      -2924.000          19.000  
G26  19088812.032      -51634.035         268.000          32.000  
G27  23074079.148    -1138783.189        4212.000          33.000  
G28  20564715.082      -30801.218          98.000          41.000  
G29  22279723.808      223394.358        -902.000          34.000  
G31  20133311.951     -223360.431         807.000          46.000  
G32  20116167.954      357767.013       -1392.000          48.000  
> 2024 12 28  3 26 49.9949999  0  8                     
G16  19966020.762     -672672.734        2398.000          43.000  
G25  24012688.912      160527.5671      -2928.000          17.000  
G26  19088755.074      -51901.892         267.000          31.000  
G27  23073278.916    -1142995.591        4212.000          33.000  
G28  20564696.096      -30900.287          99.000          42.000  
G29  22279896.390      224296.871        -902.000          34.000  
G31  20133158.947     -224168.412         807.000          46.000  
G32  20116432.935      359159.452       -1392.000          48.000  
> 2024 12 28  3 26 50.9949999  0  9                     
G10  23690079.303      767345.5161      -2828.000           9.000  
G16  19965564.194     -675071.340        2398.000          43.000  
G25  24013266.270      163452.7781      -2925.000          21.000  
G26  19088700.350      -52169.642         267.000          30.000  
G27  23072475.263    -1147208.425        4212.000          33.000  
G28  20564677.424      -30999.655          99.000          42.000  
G29  22280068.589      225199.530        -902.000          34.000  
G31  20133005.455     -224976.701         808.000          46.000  
G32  20116697.943      360552.025       -1392.000          48.000  
> 2024 12 28  3 26 51.9949999  0  8                     
G16  19965108.325     -677469.584        2398.000          43.000  
G25  24013840.382      166383.7011      -2930.000          19.000  
G26  19088651.978      -52437.051         267.000          31.000  
G27  23071670.704    -1151421.468        4213.000          32.000  
G28  20564658.055      -31099.037          99.000          41.000  
G29  22280241.381      226102.693        -903.000          34.000  
G31  20132852.242     -225785.009         808.000          46.000  
G32  20116963.027      361945.010       -1392.000          48.000  
> 2024 12 28  3 26 52.9949999  0  8                     
G16  19964651.932     -679867.885        2398.000          43.000  
G25  24014379.698      169310.7061      -2927.000          21.000  
G26  19088611.703      -52704.668         267.000          31.000  
G27  23070868.238    -1155635.146        4213.000          33.000  
G28  20564639.592      -31198.933          99.000          42.000  
G29  22280414.662      227005.716        -903.000          34.000  
G31  20132698.890     -226593.810         808.000          46.000  
G32  20117228.095      363337.915       -1392.000          48.000  
> 2024 12 28  3 26 53.9949999  0  8                     
G16  19964196.481     -682265.723        2397.000          44.000  
G25  24014931.439      172234.9791      -2924.000          17.000  
G26  19088559.527      -52971.777         267.000          31.000  
G27  23070054.779    -1159848.8681       4213.000          30.000  
G28  20564621.060      -31298.778          99.000          42.000  
G29  22280586.791      227909.364        -903.000          34.000  
G31  20132545.153     -227402.573         808.000          47.000  
G32  20117493.253      364731.308       -1393.000          48.000  
> 2024 12 28  3 26 54.9949999  0  8                     
G16  19963741.205     -684663.081        2397.000          44.000  
G25  24015462.170      175143.9441      -2908.000          15.000  
G26  19088512.970      -53238.493         266.000          31.000  
G27  23069260.689    -1164062.688        4213.000          31.000  
G28  20564603.296      -31398.533          99.000          42.000  
G29  22280761.223      228813.515        -904.000          34.000  
G31  20132391.068     -228211.239         808.000          46.000  
G32  20117758.499      366125.186       -1393.000          48.000  
> 2024 12 28  3 26 55.9949999  0  8                     
G16  19963285.091     -687060.031        2396.000          44.000  
G25  24016037.120      178057.9901      -2914.000          16.000  
G26  19088461.387      -53504.903         266.000          31.000  
G27  23068447.998    -1168276.7921       4214.000          29.000  
G28  20564584.729      -31498.345          99.000          42.000  
G29  22280937.959      229718.085        -904.000          34.000  
G31  20132237.052     -229019.978         808.000          46.000  
G32  20118023.823      367519.475       -1394.000          48.000  
> 2024 12 28  3 26 56.9949999  0  8                     
G16  19962829.815     -689456.729        2396.000          44.000  
G25  24016586.453      180984.7521      -2926.000          15.000  
G26  19088412.945      -53771.033         266.000          32.000  
G27  23067647.556    -1172490.9751       4214.000          30.000  
G28  20564566.057      -31598.260          99.000          42.000  
G29  22281109.460      230623.070        -904.000          33.000  
G31  20132083.246     -229828.774         808.000          46.000  
G32  20118289.208      368914.087       -1394.000          48.000  
> 2024 12 28  3 26 57.9949999  0  8                     
G16  19962374.748     -691853.191        2396.000          44.000  
G25  24017194.593      183911.0021      -2926.000          16.000  
G26  19088362.654      -54037.044         266.000          32.000  
G27  23066858.667    -1176705.6021       4214.000          31.000  
G28  20564546.932      -31698.398         100.000          42.000  
G29  22281281.937      231528.237        -905.000          35.000  
G31  20131929.300     -230637.798         809.000          46.000  
G32  20118554.630      370308.888       -1394.000          49.000  
> 2024 12 28  3 26 58.9949999  0  9                     
G10  23694178.603      789823.0671      -2788.000          26.000  
G16  19961919.542     -694249.341        2396.000          44.000  
G25  24017712.167      186837.5101      -2926.000          13.000  
G26  19088310.478      -54302.649         265.000          33.000  
G27  23066052.501    -1180920.4621       4214.000          31.000  
G28  20564527.073      -31798.624         100.000          42.000  
G29  22281455.288      232433.809        -905.000          34.000  
G31  20131775.284     -231446.926         809.000          46.000  
G32  20118820.127      371704.075       -1395.000          49.000  
> 2024 12 28  3 26 59.9949999  0  8                     
G10  23694716.105      792608.8841      -2785.000          28.000  
G16  19961464.196     -696645.496        2396.000          44.000  
G26  19088268.422      -54568.508         265.000          33.000  
G27  23065258.970    -1185135.9461       4215.000          32.000  
G28  20564507.110      -31899.292         100.000          41.000  
G29  22281624.066      233339.370        -905.000          34.000  
G31  20131621.059     -232256.464         809.000          45.000  
G32  20119085.616      373099.239       -1395.000          48.000  
> 2024 12 28  3 27  0.9949999  0  8                     
G10  23695245.056      795395.635       -2786.000          27.000  
G16  19961007.105     -699041.101        2395.000          43.000  
G26  19088225.181      -54833.711         265.000          33.000  
G27  23064454.096    -1189351.384        4215.000          31.000  
G28  20564487.077      -31999.776         100.000          40.000  
G29  22281802.582      234245.621        -906.000          32.000  
G31  20131466.625     -233065.860         809.000          45.000  
G32  20119351.208      374494.970       -1395.000          47.000  
> 2024 12 28  3 27  1.9949999  0  8                     
G10  23695777.567      798182.574       -2786.000          27.000  
G16  19960551.968     -701435.715        2394.000          44.000  
G26  19088175.273      -55098.035         264.000          33.000  
G27  23063657.773    -1193566.409        4215.000          32.000  
G28  20564467.917      -32099.747          99.000          42.000  
G29  22281972.303      235152.799        -907.000          34.000  
G31  20131312.295     -233874.704         808.000          46.000  
G32  20119616.985      375891.685       -1396.000          48.000  
> 2024 12 28  3 27  2.9949999  0  8                     
G10  23696295.280      800969.880       -2787.000          26.000  
G16  19960096.831     -703829.505        2393.000          44.000  
G26  19088118.665      -55361.631         263.000          33.000  
G27  23062852.760    -1197781.138        4214.000          29.000  
G28  20564449.071      -32199.298          99.000          43.000  
G29  22282147.433      236060.901        -908.000          35.000  
G31  20131158.280     -234683.139         808.000          46.000  
G32  20119882.923      377289.271       -1397.000          48.000  
> 2024 12 28  3 27  3.9949999  0  8                     
G10  23696829.815      803756.787       -2786.000          27.000  
G16  19959641.555     -706222.866        2393.000          44.000  
G26  19088065.302      -55624.739         263.000          33.000  
G27  23062056.785    -1201996.084        4214.000          32.000  
G28  20564429.282      -32298.797          99.000          42.000  
G29  22282323.715      236969.519        -908.000          34.000  
G31  20131004.089     -235491.522         808.000          46.000  
G32  20120148.947      378687.321       -1398.000          48.000  
> 2024 12 28  3 27  4.9949999  0  9                     
G10  23697354.508      806544.1441      -2787.000          24.000  
G16  19959185.756     -708615.115        2392.000          45.000  
G25  24021045.333      204345.6201      -2911.000          16.000  
G26  19088011.485      -55886.881         262.000          33.000  
G27  23061250.551    -1206210.368        4214.000          32.000  
G28  20564410.436      -32397.609          98.000          42.000  
G29  22282488.062      237879.344        -909.000          34.000  
G31  20130849.830     -236299.211         807.000          45.000  
G32  20120415.176      380086.472       -1399.000          48.000  
> 2024 12 28  3 27  5.9949999  0  9                     
G10  23697888.031      809332.2891      -2788.000          25.000  
G16  19958729.537     -711005.888        2390.000          44.000  
G25  24021595.084      207261.3891      -2915.000          17.000  
G26  19087963.846      -56147.553         260.000          33.000  
G27  23060449.865    -1210423.823        4213.000          31.000  
G28  20564392.881      -32495.386          97.000          42.000  
G29  22282658.480      238790.598        -911.000          34.000  
G31  20130695.709     -237105.857         806.000          45.000  
G32  20120681.687      381487.112       -1400.000          48.000  
> 2024 12 28  3 27  6.9949999  0  9                     
G10  23698412.410      812121.8351      -2789.000          23.000  
G16  19958274.191     -713395.200        2389.000          44.000  
G25  24022147.000      210180.1971      -2918.000          20.000  
G26  19087915.056      -56406.817         259.000          34.000  
G27  23059652.006    -1214636.346        4212.000          31.000  
G28  20564374.523      -32592.107          96.000          42.000  
G29  22282828.131      239703.403        -912.000          33.000  
G31  20130542.008     -237911.449         805.000          45.000  
G32  20120948.483      382889.253       -1402.000          48.000  
> 2024 12 28  3 27  7.9949999  0  9                     
G10  23698949.632      814910.0631      -2788.000          24.000  
G16  19957818.357     -715784.484        2389.000          44.000  
G25  24022707.501      213103.3521      -2923.000          19.000  
G26  19087868.987      -56666.052         259.000          34.000  
G27  23058856.625    -1218849.371        4213.000          31.000  
G28  20564357.422      -32689.197          97.000          42.000  
G29  22283006.926      240616.319        -912.000          35.000  
G31  20130388.830     -238717.432         805.000          46.000  
G32  20121215.286      384291.409       -1402.000          49.000  
> 2024 12 28  3 27  8.9949999  0  9                     
G10  23699490.729      817698.5641      -2788.000          25.000  
G16  19957362.976     -718172.869        2388.000          44.000  
G25  24023227.482      216029.0481      -2925.000          21.000  
G26  19087820.964      -56924.499         258.000          34.000  
G27  23058052.938    -1223062.138        4212.000          31.000  
G28  20564339.867      -32785.827          96.000          43.000  
G29  22283178.253      241530.150        -913.000          35.000  
G31  20130235.512     -239522.921         805.000          46.000  
G32  20121482.268      385694.477       -1403.000          49.000  
> 2024 12 28  3 27  9.9949999  0  9                     
G10  23700022.542      820487.2911      -2788.000          25.000  
G16  19956908.363     -720560.322        2387.000          44.000  
G25  24023819.184      218953.6491      -2924.000          21.000  
G26  19087771.754      -57182.014         257.000          34.000  
G27  23057247.820    -1227274.496        4212.000          32.000  
G28  20564321.161      -32881.936          96.000          42.000  
G29  22283347.031      242444.993        -914.000          33.000  
G31  20130083.067     -240327.877         804.000          46.000  
G32  20121749.443      387098.518       -1404.000          49.000  
> 2024 12 28  3 27 10.9949999  0  9                     
G10  23700550.620      823275.7711      -2788.000          24.000  
G16  19956453.575     -722947.326        2387.000          43.000  
G25  24024402.999      221871.3421      -2917.000          16.000  
G26  19087713.296      -57439.190         257.000          32.000  
G27  23056453.172    -1231486.924        4212.000          33.000  
G28  20564301.861      -32978.018          96.000          42.000  
G29  22283514.030      243360.3241       -915.000          31.000  
G31  20129930.238     -241132.831         804.000          46.000  
G32  20122016.709      388502.995       -1404.000          48.000  
> 2024 12 28  3 27 11.9949999  0  9                     
G10  23701081.979      826064.0801      -2788.000          21.000  
G16  19955999.311     -725333.873        2386.000          44.000  
G25  24024974.773      224794.7221      -2923.000          15.000  
G26  19087657.839      -57695.928         256.000          31.000  
G27  23055649.554    -1235699.464        4212.000          33.000  
G28  20564283.398      -33074.065          96.000          42.000  
G29  22283692.894      244276.0781       -915.000          32.000  
G31  20129777.339     -241937.711         804.000          46.000  
G32  20122284.073      389907.962       -1404.000          49.000  
> 2024 12 28  3 27 12.9949999  0  8                     
G16  19955545.221     -727719.767        2385.000          43.000  
G25  24025520.685      227712.9031      -2918.000          18.000  
G26  19087601.685      -57951.986         256.000          31.000  
G27  23054846.321    -1239911.974        4212.000          33.000  
G28  20564264.727      -33169.854          95.000          42.000  
G29  22283867.048      245192.653        -916.000          32.000  
G31  20129624.371     -242742.367         804.000          46.000  
G32  20122551.571      391313.592       -1405.000          49.000  
> 2024 12 28  3 27 13.9949999  0  8                     
G16  19955090.678     -730105.657        2385.000          43.000  
G25  24026042.377      230634.4751      -2921.000          19.000  
G26  19087568.226      -58208.213         256.000          30.000  
G27  23054046.647    -1244125.091        4213.000          33.000  
G28  20564246.264      -33266.105          96.000          42.000  
G29  22284039.526      246109.175        -916.000          32.000  
G31  20129471.402     -243547.455         805.000          46.000  
G32  20122819.073      392719.214       -1405.000          49.000  
> 2024 12 28  3 27 14.9949999  0  9                     
G10  23702727.046      834433.9981      -2788.000          17.000  
G16  19954637.287     -732490.409        2384.000          44.000  
G25  24026596.596      233552.0681      -2917.000          14.000  
G26  19087519.433      -58463.314         255.000          30.000  
G27  23053242.750    -1248337.528        4212.000          33.000  
G28  20564227.976      -33361.580          95.000          42.000  
G29  22284213.679      247026.950        -917.000          32.000  
G31  20129318.678     -244351.802         804.000          46.000  
G32  20123086.798      394126.018       -1406.000          49.000  
> 2024 12 28  3 27 15.9949999  0  8                     
G10  23703281.405      837221.7541      -2787.000          21.000  
G16  19954183.511     -734875.123        2384.000          44.000  
G26  19087470.668      -58718.507         255.000          30.000  
G27  23052441.890    -1252550.617        4213.000          33.000  
G28  20564210.003      -33457.512          95.000          42.000  
G29  22284387.832      247944.759        -917.000          33.000  
G31  20129165.465     -245156.573         804.000          46.000  
G32  20123354.522      395532.812       -1406.000          49.000  
> 2024 12 28  3 27 16.9949999  0  8                     
G10  23703804.806      840009.0001      -2787.000          23.000  
G16  19953730.154     -737259.184        2384.000          44.000  
G26  19087422.117      -58972.972         254.000          30.000  
G27  23051638.552    -1256763.477        4212.000          33.000  
G28  20564191.471      -33553.146          95.000          42.000  
G29  22284567.848      248863.297        -918.000          34.000  
G31  20129012.810     -245961.060         804.000          46.000  
G32  20123622.378      396940.315       -1407.000          49.000  
> 2024 12 28  3 27 17.9949999  0  8                     
G10  23704333.408      842796.2791      -2787.000          25.000  
G16  19953276.623     -739642.422        2383.000          43.000  
G26  19087373.679      -59226.771         253.000          30.000  
G27  23050833.748    -1260976.202        4212.000          34.000  
G28  20564173.462      -33648.412          95.000          42.000  
G29  22284747.900      249782.676        -919.000          33.000  
G31  20128859.946     -246765.175         804.000          46.000  
G32  20123890.380      398348.615       -1408.000          49.000  
> 2024 12 28  3 27 18.9949999  0  9                     
G10  23704864.419      845583.8601      -2787.000          25.000  
G16  19952823.511     -742024.835        2382.000          43.000  
G25  24028823.523      245206.4301      -2916.000          18.000  
G26  19087325.392      -59479.727         252.000          30.000  
G27  23050033.271    -1265188.506        4212.000          33.000  
G28  20564155.279      -33743.220          94.000          42.000  
G29  22284924.845      250703.008        -920.000          34.000  
G31  20128707.257     -247568.826         803.000          46.000  
G32  20124158.557      399757.819       -1409.000          49.000  
> 2024 12 28  3 27 19.9949999  0  9                     
G10  23705400.524      848372.1101      -2788.000          25.000  
G16  19952370.329     -744405.859        2381.000          44.000  
G25  24029378.579      248126.0521      -2919.000          19.000  
G26  19087277.405      -59731.397         251.000          31.000  
G27  23049228.328    -1269400.054        4211.000          33.000  
G28  20564137.375      -33837.102          93.000          42.000  
G29  22285102.209      251624.703        -921.000          34.000  
G31  20128554.672     -248371.523         802.000          46.000  
G32  20124426.996      401168.395       -1410.000          49.000  
> 2024 12 28  3 27 20.9949999  0  9                     
G10  23705921.588      851161.1371      -2789.000          25.000  
G16  19951917.810     -746785.414        2379.000          43.000  
G25  24029963.825      251045.8121      -2919.000          19.000  
G26  19087229.643      -59981.587         250.000          31.000  
G27  23048426.560    -1273610.708        4210.000          33.000  
G28  20564119.576      -33929.923          92.000          42.000  
G29  22285277.130      252548.038        -923.000          34.000  
G31  20128402.157     -249173.160         801.000          46.000  
G32  20124695.721      402580.472       -1412.000          49.000  
> 2024 12 28  3 27 21.9949999  0  9                     
G10  23706444.012      853950.4731      -2789.000          26.000  
G16  19951464.977     -749164.133        2378.000          44.000  
G25  24030525.163      253971.4811      -2925.000          18.000  
G26  19087182.116      -60231.026         249.000          32.000  
G27  23047628.771    -1277821.026        4210.000          34.000  
G28  20564101.811      -34022.304          92.000          43.000  
G29  22285453.656      253472.155        -924.000          35.000  
G31  20128249.782     -249974.393         801.000          46.000  
G32  20124964.608      403993.380       -1412.000          49.000  
> 2024 12 28  3 27 22.9949999  0  9                     
G10  23706963.715      856739.3231      -2788.000          27.000  
G16  19951012.353     -751542.362        2378.000          43.000  
G25  24031083.221      256897.8581      -2926.000          21.000  
G26  19087134.706      -60480.019         248.000          33.000  
G27  23046825.503    -1282031.489        4210.000          34.000  
G28  20564084.256      -34114.608          92.000          43.000  
G29  22285634.859      254396.835        -924.000          35.000  
G31  20128097.651     -250775.530         801.000          46.000  
G32  20125233.598      405406.818       -1413.000          49.000  
> 2024 12 28  3 27 23.9949999  0  9                     
G10  23707493.364      859528.2331      -2788.000          27.000  
G16  19950560.741     -753919.911        2377.000          44.000  
G25  24031636.987      259827.8221      -2929.000          21.000  
G26  19087087.426      -60728.357         248.000          33.000  
G27  23046020.489    -1286241.785        4210.000          33.000  
G28  20564066.841      -34206.648          92.000          43.000  
G29  22285811.874      255322.233        -925.000          35.000  
G31  20127945.485     -251576.406         800.000          46.000  
G32  20125502.713      406820.906       -1414.000          49.000  
> 2024 12 28  3 27 24.9949999  0  9                     
G10  23708027.236      862316.188       -2787.000          28.000  
G16  19950109.130     -756297.766        2377.000          44.000  
G25  24032208.376      262753.9671      -2926.000          21.000  
G26  19087040.076      -60977.081         248.000          33.000  
G27  23045224.620    -1290452.979        4211.000          35.000  
G28  20564049.531      -34299.429          92.000          43.000  
G29  22285984.806      256247.402        -925.000          35.000  
G31  20127793.180     -252377.998         801.000          46.000  
G32  20125771.779      408234.741       -1413.000          49.000  
> 2024 12 28  3 27 25.9949999  0  9                     
G10  23708553.813      865103.538       -2787.000          27.000  
G16  19949656.750     -758675.511        2377.000          43.000  
G25  24032717.923      265679.3291      -2925.000          21.000  
G26  19086992.662      -61225.749         248.000          34.000  
G27  23044420.653    -1294664.558        4211.000          34.000  
G28  20564031.941      -34392.517          93.000          43.000  
G29  22286161.018      257172.695        -925.000          35.000  
G31  20127641.049     -253179.896         801.000          46.000  
G32  20126040.862      409648.675       -1413.000          49.000  
> 2024 12 28  3 27 26.9949999  0  9                     
G10  23709075.121      867890.864       -2787.000          28.000  
G16  19949204.720     -761052.578        2377.000          43.000  
G25  24033266.942      268601.2431      -2921.000          20.000  
G26  19086945.419      -61473.753         248.000          33.000  
G27  23043619.479    -1298876.052        4211.000          35.000  
G28  20564014.281      -34485.315          92.000          43.000  
G29  22286336.812      258098.719        -926.000          36.000  
G31  20127488.638     -253981.548         801.000          46.000  
G32  20126310.088      411063.336       -1414.000          49.000  
> 2024 12 28  3 27 27.9949999  0  9                     
G10  23709619.219      870678.003       -2787.000          28.000  
G16  19948752.759     -763429.235        2376.000          43.000  
G25  24033839.309      271524.8331      -2923.000          20.000  
G26  19086898.287      -61721.485         247.000          34.000  
G27  23042812.232    -1303087.712        4211.000          34.000  
G28  20563996.447      -34578.150          92.000          43.000  
G29  22286513.583      259025.234        -926.000          35.000  
G31  20127335.984     -254783.199         801.000          46.000  
G32  20126579.394      412478.405       -1415.000          49.000  
> 2024 12 28  3 27 28.9949999  0  9                     
G10  23710134.070      873465.028       -2787.000          28.000  
G16  19948301.112     -765805.130        2375.000          44.000  
G25  24034437.886      274442.4161      -2917.000          15.000  
G26  19086851.336      -61968.392         246.000          33.000  
G27  23042009.696    -1307299.159        4211.000          33.000  
G28  20563978.403      -34670.614          92.000          42.000  
G29  22286689.446      259952.563        -927.000          35.000  
G31  20127183.295     -255584.482         801.000          46.000  
G32  20126848.854      413894.267       -1415.000          49.000  
> 2024 12 28  3 27 29.9949999  0  9                     
G10  23710646.409      876251.868       -2786.000          27.000  
G16  19947848.524     -768180.611        2375.000          43.000  
G25  24034986.626      277354.9791      -2912.000          14.000  
G26  19086804.524      -62215.000         246.000          34.000  
G27  23041210.581    -1311510.788        4211.000          33.000  
G28  20563960.290      -34763.120          92.000          42.000  
G29  22286858.818      260880.318        -927.000          35.000  
G31  20127030.954     -256385.780         801.000          46.000  
G32  20127118.389      415310.509       -1416.000          49.000  
> 2024 12 28  3 27 30.9949999  0  9                     
G10  23711180.979      879038.043       -2786.000          27.000  
G16  19947396.703     -770556.082        2375.000          43.000  
G25  24035542.834      280267.7181      -2912.000          16.000  
G26  19086757.691      -62461.624         246.000          35.000  
G27  23040403.753    -1315722.921        4212.000          33.000  
G28  20563942.247      -34855.992          92.000          42.000  
G29  22287032.796      261808.152        -927.000          35.000  
G31  20126878.369     -257187.457         801.000          46.000  
G32  20127387.939      416726.812       -1416.000          49.000  
> 2024 12 28  3 27 31.9949999  0  9                     
G10  23711714.292      881824.650       -2786.000          28.000  
G16  19946944.567     -772930.360        2374.000          44.000  
G25  24036091.748      283180.2861      -2912.000          14.000  
G26  19086711.080      -62707.149         245.000          35.000  
G27  23039603.521    -1319934.419        4211.000          33.000  
G28  20563924.378      -34948.131          92.000          42.000  
G29  22287213.964      262737.207        -929.000          34.000  
G31  20126726.029     -257988.409         800.000          45.000  
G32  20127657.714      418144.299       -1417.000          49.000  
> 2024 12 28  3 27 32.9949999  0  8                     
G10  23712229.074      884610.9811      -2786.000          27.000  
G16  19946492.642     -775304.271        2373.000          44.000  
G26  19086664.487      -62952.323         245.000          35.000  
G27  23038799.484    -1324146.129        4211.000          33.000  
G28  20563906.229      -35040.297          92.000          42.000  
G29  22287389.967      263666.717        -929.000          33.000  
G31  20126573.165     -258789.374         800.000          45.000  
G32  20127927.559      419562.170       -1417.000          49.000  
> 2024 12 28  3 27 33.9949999  0  8                     
G10  23712765.319      887396.4531      -2785.000          26.000  
G16  19946040.960     -777678.357        2374.000          44.000  
G26  19086617.780      -63197.746         245.000          34.000  
G27  23037995.448    -1328358.531        4212.000          33.000  
G28  20563888.500      -35133.028          92.000          42.000  
G29  22287570.193      264596.044        -929.000          34.000  
G31  20126421.139     -259590.932         801.000          45.000  
G32  20128197.367      420979.890       -1417.000          49.000  
> 2024 12 28  3 27 34.9949999  0  8                     
G10  23713301.843      890181.2931      -2784.000          27.000  
G16  19945589.139     -780052.326        2373.000          44.000  
G26  19086571.066      -63443.098         245.000          34.000  
G27  23037190.051    -1332571.433        4212.000          32.000  
G28  20563870.980      -35226.072          93.000          42.000  
G29  22287747.348      265525.573        -929.000          34.000  
G31  20126268.624     -260392.772         801.000          45.000  
G32  20128467.196      422397.753       -1417.000          49.000  
> 2024 12 28  3 27 35.9949999  0  8                     
G10  23713826.781      892966.3091      -2785.000          26.000  
G16  19945137.109     -782425.462        2373.000          44.000  
G26  19086524.571      -63687.599         244.000          34.000  
G27  23036387.166    -1336784.001        4212.000          32.000  
G28  20563853.216      -35318.661          92.000          42.000  
G29  22287928.621      266456.025        -930.000          34.000  
G31  20126116.004     -261194.161         801.000          45.000  
G32  20128737.182      423816.465       -1418.000          49.000  
> 2024 12 28  3 27 36.9949999  0  8                     
G10  23714351.334      895751.359       -2785.000          24.000  
G16  19944686.090     -784797.849        2372.000          44.000  
G26  19086478.195      -63931.472         243.000          33.000  
G27  23035588.225    -1340996.458        4212.000          32.000  
G28  20563835.800      -35410.991          92.000          42.000  
G29  22288101.832      267387.233        -931.000          34.000  
G31  20125963.594     -261995.274         801.000          45.000  
G32  20129007.303      425235.907       -1419.000          48.000  
> 2024 12 28  3 27 37.9949999  0  8                     
G10  23714874.212      898537.1621      -2785.000          22.000  
G16  19944235.665     -787169.402        2371.000          44.000  
G26  19086432.007      -64174.507         243.000          34.000  
G27  23034784.259    -1345208.588        4212.000          32.000  
G28  20563818.385      -35502.855          91.000          42.000  
G29  22288277.276      268319.341        -932.000          34.000  
G31  20125810.521     -262795.920         800.000          45.000  
G32  20129277.591      426656.232       -1420.000          49.000  
> 2024 12 28  3 27 38.9949999  0  8                     
G10  23715383.305      901325.2771      -2788.000          20.000  
G16  19943785.380     -789540.752        2371.000          44.000  
G26  19086385.855      -64417.441         242.000          34.000  
G27  23033982.177    -1349421.037        4212.000          32.000  
G28  20563800.760      -35594.920          92.000          42.000  
G29  22288451.988      269251.701        -932.000          34.000  
G31  20125658.006     -263596.798         800.000          45.000  
G32  20129547.914      428076.769       -1420.000          48.000  
> 2024 12 28  3 27 39.9949999  0  9                     
G10  23715909.743      904111.9801      -2786.000          19.000  
G16  19943334.606     -791911.477        2370.000          44.000  
G25  24040456.327        6476.1491      -2930.000          15.000  
G26  19086339.757      -64659.807         242.000          33.000  
G27  23033184.702    -1353633.458        4212.000          32.000  
G28  20563783.799      -35686.840          91.000          42.000  
G29  22288628.479      270184.677        -932.000          33.000  
G31  20125504.584     -264397.505         800.000          45.000  
G32  20129818.346      429497.894       -1421.000          48.000  
> 2024 12 28  3 27 40.9949999  0  9                     
G10  23716436.845      906896.3671      -2784.000          19.000  
G16  19942884.704     -794281.546        2370.000          44.000  
G25  24041031.695        9400.4641      -2924.000          18.000  
G26  19086293.723      -64901.537         241.000          33.000  
G27  23032382.237    -1357845.771        4212.000          32.000  
G28  20563767.151      -35778.496          91.000          42.000  
G29  22288805.355      271118.454        -933.000          34.000  
G31  20125351.789     -265197.929         800.000          45.000  
G32  20130088.907      430919.716       -1421.000          48.000  
> 2024 12 28  3 27 41.9949999  0  8                     
G16  19942433.686     -796650.879        2369.000          44.000  
G25  24041579.318       12325.4161      -2924.000          19.000  
G26  19086247.762      -65142.575         241.000          33.000  
G27  23031583.784    -1362057.892        4212.000          32.000  
G28  20563750.259      -35869.798          91.000          42.000  
G29  22288982.160      272053.038        -934.000          34.000  
G31  20125198.891     -265998.003         800.000          45.000  
G32  20130359.614      432342.315       -1422.000          48.000  
> 2024 12 28  3 27 42.9949999  0  9                     
G10  23717547.097      912465.7431      -2784.000          21.000  
G16  19941983.261     -799020.489        2369.000          44.000  
G25  24042142.960       15246.8291      -2921.000          19.000  
G26  19086201.656      -65383.978         241.000          33.000  
G27  23030789.765    -1366270.914        4213.000          33.000  
G28  20563732.704      -35961.825          92.000          42.000  
G29  22289162.072      272987.275        -934.000          35.000  
G31  20125046.515     -266798.813         800.000          45.000  
G32  20130630.264      433764.637       -1422.000          49.000  
> 2024 12 28  3 27 43.9949999  0  9                     
G10  23718079.085      915249.5711      -2783.000          22.000  
G16  19941531.999     -801389.172        2368.000          44.000  
G25  24042716.165       18167.2001      -2920.000          19.000  
G26  19086155.764      -65624.468         240.000          33.000  
G27  23029990.335    -1370483.521        4212.000          34.000  
G28  20563715.115      -36053.341          91.000          42.000  
G29  22289339.157      273922.534        -935.000          35.000  
G31  20124894.070     -267599.098         800.000          45.000  
G32  20130901.094      435187.904       -1423.000          48.000  
> 2024 12 28  3 27 44.9949999  0  9                     
G10  23718621.263      918033.1631      -2783.000          25.000  
G16  19941080.666     -803757.515        2368.000          44.000  
G25  24043248.466       21089.3871      -2922.000          17.000  
G26  19086109.993      -65864.719         240.000          34.000  
G27  23029183.716    -1374696.349        4212.000          35.000  
G28  20563697.769      -36144.892          91.000          42.000  
G29  22289522.244      274858.188        -935.000          35.000  
G31  20124741.904     -268399.446         800.000          45.000  
G32  20131171.990      436611.511       -1423.000          49.000  
> 2024 12 28  3 27 45.9949999  0  8                     
G10  23719169.304      920816.6541      -2783.000          25.000  
G16  19940629.648     -806125.372        2367.000          44.000  
G26  19086064.328      -66104.502         239.000          34.000  
G27  23028384.182    -1378909.262        4212.000          35.000  
G28  20563680.773      -36236.424          91.000          42.000  
G29  22289697.689      275794.406        -936.000          35.000  
G31  20124589.808     -269199.763         800.000          45.000  
G32  20131442.979      438035.611       -1424.000          48.000  
> 2024 12 28  3 27 46.9949999  0  8                     
G10  23719692.532      923600.5061      -2783.000          26.000  
G16  19940178.211     -808493.486        2368.000          44.000  
G26  19086018.659      -66344.603         240.000          34.000  
G27  23027582.100    -1383122.979        4213.000          34.000  
G28  20563662.938      -36328.597          92.000          42.000  
G29  22289877.391      276730.350        -935.000          35.000  
G31  20124437.433     -270000.718         800.000          44.000  
G32  20131713.927      439459.482       -1423.000          49.000  
> 2024 12 28  3 27 47.9949999  0  8                     
G10  23720221.483      926382.1641      -2781.000          27.000  
G16  19939726.669     -810861.690        2368.000          44.000  
G26  19085972.953      -66584.887         240.000          34.000  
G27  23026777.785    -1387337.407        4214.000          34.000  
G28  20563644.860      -36421.308          92.000          42.000  
G29  22290059.746      277666.299        -935.000          36.000  
G31  20124284.848     -270802.212         801.000          44.000  
G32  20131984.861      440883.267       -1423.000          48.000  
> 2024 12 28  3 27 48.9949999  0  9                     
G10  23720744.117      929163.472       -2780.000          26.000  
G16  19939275.790     -813230.093        2368.000          44.000  
G25  24045492.878       32799.8651      -2933.000          13.000  
G26  19085927.217      -66825.371         240.000          34.000  
G27  23025977.448    -1391552.550        4215.000          35.000  
G28  20563627.235      -36514.616          93.000          41.000  
G29  22290238.017      278602.067        -935.000          37.000  
G31  20124132.508     -271604.280         802.000          44.000  
G32  20132255.760      442306.864       -1423.000          48.000  
> 2024 12 28  3 27 49.9949999  0  8                     
G10  23721283.992      931944.077       -2780.000          26.000  
G16  19938825.435     -815597.898        2367.000          44.000  
G26  19085881.559      -67065.330         239.000          35.000  
G27  23025177.007    -1395767.584        4215.000          35.000  
G28  20563609.087      -36607.740          93.000          41.000  
G29  22290415.381      279538.514        -936.000          37.000  
G31  20123980.586     -272406.192         801.000          44.000  
G32  20132526.775      443731.084       -1424.000          48.000  
> 2024 12 28  3 27 50.9949999  0  8                     
G10  23721811.442      934724.170       -2780.000          25.000  
G16  19938375.115     -817965.577        2367.000          44.000  
G26  19085835.874      -67305.205         239.000          35.000  
G27  23024384.418    -1399983.091        4215.000          36.000  
G28  20563591.253      -36701.145          93.000          41.000  
G29  22290593.478      280475.116        -936.000          37.000  
G31  20123828.351     -273208.366         802.000          44.000  
G32  20132797.816      445155.440       -1424.000          48.000  
> 2024 12 28  3 27 51.9949999  0  8                     
G10  23722340.218      937504.5841      -2780.000          24.000  
G16  19937924.620     -820332.854        2367.000          44.000  
G26  19085790.279      -67544.741         239.000          35.000  
G27  23023580.486    -1404198.776        4215.000          36.000  
G28  20563573.349      -36794.555          93.000          41.000  
G29  22290772.552      281412.168        -937.000          37.000  
G31  20123676.254     -274010.540         802.000          45.000  
G32  20133068.940      446580.215       -1424.000          48.000  
> 2024 12 28  3 27 52.9949999  0  8                     
G10  23722867.808      940284.2461      -2779.000          24.000  
G16  19937474.090     -822699.501        2366.000          44.000  
G26  19085744.780      -67783.707         238.000          35.000  
G27  23022774.356    -1408414.355        4215.000          35.000  
G28  20563555.829      -36887.808          93.000          41.000  
G29  22290950.859      282349.907        -937.000          37.000  
G31  20123523.670     -274812.572         802.000          44.000  
G32  20133340.186      448005.623       -1425.000          48.000  
> 2024 12 28  3 27 53.9949999  0  8                     
G10  23723401.959      943063.7891      -2779.000          23.000  
G16  19937023.770     -825065.478        2365.000          44.000  
G26  19085699.427      -68022.005         238.000          35.000  
G27  23021970.739    -1412629.855        4215.000          35.000  
G28  20563537.646      -36980.716          92.000          41.000  
G29  22291130.003      283288.403        -938.000          37.000  
G31  20123370.841     -275614.244         801.000          44.000  
G32  20133611.568      449431.728       -1426.000          48.000  
> 2024 12 28  3 27 54.9949999  0  8                     
G10  23723946.301      945843.3171      -2779.000          22.000  
G16  19936573.519     -827431.105        2365.000          44.000  
G26  19085654.148      -68260.040         238.000          35.000  
G27  23021169.634    -1416845.523        4215.000          35.000  
G28  20563518.660      -37073.736          93.000          41.000  
G29  22291308.693      284227.255        -938.000          37.000  
G31  20123217.942     -276416.026         801.000          44.000  
G32  20133883.026      450858.211       -1426.000          48.000  
> 2024 12 28  3 27 55.9949999  0  8                     
G10  23724454.277      948621.3121      -2777.000          17.000  
G16  19936124.211     -829796.448        2365.000          45.000  
G26  19085608.930      -68497.831         237.000          35.000  
G27  23020360.677    -1421061.470        4215.000          35.000  
G28  20563500.512      -37166.901          93.000          40.000  
G29  22291490.001      285166.415        -939.000          36.000  
G31  20123065.078     -277217.963         801.000          44.000  
G32  20134154.533      452284.950       -1426.000          48.000  
> 2024 12 28  3 27 56.9949999  0  8                     
G10  23725059.835      951400.9641      -2779.000          14.000  
G16  19935674.275     -832161.740        2365.000          45.000  
G26  19085563.767      -68735.646         237.000          35.000  
G27  23019566.203    -1425277.939        4216.000          35.000  
G28  20563481.735      -37260.410          93.000          41.000  
G29  22291667.958      286105.719        -939.000          36.000  
G31  20122911.621     -278020.242         802.000          44.000  
G32  20134426.056      453711.795       -1426.000          48.000  
> 2024 12 28  3 27 57.9949999  0  7                     
G16  19935224.582     -834527.012        2365.000          45.000  
G26  19085518.514      -68973.492         237.000          35.000  
G27  23018763.947    -1429494.981        4217.000          36.000  
G28  20563464.215      -37354.320          93.000          41.000  
G29  22291846.404      287045.082        -939.000          37.000  
G31  20122758.233     -278822.930         802.000          44.000  
G32  20134697.576      455138.633       -1426.000          48.000  
> 2024 12 28  3 27 58.9949999  0  7                     
G16  19934775.553     -836892.201        2365.000          45.000  
G26  19085473.278      -69211.297         237.000          34.000  
G27  23017962.040    -1433712.445        4217.000          36.000  
G28  20563445.334      -37448.563          94.000          40.000  
G29  22292024.675      287984.575        -939.000          36.000  
G31  20122605.020     -279625.931         803.000          44.000  
G32  20134969.116      456565.575       -1426.000          48.000  
> 2024 12 28  3 27 59.9949999  0  7                     
G16  19934325.652     -839257.297        2365.000          45.000  
G26  19085428.005      -69449.062         237.000          34.000  
G27  23017160.865    -1437930.370        4217.000          37.000  
G28  20563426.872      -37543.102          94.000          41.000  
G29  22292203.156      288924.277        -939.000          36.000  
G31  20122452.401     -280429.257         803.000          44.000  
G32  20135240.681      457992.637       -1427.000          48.000  
> 2024 12 28  3 28  0.9949999  0  7                     
G16  19933875.541     -841622.273        2364.000          45.000  
G26  19085382.704      -69686.770         237.000          34.000  
G27  23016359.237    -1442148.773        4218.000          37.000  
G28  20563409.526      -37638.015          94.000          41.000  
G29  22292380.799      289864.043        -939.000          36.000  
G31  20122299.258     -281232.883         803.000          44.000  
G32  20135512.259      459419.800       -1427.000          48.000  
> 2024 12 28  3 28  1.9949999  0  7                     
G16  19933425.221     -843986.794        2364.000          45.000  
G26  19085337.476      -69924.062         237.000          34.000  
G27  23015556.457    -1446367.240        4218.000          37.000  
G28  20563393.751      -37732.823          94.000          41.000  
G29  22292557.954      290804.341        -940.000          35.000  
G31  20122146.289     -282036.482         803.000          43.000  
G32  20135783.935      460847.476       -1427.000          48.000  
> 2024 12 28  3 28  2.9949999  0  7                     
G16  19932975.668     -846350.976        2364.000          45.000  
G26  19085292.267      -70161.059         237.000          34.000  
G27  23014754.027    -1450585.944        4218.000          37.000  
G28  20563378.046      -37827.744          94.000          41.000  
G29  22292737.866      291745.027        -940.000          35.000  
G31  20121993.460     -282840.116         803.000          43.000  
G32  20136055.670      462275.473       -1427.000          48.000  
> 2024 12 28  3 28  3.9949999  0  7                     
G16  19932526.290     -848714.892        2363.000          45.000  
G26  19085247.179      -70397.869         236.000          34.000  
G27  23013949.746    -1454804.957        4219.000          36.000  
G28  20563361.329      -37922.782          95.000          42.000  
G29  22292914.322      292686.008        -940.000          35.000  
G31  20121840.352     -283643.938         803.000          43.000  
G32  20136327.453      463703.747       -1428.000          48.000  
> 2024 12 28  3 28  4.9949999  0  7                     
G16  19932077.052     -851078.805        2363.000          45.000  
G26  19085202.112      -70634.711         236.000          34.000  
G27  23013145.745    -1459024.479        4219.000          36.000  
G28  20563343.914      -38018.273          95.000          42.000  
G29  22293091.896      293627.111        -941.000          35.000  
G31  20121687.697     -284448.190         804.000          43.000  
G32  20136599.239      465132.053       -1428.000          48.000  
> 2024 12 28  3 28  5.9949999  0  7                     
G16  19931627.185     -853442.268        2363.000          45.000  
G26  19085157.124      -70871.164         236.000          34.000  
G27  23012342.511    -1463244.136        4219.000          36.000  
G28  20563326.568      -38113.706          95.000          41.000  
G29  22293278.125      294568.623        -941.000          35.000  
G31  20121534.938     -285252.360         804.000          44.000  
G32  20136871.113      466560.817       -1428.000          48.000  
> 2024 12 28  3 28  6.9949999  0  7                     
G16  19931177.388     -855805.688        2363.000          45.000  
G26  19085112.160      -71107.622         236.000          33.000  
G27  23011538.370    -1467464.270        4220.000          36.000  
G28  20563309.467      -38209.495          95.000          42.000  
G29  22293452.487      295510.279        -941.000          36.000  
G31  20121381.830     -286056.912         804.000          43.000  
G32  20137142.994      467989.627       -1428.000          48.000  
> 2024 12 28  3 28  7.9949999  0  7                     
G16  19930727.103     -858168.798        2363.000          45.000  
G26  19085067.256      -71343.866         236.000          33.000  
G27  23010734.404    -1471684.696        4220.000          36.000  
G28  20563290.865      -38305.403          95.000          41.000  
G29  22293637.215      296452.275        -941.000          35.000  
G31  20121228.512     -286861.558         804.000          43.000  
G32  20137414.937      469418.764       -1429.000          48.000  
> 2024 12 28  3 28  8.9949999  0  7                     
G16  19930277.027     -860531.521        2362.000          45.000  
G26  19085022.356      -71579.670         235.000          33.000  
G27  23009927.680    -1475905.225        4220.000          36.000  
G28  20563271.530      -38401.331          95.000          41.000  
G29  22293814.230      297394.765        -942.000          34.000  
G31  20121075.090     -287666.242         804.000          43.000  
G32  20137686.956      470848.321       -1429.000          47.000  
> 2024 12 28  3 28  9.9949999  0  7                     
G16  19929827.405     -862893.758        2362.000          45.000  
G26  19084977.486      -71815.147         235.000          32.000  
G27  23009124.516    -1480125.883        4220.000          35.000  
G28  20563251.951      -38497.231          95.000          41.000  
G29  22293996.166      298337.704        -942.000          35.000  
G31  20120922.121     -288470.890         804.000          43.000  
G32  20137959.058      472278.314       -1429.000          47.000  
> 2024 12 28  3 28 10.9949999  0  8                     
G16  19929377.608     -865255.877        2362.000          45.000  
G25  24057757.415       13950.2331      -2915.000          18.000  
G26  19084932.616      -72050.535         235.000          33.000  
G27  23008321.283    -1484346.976        4221.000          36.000  
G28  20563232.965      -38593.396          96.000          41.000  
G29  22294173.181      299280.848        -943.000          35.000  
G31  20120769.013     -289275.810         804.000          43.000  
G32  20138231.188      473708.475       -1430.000          48.000  
> 2024 12 28  3 28 11.9949999  0  8                     
G16  19928928.300     -867617.230        2361.000          45.000  
G25  24058295.300       16863.2781      -2913.000          18.000  
G26  19084887.894      -72285.229         234.000          33.000  
G27  23007504.997    -1488567.812        4220.000          36.000  
G28  20563214.538      -38689.222          95.000          41.000  
G29  22294353.826      300224.802        -943.000          35.000  
G31  20120616.882     -290080.326         804.000          43.000  
G32  20138503.466      475139.423       -1430.000          48.000  
> 2024 12 28  3 28 12.9949999  0  8                     
G16  19928478.293     -869978.516        2361.000          45.000  
G25  24058837.339       19772.9851      -2909.000          19.000  
G26  19084843.215      -72519.850         234.000          33.000  
G27  23006709.790    -1492789.193        4221.000          36.000  
G28  20563195.587      -38785.395          96.000          41.000  
G29  22294528.677      301168.846        -944.000          35.000  
G31  20120464.088     -290885.257         804.000          42.000  
G32  20138775.752      476570.416       -1430.000          48.000  
> 2024 12 28  3 28 13.9949999  0  8                     
G16  19928028.741     -872339.454        2360.000          45.000  
G25  24059391.663       22686.8201      -2913.000          21.000  
G26  19084798.585      -72754.213         234.000          33.000  
G27  23005907.848    -1497010.777        4221.000          36.000  
G28  20563177.438      -38881.644          96.000          41.000  
G29  22294710.194      302113.242        -944.000          35.000  
G31  20120311.015     -291690.279         805.000          42.000  
G32  20139048.112      478001.773       -1431.000          48.000  
> 2024 12 28  3 28 14.9949999  0  8                     
G16  19927579.363     -874699.709        2360.000          45.000  
G25  24059923.685       25597.1531      -2910.000          20.000  
G26  19084754.134      -72987.964         233.000          32.000  
G27  23005100.985    -1501232.230        4221.000          36.000  
G28  20563159.116      -38977.601          95.000          40.000  
G29  22294894.643      303058.495        -945.000          35.000  
G31  20120158.186     -292494.952         804.000          42.000  
G32  20139320.615      479433.859       -1432.000          47.000  
> 2024 12 28  3 28 15.9949999  0  9                     
G10  23734986.321        7726.4381      -2770.000          25.000  
G16  19927129.950     -877059.671        2359.000          45.000  
G25  24060490.468       28511.9041      -2914.000          18.000  
G26  19084709.824      -73221.417         233.000          33.000  
G27  23004300.927    -1505453.864        4221.000          36.000  
G28  20563141.072      -39073.668          96.000          41.000  
G29  22295077.591      304004.025        -945.000          35.000  
G31  20120005.462     -293299.772         804.000          42.000  
G32  20139593.179      480866.233       -1432.000          48.000  
> 2024 12 28  3 28 16.9949999  0  9                     
G10  23735508.327       10496.3301      -2769.000          25.000  
G16  19926681.061     -879419.440        2359.000          45.000  
G25  24061022.769       31423.1051      -2911.000          18.000  
G26  19084665.519      -73454.800         233.000          33.000  
G27  23003499.509    -1509675.975        4222.000          37.000  
G28  20563123.657      -39170.001          96.000          41.000  
G29  22295262.947      304949.773        -945.000          35.000  
G31  20119851.795     -294104.847         805.000          42.000  
G32  20139865.783      482298.791       -1432.000          48.000  
> 2024 12 28  3 28 17.9949999  0  9                     
G10  23736036.999       13265.4921      -2769.000          25.000  
G16  19926232.311     -881779.146        2359.000          45.000  
G25  24061551.092       34331.5011      -2908.000          16.000  
G26  19084621.153      -73688.188         233.000          33.000  
G27  23002697.462    -1513898.531        4222.000          37.000  
G28  20563105.997      -39266.701          96.000          42.000  
G29  22295430.295      305895.642        -945.000          36.000  
G31  20119696.523     -294910.270         805.000          41.000  
G32  20140138.405      483731.430       -1432.000          48.000  
> 2024 12 28  3 28 18.9949999  0  9                     
G10  23736567.276       16034.4961      -2768.000          24.000  
G16  19925783.840     -884138.577        2359.000          45.000  
G25  24062114.560       37243.4031      -2911.000          19.000  
G26  19084576.685      -73921.283         233.000          32.000  
G27  23001895.694    -1518121.374        4222.000          37.000  
G28  20563088.198      -39363.499          96.000          42.000  
G29  22295617.117      306841.870        -946.000          35.000  
G31  20119542.054     -295715.795         805.000          41.000  
G32  20140411.085      485164.370       -1432.000          48.000  
> 2024 12 28  3 28 19.9949999  0  9                     
G10  23737064.398       18800.8431      -2766.000          21.000  
G16  19925335.090     -886497.676        2359.000          45.000  
G25  24062667.208       40155.4271      -2912.000          18.000  
G26  19084532.245      -74154.120         232.000          32.000  
G27  23001092.042    -1522344.354        4222.000          36.000  
G28  20563069.875      -39460.374          96.000          43.000  
G29  22295795.039      307788.438        -946.000          35.000  
G31  20119387.759     -296521.403         805.000          41.000  
G32  20140683.832      486597.649       -1433.000          48.000  
> 2024 12 28  3 28 20.9949999  0  9                     
G10  23737604.273       21569.9431      -2769.000          19.000  
G16  19924886.061     -888856.204        2358.000          45.000  
G25  24063230.710       43066.3371      -2910.000          19.000  
G26  19084487.890      -74386.438         232.000          32.000  
G27  23000293.624    -1526567.440        4223.000          36.000  
G28  20563051.273      -39557.149          96.000          42.000  
G29  22295978.301      308735.555        -947.000          35.000  
G31  20119237.849     -297326.896         805.000          41.000  
G32  20140956.686      488031.510       -1433.000          48.000  
> 2024 12 28  3 28 21.9949999  0  9                     
G10  23738143.170       24339.0581      -2769.000          22.000  
G16  19924437.277     -891214.128        2357.000          45.000  
G25  24063794.632       45977.7691      -2911.000          18.000  
G26  19084443.673      -74618.329         231.000          32.000  
G27  22999490.286    -1530790.492        4223.000          37.000  
G28  20563032.637      -39653.714          96.000          43.000  
G29  22296155.631      309683.343        -947.000          35.000  
G31  20119084.545     -298132.198         805.000          40.000  
G32  20141229.653      489465.995       -1434.000          48.000  
> 2024 12 28  3 28 22.9949999  0  9                     
G10  23738657.010       27106.6951      -2767.000          22.000  
G16  19923989.015     -893571.086        2356.000          46.000  
G25  24064374.572       48892.6781      -2914.000          16.000  
G26  19084399.744      -74849.157         230.000          32.000  
G27  22998687.681    -1535013.047        4222.000          37.000  
G28  20563014.593      -39749.703          95.000          43.000  
G29  22296332.506      310632.161        -948.000          35.000  
G31  20118931.343     -298936.930         804.000          40.000  
G32  20141502.800      490901.454       -1435.000          48.000  
> 2024 12 28  3 28 23.9949999  0  9                     
G10  23739187.880       29876.4371      -2769.000          24.000  
G16  19923541.243     -895926.209        2355.000          45.000  
G25  24064925.476       51804.8071      -2912.000          19.000  
G26  19084356.215      -75078.307         229.000          33.000  
G27  22997885.564    -1539234.354        4221.000          36.000  
G28  20562995.817      -39844.279          94.000          43.000  
G29  22296511.371      311582.876        -950.000          35.000  
G31  20118778.415     -299740.260         803.000          41.000  
G32  20141776.294      492338.744       -1437.000          48.000  
> 2024 12 28  3 28 24.9949999  0  9                     
G10  23739747.229       32646.3581      -2770.000          22.000  
G16  19923092.912     -898280.226        2354.000          45.000  
G25  24065496.133       54715.2561      -2910.000          20.000  
G26  19084312.916      -75306.320         228.000          34.000  
G27  22997083.622    -1543455.151        4220.000          37.000  
G28  20562977.738      -39938.172          93.000          42.000  
G29  22296691.946      312534.753        -951.000          34.000  
G31  20118625.636     -300542.892         802.000          41.000  
G32  20142050.006      493777.171       -1438.000          48.000  
> 2024 12 28  3 28 25.9949999  0  8                     
G10  23740245.328       35415.4181      -2769.000          22.000  
G16  19922644.022     -900634.162        2353.000          45.000  
G26  19084269.629      -75534.397         228.000          34.000  
G27  22996280.458    -1547676.370        4221.000          37.000  
G28  20562959.311      -40032.401          94.000          42.000  
G29  22296874.021      313486.790        -952.000          34.000  
G31  20118472.804     -301345.867         802.000          41.000  
G32  20142323.735      495215.669       -1438.000          48.000  
> 2024 12 28  3 28 26.9949999  0  8                     
G10  23740749.570       38184.8081      -2769.000          22.000  
G16  19922196.054     -902987.306        2353.000          45.000  
G26  19084226.423      -75761.632         227.000          33.000  
G27  22995478.935    -1551897.373        4221.000          37.000  
G28  20562940.538      -40126.237          93.000          43.000  
G29  22297053.025      314439.650        -952.000          35.000  
G31  20118320.071     -302148.425         802.000          41.000  
G32  20142597.620      496654.979       -1439.000          48.000  
> 2024 12 28  3 28 27.9949999  0  8                     
G10  23741304.347       40954.0071      -2769.000          25.000  
G16  19921748.322     -905340.124        2352.000          45.000  
G26  19084183.224      -75988.677         227.000          33.000  
G27  22994676.260    -1556118.612        4221.000          37.000  
G28  20562922.669      -40220.176          93.000          42.000  
G29  22297235.345      315392.838        -953.000          34.000  
G31  20118167.325     -302951.082         802.000          42.000  
G32  20142871.573      498094.615       -1439.000          48.000  
> 2024 12 28  3 28 28.9949999  0  8                     
G10  23741831.204       43723.0811      -2769.000          26.000  
G16  19921300.692     -907692.432        2352.000          45.000  
G26  19084140.098      -76215.292         226.000          33.000  
G27  22993872.991    -1560339.921        4221.000          37.000  
G28  20562904.816      -40314.049          93.000          43.000  
G29  22297416.409      316346.604        -953.000          35.000  
G31  20118014.602     -303753.663         802.000          42.000  
G32  20143145.628      499534.777       -1440.000          48.000  
> 2024 12 28  3 28 29.9949999  0  8                     
G10  23742368.461       46491.7211      -2768.000          27.000  
G16  19920853.128     -910044.381        2351.000          45.000  
G26  19084097.039      -76441.493         226.000          34.000  
G27  22993071.014    -1564561.360        4221.000          37.000  
G28  20562886.957      -40407.950          93.000          42.000  
G29  22297602.777      317300.849        -954.000          35.000  
G31  20117861.878     -304556.282         802.000          42.000  
G32  20143419.752      500975.312       -1440.000          48.000  
> 2024 12 28  3 28 30.9949999  0  8                     
G10  23742896.086       49259.547       -2767.000          27.000  
G16  19920405.536     -912396.480        2352.000          45.000  
G26  19084054.019      -76667.954         226.000          34.000  
G27  22992267.467    -1568783.542        4222.000          38.000  
G28  20562869.000      -40502.395          94.000          43.000  
G29  22297777.279      318254.926        -954.000          35.000  
G31  20117709.049     -305359.479         803.000          42.000  
G32  20143693.854      502415.738       -1440.000          48.000  
> 2024 12 28  3 28 31.9949999  0  9                     
G10  23743425.177       52027.494       -2767.000          27.000  
G16  19919958.133     -914747.585        2351.000          45.000  
G25  24069308.656        8130.9561      -2913.000          18.000  
G26  19084011.183      -76893.547         225.000          34.000  
G27  22991464.931    -1573005.284        4221.000          38.000  
G28  20562851.147      -40596.315          93.000          43.000  
G29  22297962.950      319209.960        -955.000          35.000  
G31  20117556.334     -306162.118         802.000          42.000  
G32  20143968.138      503857.111       -1441.000          48.000  
> 2024 12 28  3 28 32.9949999  0  9                     
G10  23743937.969       54795.748       -2768.000          27.000  
G16  19919510.881     -917097.913        2350.000          45.000  
G25  24069859.420       11047.3961      -2916.000          19.000  
G26  19083968.510      -77118.329         224.000          34.000  
G27  22990662.291    -1577226.781        4221.000          38.000  
G28  20562833.365      -40689.844          93.000          42.000  
G29  22298143.175      320165.966        -956.000          35.000  
G31  20117403.682     -306964.371         802.000          42.000  
G32  20144242.580      505299.303       -1442.000          48.000  
> 2024 12 28  3 28 33.9949999  0  9                     
G10  23744466.466       57562.999       -2767.000          27.000  
G16  19919063.600     -919448.380        2350.000          45.000  
G25  24070398.876       13961.5081      -2914.000          12.000  
G26  19083925.812      -77343.340         225.000          34.000  
G27  22989857.871    -1581449.022        4222.000          37.000  
G28  20562815.469      -40783.961          94.000          43.000  
G29  22298322.529      321121.768        -955.000          35.000  
G31  20117250.917     -307767.190         802.000          41.000  
G32  20144516.990      506741.331       -1442.000          48.000  
> 2024 12 28  3 28 34.9949999  0  8                     
G10  23744988.961       60329.155       -2766.000          29.000  
G16  19918616.228     -921799.341        2350.000          45.000  
G26  19083882.984      -77568.896         225.000          34.000  
G27  22989054.044    -1585672.234        4223.000          37.000  
G28  20562797.413      -40878.938          94.000          43.000  
G29  22298500.835      322077.178        -955.000          34.000  
G31  20117097.981     -308570.893         803.000          41.000  
G32  20144791.313      508182.905       -1441.000          48.000  
> 2024 12 28  3 28 35.9949999  0  8                     
G10  23745512.816       63094.576       -2765.000          26.000  
G16  19918168.872     -924150.229        2350.000          45.000  
G26  19083840.083      -77794.382         225.000          33.000  
G27  22988248.577    -1589895.980        4223.000          37.000  
G28  20562779.295      -40974.265          95.000          43.000  
G29  22298682.771      323032.758        -955.000          34.000  
G31  20116944.978     -309374.925         804.000          41.000  
G32  20145065.657      509624.592       -1441.000          48.000  
> 2024 12 28  3 28 36.9949999  0  8                     
G10  23746035.695       65860.090       -2765.000          26.000  
G16  19917721.666     -926500.346        2350.000          45.000  
G26  19083797.251      -78019.223         224.000          34.000  
G27  22987444.506    -1594119.505        4223.000          37.000  
G28  20562761.234      -41069.274          95.000          42.000  
G29  22298868.930      323989.044        -956.000          34.000  
G31  20116792.032     -310178.654         803.000          41.000  
G32  20145340.140      511067.008       -1442.000          48.000  
> 2024 12 28  3 28 37.9949999  0  8                     
G10  23746560.039       68627.1471      -2767.000          24.000  
G16  19917274.768     -928848.823        2348.000          45.000  
G26  19083754.704      -78242.458         223.000          33.000  
G27  22986641.412    -1598341.925        4222.000          37.000  
G28  20562743.401      -41163.032          93.000          42.000  
G29  22299054.042      324947.073        -958.000          33.000  
G31  20116639.325     -310981.137         802.000          41.000  
G32  20145614.946      512511.112       -1444.000          48.000  
> 2024 12 28  3 28 38.9949999  0  8                     
G10  23747081.835       71395.1711      -2768.000          26.000  
G16  19916827.997     -931196.637        2347.000          45.000  
G26  19083712.257      -78465.072         222.000          33.000  
G27  22985837.794    -1602564.258        4222.000          37.000  
G28  20562725.599      -41256.554          93.000          42.000  
G29  22299232.837      325905.781        -958.000          33.000  
G31  20116486.675     -311783.357         802.000          41.000  
G32  20145889.876      513955.867       -1444.000          48.000  
> 2024 12 28  3 28 39.9949999  0  9                     
G10  23747610.472       74161.2121      -2766.000          27.000  
G16  19916381.285     -933544.140        2347.000          45.000  
G25  24073755.809       31518.6051      -2924.000          11.000  
G26  19083669.944      -78687.474         222.000          34.000  
G27  22985033.549    -1606786.802        4222.000          38.000  
G28  20562707.769      -41350.192          93.000          42.000  
G29  22299424.650      326864.845        -959.000          34.000  
G31  20116334.001     -312585.739         802.000          41.000  
G32  20146164.862      515400.913       -1445.000          48.000  
> 2024 12 28  3 28 40.9949999  0  9                     
G10  23748127.696       76926.6691      -2765.000          26.000  
G16  19915934.576     -935891.604        2347.000          44.000  
G25  24074318.614       34438.8161      -2920.000          16.000  
G26  19083627.702      -78909.882         222.000          33.000  
G27  22984228.396    -1611009.868        4223.000          36.000  
G28  20562689.859      -41444.198          94.000          41.000  
G29  22299604.631      327824.064        -959.000          34.000  
G31  20116181.272     -313388.454         802.000          41.000  
G32  20146439.874      516846.055       -1445.000          47.000  
> 2024 12 28  3 28 41.9949999  0  8                     
G10  23748653.471       79690.9301      -2764.000          23.000  
G16  19915487.806     -938239.352        2347.000          44.000  
G26  19083585.404      -79132.690         222.000          34.000  
G27  22983422.300    -1615233.903        4224.000          35.000  
G28  20562671.822      -41538.936          94.000          42.000  
G29  22299782.868      328782.993        -958.000          35.000  
G31  20116028.406     -314191.923         803.000          41.000  
G32  20146714.827      518290.871       -1444.000          48.000  
> 2024 12 28  3 28 42.9949999  0  9                     
G10  23749179.630       82454.8141      -2763.000          25.000  
G16  19915041.068     -940586.941        2347.000          45.000  
G25  24075423.143       40270.5841      -2915.000          18.000  
G26  19083543.149      -79355.284         222.000          34.000  
G27  22982615.751    -1619458.138        4224.000          36.000  
G28  20562653.750      -41633.881          94.000          42.000  
G29  22299961.942      329742.138        -959.000          34.000  
G31  20115875.515     -314995.557         803.000          42.000  
G32  20146989.828      519735.921       -1445.000          48.000  
> 2024 12 28  3 28 43.9949999  0  9                     
G10  23749689.247       85218.7531      -2763.000          23.000  
G16  19914594.453     -942933.933        2346.000          45.000  
G25  24075982.771       43185.1501      -2914.000          19.000  
G26  19083500.929      -79577.406         222.000          33.000  
G27  22981810.912    -1623682.416        4224.000          36.000  
G28  20562635.720      -41728.655          94.000          42.000  
G29  22300152.359      330701.951        -959.000          36.000  
G31  20115722.648     -315799.044         803.000          42.000  
G32  20147264.935      521181.530       -1445.000          48.000  
> 2024 12 28  3 28 44.9949999  0  9                     
G10  23750206.890       87982.5481      -2763.000          22.000  
G16  19914148.021     -945279.974        2346.000          45.000  
G25  24076513.502       46096.2601      -2911.000          19.000  
G26  19083458.823      -79798.653         221.000          34.000  
G27  22981008.761    -1627906.297        4223.000          37.000  
G28  20562617.791      -41822.925          94.000          43.000  
G29  22300332.166      331662.709        -960.000          36.000  
G31  20115569.869     -316602.066         803.000          41.000  
G32  20147540.218      522628.089       -1446.000          48.000  
> 2024 12 28  3 28 45.9949999  0  9                     
G10  23750726.732       90749.4991      -2766.000          18.000  
G16  19913701.657     -947625.675        2345.000          45.000  
G25  24077074.701       49002.9191      -2906.000          21.000  
G26  19083416.768      -80019.522         220.000          33.000  
G27  22980205.073    -1632130.410        4224.000          37.000  
G28  20562599.855      -41917.231          94.000          42.000  
G29  22300503.701      332623.799        -961.000          35.000  
G31  20115417.083     -317405.093         803.000          41.000  
G32  20147815.573      524075.025       -1446.000          48.000  
> 2024 12 28  3 28 46.9949999  0  8                     
G10  23751250.797       93513.9391      -2764.000          20.000  
G16  19913255.491     -949970.327        2344.000          46.000  
G26  19083374.879      -80239.494         219.000          33.000  
G27  22979399.920    -1636354.003        4223.000          37.000  
G28  20562582.031      -42010.936          93.000          42.000  
G29  22300695.793      333586.058        -962.000          34.000  
G31  20115264.416     -318207.488         802.000          40.000  
G32  20148091.133      525523.012       -1447.000          49.000  
> 2024 12 28  3 28 47.9949999  0  8                     
G10  23751772.523       96280.7761      -2766.000          22.000  
G16  19912809.815     -952312.376        2342.000          45.000  
G26  19083333.428      -80456.876         217.000          32.000  
G27  22978595.470    -1640575.549        4221.000          36.000  
G28  20562564.624      -42102.434          91.000          42.000  
G29  22300883.523      334550.930        -964.000          34.000  
G31  20115112.164     -319007.701         800.000          40.000  
G32  20148367.195      526973.607       -1450.000          49.000  
> 2024 12 28  3 28 48.9949999  0  7                     
G16  19912364.495     -954652.558        2340.000          45.000  
G26  19083292.359      -80672.476         215.000          33.000  
G27  22977792.375    -1644795.760        4220.000          36.000  
G28  20562547.491      -42192.485          90.000          43.000  
G29  22301069.402      335517.755        -966.000          34.000  
G31  20114960.182     -319806.491         798.000          40.000  
G32  20148643.627      528426.105       -1452.000          49.000  
> 2024 12 28  3 28 49.9949999  0  9                     
G10  23752875.063      101815.7721      -2768.000          20.000  
G16  19911919.473     -956991.188        2338.000          45.000  
G25  24079294.334        8134.2661      -2918.000          17.000  
G26  19083251.635      -80886.568         214.000          33.000  
G27  22976989.464    -1649014.993        4219.000          36.000  
G28  20562530.576      -42281.405          88.000          42.000  
G29  22301246.627      336486.177        -968.000          32.000  
G31  20114808.422     -320604.092         797.000          40.000  
G32  20148920.351      529880.128       -1454.000          49.000  
> 2024 12 28  3 28 50.9949999  0  8                     
G10  23753355.119      104586.1251      -2770.000          14.000  
G16  19911474.764     -959328.188        2337.000          45.000  
G26  19083211.313      -81099.062         212.000          33.000  
G27  22976186.755    -1653233.216        4218.000          36.000  
G28  20562513.889      -42369.120          87.000          43.000  
G29  22301433.274      337456.209        -970.000          31.000  
G31  20114656.870     -321400.533         796.000          39.000  
G32  20149197.387      531335.792       -1455.000          49.000  
> 2024 12 28  3 28 51.9949999  0  8                     
G10  23753865.956      107351.6991      -2765.000          17.000  
G16  19911030.424     -961663.235        2335.000          45.000  
G26  19083171.339      -81309.721         210.000          33.000  
G27  22975384.330    -1657449.945        4216.000          36.000  
G28  20562497.498      -42455.304          86.000          43.000  
G29  22301622.679      338428.291        -972.000          33.000  
G31  20114505.607     -322195.402         794.000          40.000  
G32  20149474.795      532793.435       -1457.000          49.000  
> 2024 12 28  3 28 52.9949999  0  8                     
G10  23754364.928      110119.1321      -2767.000          17.000  
G16  19910586.194     -963997.704        2334.000          45.000  
G26  19083131.402      -81519.802         210.000          33.000  
G27  22974581.903    -1661666.642        4216.000          36.000  
G28  20562481.144      -42541.278          85.000          43.000  
G29  22301809.257      339401.064        -972.000          33.000  
G31  20114354.376     -322990.106         794.000          40.000  
G32  20149752.310      534251.671       -1458.000          48.000  
> 2024 12 28  3 28 53.9949999  0  7                     
G16  19910142.135     -966331.267        2333.000          45.000  
G26  19083091.599      -81729.066         209.000          33.000  
G27  22973779.467    -1665882.996        4216.000          35.000  
G28  20562464.879      -42626.787          85.000          43.000  
G29  22301993.915      340374.722        -973.000          35.000  
G31  20114203.234     -323784.368         794.000          40.000  
G32  20150029.991      535710.825       -1459.000          48.000  
> 2024 12 28  3 28 54.9949999  0  8                     
G10  23755433.544      115658.6941      -2768.000          20.000  
G16  19909698.099     -968664.688        2333.000          45.000  
G26  19083051.719      -81938.196         209.000          32.000  
G27  22972976.971    -1670099.825        4216.000          35.000  
G28  20562448.563      -42712.568          85.000          43.000  
G29  22302178.294      341348.474        -973.000          34.000  
G31  20114052.041     -324578.856         794.000          40.000  
G32  20150307.695      537170.125       -1459.000          49.000  
> 2024 12 28  3 28 55.9949999  0  8                     
G10  23755957.400      118426.4971      -2767.000          21.000  
G16  19909254.365     -970996.482        2331.000          45.000  
G26  19083012.077      -82145.800         207.000          32.000  
G27  22972174.667    -1674315.555        4215.000          35.000  
G28  20562432.474      -42797.159          84.000          42.000  
G29  22302364.453      342324.003        -975.000          35.000  
G31  20113901.084     -325372.134         793.000          40.000  
G32  20150585.707      538631.052       -1460.000          49.000  
> 2024 12 28  3 28 56.9949999  0  8                     
G10  23756486.979      121198.1821      -2771.000          22.000  
G16  19908810.954     -973326.577        2330.000          45.000  
G26  19082972.723      -82351.749         205.000          32.000  
G27  22971372.624    -1678530.048        4214.000          34.000  
G28  20562416.636      -42880.469          83.000          42.000  
G29  22302556.650      343301.283        -977.000          36.000  
G31  20113750.366     -326164.183         792.000          41.000  
G32  20150864.042      540093.677       -1462.000          48.000  
> 2024 12 28  3 28 57.9949999  0  8                     
G10  23757037.463      123969.4471      -2771.000          20.000  
G16  19908367.410     -975657.376        2330.000          45.000  
G26  19082933.286      -82558.504         206.000          32.000  
G27  22970570.330    -1682745.914        4215.000          35.000  
G28  20562400.592      -42964.863          84.000          42.000  
G29  22302733.826      344277.824        -976.000          35.000  
G31  20113599.447     -326957.279         793.000          40.000  
G32  20151142.245      541555.619       -1461.000          48.000  
> 2024 12 28  3 28 58.9949999  0  8                     
G10  23757553.152      126738.3271      -2768.000          20.000  
G16  19907923.807     -977988.473        2331.000          45.000  
G26  19082893.835      -82765.610         207.000          31.000  
G27  22969767.890    -1686962.620        4216.000          35.000  
G28  20562384.393      -43050.015          85.000          41.000  
G29  22302919.637      345254.141        -976.000          34.000  
G31  20113448.382     -327751.125         793.000          40.000  
G32  20151420.385      543017.248       -1461.000          48.000  
> 2024 12 28  3 28 59.9949999  0  8                     
G10  23758085.454      129510.3081      -2771.000          20.000  
G16  19907480.275     -980319.190        2330.000          45.000  
G26  19082854.410      -82972.366         206.000          30.000  
G27  22968965.425    -1691179.435        4216.000          34.000  
G28  20562368.182      -43135.167          85.000          41.000  
G29  22303105.523      346230.892        -976.000          34.000  
G31  20113297.307     -328544.989         793.000          40.000  
G32  20151698.605      544479.307       -1462.000          48.000  
> 2024 12 28  3 29  0.9949999  0  8                     
G10  23758598.420      132278.9221      -2768.000          20.000  
G16  19907036.980     -982648.656        2329.000          44.000  
G26  19082815.282      -83177.871         205.000          30.000  
G27  22968163.041    -1695395.577        4216.000          34.000  
G28  20562352.116      -43219.508          84.000          41.000  
G29  22303291.619      347208.945        -978.000          34.000  
G31  20113146.392     -329338.005         793.000          41.000  
G32  20151977.061      545942.602       -1463.000          48.000  
> 2024 12 28  3 29  1.9949999  0  8                     
G10  23759154.768      135047.3251      -2768.000          22.000  
G16  19906593.649     -984978.308        2329.000          44.000  
G26  19082775.981      -83383.722         205.000          30.000  
G27  22967360.458    -1699612.467        4216.000          33.000  
G28  20562335.924      -43304.438          84.000          41.000  
G29  22303477.613      348186.860        -977.000          33.000  
G31  20112995.348     -330131.664         793.000          41.000  
G32  20152255.480      547405.736       -1463.000          48.000  
> 2024 12 28  3 29  2.9949999  0  8                     
G10  23759684.522      137816.5541      -2769.000          23.000  
G16  19906150.585     -987306.557        2328.000          44.000  
G26  19082737.037      -83588.105         204.000          31.000  
G27  22966558.118    -1703828.449        4215.000          34.000  
G28  20562319.921      -43388.309          83.000          41.000  
G29  22303663.946      349166.300        -979.000          33.000  
G31  20112844.511     -330924.280         792.000          41.000  
G32  20152534.167      548870.290       -1464.000          48.000  
> 2024 12 28  3 29  3.9949999  0  8                     
G10  23760205.795      140586.7951      -2770.000          24.000  
G16  19905707.790     -989633.403        2326.000          45.000  
G26  19082698.291      -83791.223         203.000          30.000  
G27  22965755.890    -1708043.649        4215.000          35.000  
G28  20562304.077      -43471.264          82.000          41.000  
G29  22303850.546      350147.083        -980.000          31.000  
G31  20112693.866     -331715.953         791.000          41.000  
G32  20152813.114      550336.223       -1465.000          48.000  
> 2024 12 28  3 29  4.9949999  0  8                     
G10  23760734.083      143355.9871      -2769.000          24.000  
G16  19905265.004     -991960.212        2326.000          45.000  
G26  19082659.512      -83994.398         203.000          30.000  
G27  22964953.622    -1712259.331        4215.000          35.000  
G28  20562288.166      -43554.593          83.000          42.000  
G29  22304037.120      351128.013        -980.000          32.000  
G31  20112543.153     -332507.991         792.000          41.000  
G32  20153092.075      551802.219       -1465.000          48.000  
> 2024 12 28  3 29  5.9949999  0  8                     
G10  23761286.277      146125.0941      -2769.000          23.000  
G16  19904822.326     -994286.501        2326.000          45.000  
G26  19082620.809      -84197.048         202.000          30.000  
G27  22964151.363    -1716475.042        4215.000          35.000  
G28  20562272.285      -43637.814          83.000          42.000  
G29  22304223.836      352109.447        -981.000          32.000  
G31  20112392.467     -333299.920         791.000          41.000  
G32  20153371.142      553268.765       -1466.000          48.000  
> 2024 12 28  3 29  6.9949999  0  8                     
G10  23761798.965      148893.0041      -2768.000          24.000  
G16  19904379.644     -996612.833        2326.000          45.000  
G26  19082582.120      -84399.846         202.000          30.000  
G27  22963348.940    -1720691.387        4216.000          33.000  
G28  20562256.328      -43721.500          83.000          42.000  
G29  22304410.523      353090.828        -981.000          31.000  
G31  20112241.694     -334092.316         792.000          41.000  
G32  20153650.194      554735.218       -1466.000          48.000  
> 2024 12 28  3 29  7.9949999  0  8                     
G10  23762317.097      151661.3261      -2768.000          24.000  
G16  19903937.031     -998938.826        2325.000          44.000  
G26  19082543.545      -84602.335         202.000          30.000  
G27  22962546.492    -1724907.914        4216.000          34.000  
G28  20562240.357      -43805.280          83.000          42.000  
G29  22304597.268      354072.666        -981.000          31.000  
G31  20112090.915     -334884.764         792.000          41.000  
G32  20153929.316      556202.061       -1466.000          48.000  
> 2024 12 28  3 29  8.9949999  0  8                     
G10  23762861.299      154430.1581      -2768.000          25.000  
G16  19903494.616    -1001263.784        2324.000          45.000  
G26  19082505.237      -84803.860         201.000          31.000  
G27  22961744.160    -1729123.920        4216.000          34.000  
G28  20562224.520      -43888.396          83.000          42.000  
G29  22304784.277      355055.667        -982.000          31.000  
G31  20111940.250     -335676.602         791.000          41.000  
G32  20154208.635      557669.957       -1467.000          48.000  
> 2024 12 28  3 29  9.9949999  0  8                     
G10  23763392.170      157198.4551      -2768.000          25.000  
G16  19903052.236    -1003588.537        2324.000          45.000  
G26  19082467.025      -85005.237         201.000          32.000  
G27  22960941.793    -1733340.326        4216.000          35.000  
G28  20562208.643      -43971.741          83.000          42.000  
G29  22304971.301      356038.901        -983.000          30.000  
G31  20111789.540     -336468.645         792.000          41.000  
G32  20154487.994      559138.063       -1468.000          48.000  
> 2024 12 28  3 29 10.9949999  0  8                     
G10  23763920.458      159963.7611      -2765.000          26.000  
G16  19902609.824    -1005913.465        2324.000          45.000  
G26  19082428.780      -85206.802         201.000          31.000  
G27  22960139.311    -1737557.447        4217.000          35.000  
G28  20562192.666      -44055.677          83.000          42.000  
G29  22305158.324      357021.864        -982.000          31.000  
G31  20111638.704     -337261.283         792.000          42.000  
G32  20154767.323      560605.993       -1467.000          48.000  
> 2024 12 28  3 29 11.9949999  0  8                     
G10  23764453.701      162730.2871      -2766.000          26.000  
G16  19902167.474    -1008238.073        2324.000          45.000  
G26  19082390.547      -85408.161         201.000          31.000  
G27  22959336.798    -1741774.813        4217.000          34.000  
G28  20562176.669      -44139.728          84.000          42.000  
G29  22305345.337      358005.313        -983.000          31.000  
G31  20111487.842     -338054.036         792.000          41.000  
G32  20155046.717      562074.255       -1468.000          48.000  
> 2024 12 28  3 29 12.9949999  0  8                     
G10  23764979.197      165496.728       -2766.000          27.000  
G16  19901725.237    -1010562.079        2324.000          45.000  
G26  19082352.396      -85608.932         200.000          30.000  
G27  22958534.316    -1745992.088        4217.000          35.000  
G28  20562160.719      -44223.556          83.000          42.000  
G29  22305532.484      358989.332        -984.000          32.000  
G31  20111337.014     -338846.564         792.000          42.000  
G32  20155326.229      563543.110       -1468.000          48.000  
> 2024 12 28  3 29 13.9949999  0  8                     
G10  23765511.150      168262.433       -2765.000          26.000  
G16  19901283.013    -1012886.023        2323.000          45.000  
G26  19082314.197      -85809.741         200.000          30.000  
G27  22957731.674    -1750209.888        4217.000          34.000  
G28  20562144.697      -44307.768          84.000          42.000  
G29  22305719.557      359973.482        -984.000          30.000  
G31  20111186.117     -339639.458         792.000          41.000  
G32  20155605.764      565012.052       -1468.000          49.000  
> 2024 12 28  3 29 14.9949999  0  8                     
G10  23766046.069      171028.980       -2766.000          26.000  
G16  19900841.059    -1015208.533        2322.000          44.000  
G26  19082276.257      -86009.175         199.000          30.000  
G27  22956929.186    -1754426.815        4216.000          33.000  
G28  20562128.868      -44390.952          83.000          42.000  
G29  22305906.934      360959.169        -985.000          32.000  
G31  20111035.411     -340431.351         791.000          41.000  
G32  20155885.576      566482.438       -1470.000          49.000  
> 2024 12 28  3 29 15.9949999  0  8                     
G10  23766578.545      173795.616       -2766.000          25.000  
G16  19900399.263    -1017530.183        2321.000          44.000  
G26  19082232.008      -86207.7541        198.000          29.000  
G27  22956126.709    -1758643.375        4216.000          33.000  
G28  20562113.127      -44473.663          82.000          42.000  
G29  22306094.488      361945.698        -986.000          32.000  
G31  20110884.794     -341222.760         791.000          41.000  
G32  20156165.555      567953.695       -1471.000          49.000  
> 2024 12 28  3 29 16.9949999  0  8                     
G10  23767116.709      176561.617       -2765.000          28.000  
G16  19899957.479    -1019851.738        2321.000          45.000  
G26  19082197.876      -86406.3621        198.000          30.000  
G27  22955324.111    -1762860.428        4217.000          33.000  
G28  20562097.320      -44556.748          83.000          42.000  
G29  22306282.096      362932.311        -986.000          32.000  
G31  20110734.101     -342014.566         791.000          42.000  
G32  20156445.542      569425.012       -1471.000          49.000  
> 2024 12 28  3 29 17.9949999  0  8                     
G10  23767651.349      179327.849       -2766.000          27.000  
G16  19899515.864    -1022172.420        2320.000          45.000  
G26  19082168.106      -86604.1131        197.000          31.000  
G27  22954521.536    -1767077.029        4216.000          34.000  
G28  20562081.615      -44639.313          82.000          42.000  
G29  22306469.964      363919.882        -987.000          33.000  
G31  20110583.510     -342805.848         791.000          42.000  
G32  20156725.699      570897.249       -1472.000          49.000  
> 2024 12 28  3 29 18.9949999  0  8                     
G10  23768181.522      182094.361       -2766.000          26.000  
G16  19899074.435    -1024492.112        2319.000          45.000  
G26  19082121.897      -86801.019         196.000          30.000  
G27  22953719.045    -1771293.403        4216.000          32.000  
G28  20562066.014      -44721.368          82.000          42.000  
G29  22306658.034      364908.560        -988.000          32.000  
G31  20110433.014     -343596.594         790.000          42.000  
G32  20157006.050      572370.502       -1473.000          49.000  
> 2024 12 28  3 29 19.9949999  0  8                     
G10  23768702.864      184860.937       -2766.000          25.000  
G16  19898633.169    -1026810.961        2318.000          45.000  
G26  19082084.833      -86997.091         196.000          30.000  
G27  22952916.576    -1775509.414        4216.000          32.000  
G28  20562050.497      -44802.987          81.000          43.000  
G29  22306846.297      365898.078        -989.000          33.000  
G31  20110282.597     -344386.904         790.000          42.000  
G32  20157286.559      573844.555       -1474.000          49.000  
> 2024 12 28  3 29 20.9949999  0  8                     
G10  23769239.912      187627.6271      -2766.000          24.000  
G16  19898192.018    -1029129.208        2318.000          44.000  
G26  19082035.624      -87192.518         195.000          29.000  
G27  22952082.128    -1779725.256        4215.000          31.000  
G28  20562035.020      -44884.386          81.000          42.000  
G29  22307034.654      366888.204        -990.000          33.000  
G31  20110132.212     -345177.006         790.000          42.000  
G32  20157567.199      575319.253       -1474.000          49.000  
> 2024 12 28  3 29 21.9949999  0  8                     
G10  23769760.243      190392.8511      -2765.000          23.000  
G16  19897750.790    -1031447.883        2318.000          45.000  
G26  19082003.061      -87388.531         196.000          29.000  
G27  22951274.671    -1783942.198        4216.000          32.000  
G28  20562019.378      -44966.638          82.000          42.000  
G29  22307222.979      367878.001        -989.000          34.000  
G31  20109981.666     -345967.956         790.000          42.000  
G32  20157847.763      576793.534       -1474.000          49.000  
> 2024 12 28  3 29 22.9949999  0  8                     
G10  23770286.821      193158.4591      -2765.000          24.000  
G16  19897309.722    -1033765.683        2317.000          44.000  
G26  19081974.513      -87583.674         195.000          29.000  
G27  22950474.439    -1788158.817        4216.000          31.000  
G28  20562003.814      -45048.437          81.000          42.000  
G29  22307411.462      368868.703        -990.000          34.000  
G31  20109831.211     -346758.439         790.000          42.000  
G32  20158128.494      578268.681       -1475.000          48.000  
> 2024 12 28  3 29 23.9949999  0  8                     
G10  23770814.131      195923.6611      -2765.000          22.000  
G16  19896868.741    -1036083.033        2317.000          45.000  
G26  19081933.016      -87778.5531        194.000          30.000  
G27  22949680.629    -1792375.480        4216.000          33.000  
G28  20561988.235      -45130.227          81.000          42.000  
G29  22307600.057      369859.839        -991.000          35.000  
G31  20109680.757     -347548.951         790.000          43.000  
G32  20158409.308      579744.253       -1475.000          49.000  
> 2024 12 28  3 29 24.9949999  0  8                     
G10  23771344.792      198689.3961      -2765.000          21.000  
G16  19896427.958    -1038399.377        2316.000          44.000  
G26  19081886.529      -87972.409         193.000          28.000  
G27  22948872.858    -1796591.784        4216.000          33.000  
G28  20561972.757      -45211.402          81.000          42.000  
G29  22307788.836      370852.053        -992.000          33.000  
G31  20109530.430     -348338.819         789.000          42.000  
G32  20158690.324      581220.893       -1476.000          49.000  
> 2024 12 28  3 29 25.9949999  0  7                     
G16  19895987.281    -1040715.221        2315.000          44.000  
G26  19081837.773      -88165.833         193.000          28.000  
G27  22948066.205    -1800808.104        4216.000          30.000  
G28  20561957.287      -45292.496          81.000          42.000  
G29  22307977.696      371844.838        -992.000          34.000  
G31  20109380.133     -349128.608         789.000          43.000  
G32  20158971.435      582698.021       -1477.000          49.000  
> 2024 12 28  3 29 26.9949999  0  7                     
G16  19895546.666    -1043030.735        2315.000          44.000  
G26  19081785.213      -88358.8931        193.000          27.000  
G27  22947262.587    -1805024.597        4216.000          30.000  
G28  20561941.796      -45373.683          81.000          42.000  
G29  22308166.612      372838.008        -993.000          34.000  
G31  20109229.824     -349918.504         789.000          43.000  
G32  20159252.606      584175.470       -1477.000          49.000  
> 2024 12 28  3 29 27.9949999  0  7                     
G16  19895106.242    -1045345.247        2314.000          45.000  
G26  19081751.848      -88551.1191        192.000          27.000  
G27  22946459.423    -1809240.590        4215.000          31.000  
G28  20561926.430      -45454.239          80.000          42.000  
G29  22308355.774      373832.226        -994.000          34.000  
G31  20109079.635     -350707.789         789.000          43.000  
G32  20159533.977      585653.944       -1478.000          49.000  
> 2024 12 28  3 29 28.9949999  0  7                     
G16  19894665.871    -1047659.451        2314.000          44.000  
G26  19081735.759      -88743.1391        192.000          27.000  
G27  22945661.600    -1813456.825        4216.000          31.000  
G28  20561911.045      -45534.949          80.000          42.000  
G29  22308545.076      374826.764        -994.000          35.000  
G31  20108929.432     -351497.165         789.000          43.000  
G32  20159815.412      587132.751       -1478.000          49.000  
> 2024 12 28  3 29 29.9949999  0  7                     
G16  19894225.628    -1049972.961        2313.000          44.000  
G26  19081713.004      -88934.4451        191.000          28.000  
G27  22944858.157    -1817673.023        4216.000          31.000  
G28  20561895.718      -45615.384          80.000          42.000  
G29  22308734.536      375822.047        -995.000          35.000  
G31  20108779.290     -352286.251         789.000          43.000  
G32  20160096.979      588612.249       -1479.000          49.000  
> 2024 12 28  3 29 30.9949999  0  7                     
G16  19893785.348    -1052286.656        2313.000          44.000  
G26  19081681.803      -89125.989         191.000          29.000  
G27  22944056.179    -1821889.910        4216.000          31.000  
G28  20561880.291      -45696.380          81.000          42.000  
G29  22308923.961      376817.215        -995.000          35.000  
G31  20108629.019     -353075.984         789.000          43.000  
G32  20160378.514      590091.584       -1479.000          49.000  
> 2024 12 28  3 29 31.9949999  0  8                     
G10  23775008.221      218074.7491      -2774.000          13.000  
G16  19893345.291    -1054599.153        2312.000          44.000  
G26  19081649.694      -89316.420         190.000          29.000  
G27  22943257.937    -1826106.120        4216.000          31.000  
G28  20561865.020      -45776.604          80.000          42.000  
G29  22309113.597      377813.562        -996.000          36.000  
G31  20108478.896     -353864.927         788.000          43.000  
G32  20160660.270      591572.097       -1480.000          49.000  
> 2024 12 28  3 29 32.9949999  0  8                     
G10  23775543.524      220847.9791      -2773.000          15.000  
G16  19892905.203    -1056911.807        2312.000          44.000  
G26  19081604.987      -89507.0741        190.000          28.000  
G27  22942464.720    -1830323.091        4216.000          32.000  
G28  20561849.633      -45857.438          80.000          42.000  
G29  22309303.218      378809.830        -996.000          34.000  
G31  20108328.663     -354654.456         789.000          43.000  
G32  20160941.991      593052.446       -1480.000          49.000  
> 2024 12 28  3 29 33.9949999  0  8                     
G10  23776074.255      223618.3821      -2770.000          19.000  
G16  19892465.109    -1059224.523        2312.000          44.000  
G26  19081559.547      -89697.8841        190.000          28.000  
G27  22941660.893    -1834540.697        4217.000          32.000  
G28  20561834.165      -45938.723          81.000          42.000  
G29  22309492.842      379806.087        -996.000          34.000  
G31  20108178.342     -355444.429         789.000          43.000  
G32  20161223.702      594532.763       -1480.000          49.000  
> 2024 12 28  3 29 34.9949999  0  8                     
G10  23776601.705      226384.8571      -2766.000          21.000  
G16  19892025.023    -1061537.186        2312.000          44.000  
G26  19081530.370      -89888.6171        190.000          28.000  
G27  22940861.219    -1838758.729        4218.000          33.000  
G28  20561818.640      -46020.333          81.000          41.000  
G29  22309682.422      380802.408        -996.000          34.000  
G31  20108027.947     -356234.764         790.000          43.000  
G32  20161505.425      596013.151       -1480.000          49.000  
> 2024 12 28  3 29 35.9949999  0  8                     
G10  23777142.418      229146.7181      -2761.000          21.000  
G16  19891584.901    -1063850.014        2312.000          44.000  
G26  19081494.946      -90079.6231        191.000          29.000  
G27  22940059.626    -1842977.469        4218.000          33.000  
G28  20561802.989      -46102.590          82.000          41.000  
G29  22309872.009      381798.629        -996.000          34.000  
G31  20107877.427     -357025.717         790.000          44.000  
G32  20161787.111      597493.345       -1480.000          49.000  
> 2024 12 28  3 29 36.9949999  0  9                     
G10  23777650.394      231907.6791      -2760.000          24.000  
G16  19891144.799    -1066162.709        2312.000          44.000  
G25  24105350.790       16839.6131      -2904.000          18.000  
G26  19081459.313      -90270.616         190.000          30.000  
G27  22939258.870    -1847196.644        4219.000          33.000  
G28  20561787.288      -46185.101          82.000          42.000  
G29  22310061.590      382795.035        -996.000          33.000  
G31  20107726.848     -357816.935         791.000          44.000  
G32  20162068.830      598973.706       -1480.000          49.000  
> 2024 12 28  3 29 37.9949999  0  9                     
G10  23778216.060      234666.9571      -2759.000          21.000  
G16  19890704.654    -1068475.572        2312.000          44.000  
G25  24105899.564       19747.6241      -2908.000          19.000  
G26  19081422.179      -90461.727         191.000          29.000  
G27  22938457.556    -1851416.553        4219.000          33.000  
G28  20561771.480      -46268.206          83.000          42.000  
G29  22310251.095      383791.324        -996.000          34.000  
G31  20107576.163     -358608.722         791.000          44.000  
G32  20162350.515      600453.892       -1480.000          49.000  
> 2024 12 28  3 29 38.9949999  0  9                     
G10  23778713.007      237425.8971      -2758.000          23.000  
G16  19890264.546    -1070788.227        2312.000          43.000  
G25  24106438.601       22653.6921      -2906.000          19.000  
G26  19081387.976      -90652.761         191.000          30.000  
G27  22937659.767    -1855636.811        4220.000          34.000  
G28  20561755.639      -46351.499          83.000          42.000  
G29  22310440.629      384787.815        -996.000          33.000  
G31  20107425.444     -359400.709         791.000          44.000  
G32  20162632.242      601934.302       -1480.000          49.000  
> 2024 12 28  3 29 39.9949999  0  9                     
G10  23779244.750      240184.9191      -2759.000          24.000  
G16  19889824.492    -1073100.613        2312.000          44.000  
G25  24107004.093       25558.5731      -2904.000          20.000  
G26  19081361.452      -90843.553         190.000          30.000  
G27  22936860.443    -1859857.372        4220.000          34.000  
G28  20561739.772      -46434.956          83.000          42.000  
G29  22310630.270      385784.627        -996.000          32.000  
G31  20107274.695     -360192.878         792.000          44.000  
G32  20162914.016      603414.972       -1480.000          49.000  
> 2024 12 28  3 29 40.9949999  0  9                     
G10  23779782.182      242943.2901      -2758.000          25.000  
G16  19889384.469    -1075412.843        2312.000          44.000  
G25  24107556.288       28469.6881      -2911.000          21.000  
G26  19081331.472      -91034.270         190.000          31.000  
G27  22936063.631    -1864078.227        4220.000          35.000  
G28  20561723.859      -46518.670          83.000          42.000  
G29  22310819.963      386781.669        -997.000          32.000  
G31  20107123.912     -360985.280         792.000          44.000  
G32  20163195.823      604895.838       -1480.000          49.000  
> 2024 12 28  3 29 41.9949999  0  9                     
G10  23780292.880      245699.2121      -2755.000          25.000  
G16  19888944.480    -1077724.907        2312.000          44.000  
G25  24108085.448       31374.6651      -2904.000          17.000  
G26  19081299.992      -91224.892         190.000          31.000  
G27  22935256.907    -1868299.527        4221.000          34.000  
G28  20561707.895      -46602.617          83.000          42.000  
G29  22311009.683      387778.917        -997.000          34.000  
G31  20106973.086     -361777.926         792.000          44.000  
G32  20163477.653      606376.847       -1481.000          49.000  
> 2024 12 28  3 29 42.9949999  0  9                     
G10  23780823.332      248456.9811      -2757.000          22.000  
G16  19888504.609    -1080036.385        2311.000          45.000  
G25  24108634.607       34288.1021      -2913.000          13.000  
G26  19081265.790      -91415.022         190.000          32.000  
G27  22934451.370    -1872520.859        4221.000          35.000  
G28  20561691.947      -46686.421          83.000          42.000  
G29  22311199.514      388776.663        -997.000          33.000  
G31  20106822.285     -362570.439         792.000          44.000  
G32  20163759.594      607858.439       -1481.000          49.000  
> 2024 12 28  3 29 43.9949999  0  9                     
G10  23781357.867      251214.9121      -2757.000          22.000  
G16  19888064.791    -1082347.597        2311.000          45.000  
G25  24109195.108       37204.9001      -2916.000          17.000  
G26  19081229.563      -91604.875         189.000          31.000  
G27  22933649.742    -1876742.324        4221.000          35.000  
G28  20561675.974      -46770.358          83.000          41.000  
G29  22311389.421      389774.812        -998.000          33.000  
G31  20106671.461     -363363.049         792.000          43.000  
G32  20164041.587      609340.326       -1481.000          49.000  
> 2024 12 28  3 29 44.9949999  0  9                     
G10  23781889.715      253971.7691      -2756.000          20.000  
G16  19887625.043    -1084658.411        2310.000          44.000  
G25  24109790.649       40122.5731      -2917.000          13.000  
G26  19081195.535      -91794.402         189.000          31.000  
G27  22932848.289    -1880964.026        4221.000          35.000  
G28  20561659.992      -46854.300          83.000          41.000  
G29  22311579.485      390773.533        -998.000          31.000  
G31  20106520.617     -364155.704         792.000          44.000  
G32  20164323.656      610822.628       -1482.000          49.000  
> 2024 12 28  3 29 45.9949999  0  8                     
G10  23782366.140      256725.8131      -2754.000          15.000  
G16  19887185.345    -1086968.980        2310.000          44.000  
G26  19081163.531      -91983.782         189.000          32.000  
G27  22932052.314    -1885185.994        4221.000          36.000  
G28  20561643.969      -46938.421          84.000          41.000  
G29  22311769.524      391772.369        -998.000          31.000  
G31  20106369.730     -364948.527         792.000          44.000  
G32  20164605.758      612305.137       -1482.000          49.000  
> 2024 12 28  3 29 46.9949999  0  8                     
G10  23782874.116      259473.8121      -2747.000          13.000  
G16  19886745.776    -1089278.894        2309.000          44.000  
G26  19081125.630      -92172.504         188.000          32.000  
G27  22931248.453    -1889407.893        4221.000          36.000  
G28  20561627.985      -47022.331          83.000          41.000  
G29  22311959.733      392772.023        -999.000          32.000  
G31  20106218.884     -365741.087         792.000          44.000  
G32  20164888.002      613788.371       -1483.000          49.000  
> 2024 12 28  3 29 47.9949999  0  7                     
G16  19886306.338    -1091588.146        2309.000          44.000  
G26  19081087.274      -92360.703         188.000          32.000  
G27  22930430.631    -1893629.676        4221.000          35.000  
G28  20561612.047      -47105.967          83.000          41.000  
G29  22312150.101      393772.325       -1000.000          30.000  
G31  20106068.076     -366533.417         792.000          43.000  
G32  20165170.366      615272.215       -1483.000          49.000  
> 2024 12 28  3 29 48.9949999  0  8                     
G10  23783969.501      264992.5601      -2757.000          16.000  
G16  19885867.064    -1093896.526        2308.000          44.000  
G26  19081045.568      -92548.042         187.000          31.000  
G27  22929633.505    -1897851.180        4221.000          35.000  
G28  20561596.195      -47189.161          83.000          41.000  
G29  22312340.626      394773.414       -1001.000          32.000  
G31  20105917.339     -367325.360         791.000          44.000  
G32  20165452.904      616756.947       -1484.000          49.000  
> 2024 12 28  3 29 49.9949999  0  8                     
G10  23784498.487      267747.2571      -2754.000           0.000  
G16  19885427.903    -1096204.285        2307.000          44.000  
G26  19081006.061      -92734.796         186.000          31.000  
G27  22928827.340    -1902072.529        4221.000          34.000  
G28  20561580.386      -47272.133          82.000          41.000  
G29  22312531.289      395775.234       -1001.000          35.000  
G31  20105766.647     -368117.027         791.000          44.000  
G32  20165735.567      618242.314       -1485.000          49.000  
> 2024 12 28  3 29 50.9949999  0  8                     
G10  23785011.070      270489.0631      -2741.000          14.000  
G16  19884988.953    -1098510.953        2306.000          44.000  
G26  19080974.231      -92920.604         185.000          30.000  
G27  22928022.361    -1906293.331        4220.000          34.000  
G28  20561564.703      -47354.430          82.000          40.000  
G29  22312722.194      396778.356       -1003.000          35.000  
G31  20105616.079     -368908.045         791.000          44.000  
G32  20166018.445      619728.785       -1486.000          49.000  
> 2024 12 28  3 29 51.9949999  0  8                     
G10  23785535.623      273237.7771      -2748.000          19.000  
G16  19884550.127    -1100817.009        2306.000          44.000  
G26  19080937.237      -93105.805         185.000          30.000  
G27  22927229.667    -1910514.125        4220.000          36.000  
G28  20561549.065      -47436.523          82.000          41.000  
G29  22312913.193      397782.011       -1003.000          32.000  
G31  20105465.549     -369698.851         790.000          44.000  
G32  20166301.441      621215.873       -1487.000          50.000  
> 2024 12 28  3 29 52.9949999  0  8                     
G10  23786056.198      275990.7741      -2752.000          19.000  
G16  19884111.361    -1103122.743        2305.000          44.000  
G26  19080903.558      -93290.791         184.000          30.000  
G27  22926413.521    -1914735.176        4221.000          34.000  
G28  20561533.392      -47518.789          82.000          41.000  
G29  22313104.229      398786.003       -1003.000          35.000  
G31  20105314.996     -370489.784         790.000          44.000  
G32  20166584.490      622703.245       -1487.000          49.000  
> 2024 12 28  3 29 53.9949999  0  8                     
G10  23786539.290      278748.4031      -2757.000          20.000  
G16  19883672.720    -1105427.806        2305.000          44.000  
G26  19080860.526      -93475.161         184.000          30.000  
G27  22925608.926    -1918956.009        4220.000          33.000  
G28  20561517.782      -47600.721          81.000          41.000  
G29  22313295.421      399790.753       -1004.000          35.000  
G31  20105164.504     -371280.420         790.000          44.000  
G32  20166867.681      624191.360       -1488.000          49.000  
> 2024 12 28  3 29 54.9949999  0  8                     
G10  23787070.998      281506.2451      -2757.000          21.000  
G16  19883234.184    -1107732.309        2304.000          44.000  
G26  19080823.322      -93658.994         183.000          30.000  
G27  22924805.588    -1923176.907        4220.000          33.000  
G28  20561502.199      -47682.530          81.000          41.000  
G29  22313486.772      400796.021       -1005.000          34.000  
G31  20105014.040     -372070.911         790.000          44.000  
G32  20167150.962      625679.977       -1488.000          49.000  
> 2024 12 28  3 29 55.9949999  0  8                     
G10  23787596.285      284260.6701      -2754.000          20.000  
G16  19882795.758    -1110036.255        2303.000          43.000  
G26  19080784.478      -93842.360         183.000          30.000  
G27  22923996.980    -1927397.756        4220.000          32.000  
G28  20561486.649      -47764.206          81.000          41.000  
G29  22313678.270      401801.968       -1005.000          35.000  
G31  20104863.605     -372861.287         790.000          44.000  
G32  20167434.357      627169.190       -1489.000          49.000  
> 2024 12 28  3 29 56.9949999  0  8                     
G10  23788129.598      287018.1941      -2757.000          20.000  
G16  19882357.255    -1112340.631        2304.000          44.000  
G26  19080763.223      -94026.237         183.000          30.000  
G27  22923200.098    -1931619.538        4221.000          33.000  
G28  20561470.952      -47846.702          82.000          41.000  
G29  22313869.660      402807.538       -1005.000          35.000  
G31  20104713.015     -373652.516         791.000          44.000  
G32  20167717.677      628657.990       -1488.000          49.000  
> 2024 12 28  3 29 57.9949999  0  8                     
G10  23788683.364      289771.6011      -2753.000          23.000  
G16  19881918.738    -1114645.062        2304.000          44.000  
G26  19080725.461      -94210.1711        183.000          28.000  
G27  22922394.875    -1935841.990        4222.000          32.000  
G28  20561455.172      -47929.666          82.000          41.000  
G29  22314061.075      403813.104       -1005.000          36.000  
G31  20104562.349     -374444.195         791.000          44.000  
G32  20168000.989      630146.729       -1488.000          49.000  
> 2024 12 28  3 29 58.9949999  0  8                     
G10  23789178.740      292526.5811      -2754.000          21.000  
G16  19881480.475    -1116948.168        2303.000          44.000  
G26  19080695.482      -94392.8961        182.000          29.000  
G27  22921589.268    -1940063.673        4221.000          33.000  
G28  20561439.560      -48011.743          82.000          41.000  
G29  22314252.728      404819.994       -1006.000          36.000  
G31  20104411.861     -375234.974         790.000          44.000  
G32  20168284.549      631636.783       -1490.000          49.000  
> 2024 12 28  3 29 59.9949999  0  9                     
G10  23789690.590      295280.8511      -2754.000          22.000  
G16  19881042.298    -1119250.840        2302.000          44.000  
G25  24118055.211        8106.1701      -2902.000          17.000  
G26  19080661.000      -94575.2881        182.000          29.000  
G27  22920784.848    -1944285.400        4221.000          33.000  
G28  20561423.954      -48093.787          82.000          40.000  
G29  22314444.463      405827.339       -1007.000          36.000  
G31  20104261.383     -376025.723         790.000          45.000  
G32  20168568.198      633127.313       -1490.000          49.000  
> 2024 12 28  3 30  0.9949999  0  9                     
G10  23790200.730      298040.0401      -2759.000          20.000  
G16  19880604.234    -1121552.935        2302.000          44.000  
G25  24118607.685       11018.5371      -2912.000          18.000  
G26  19080614.199      -94757.040         181.000          29.000  
G27  22919979.765    -1948507.132        4221.000          32.000  
G28  20561408.366      -48175.670          81.000          40.000  
G29  22314636.267      406835.318       -1007.000          35.000  
G31  20104110.927     -376816.336         790.000          44.000  
G32  20168851.957      634618.400       -1491.000          49.000  
> 2024 12 28  3 30  1.9949999  0  9                     
G10  23790741.477      300794.6041      -2754.000          19.000  
G16  19880166.318    -1123854.270        2301.000          44.000  
G25  24119134.996       13923.4901      -2904.000          19.000  
G26  19080576.087      -94938.223         181.000          28.000  
G27  22919175.519    -1952728.601        4221.000          32.000  
G28  20561392.838      -48257.190          81.000          41.000  
G29  22314828.184      407844.063       -1008.000          35.000  
G31  20103960.540     -377606.582         790.000          44.000  
G32  20169135.863      636110.271       -1491.000          49.000  
> 2024 12 28  3 30  2.9949999  0  9                     
G10  23791272.906      303552.4381      -2757.000          15.000  
G16  19879728.417    -1126155.504        2301.000          44.000  
G25  24119713.505       16828.5691      -2905.000          20.000  
G26  19080524.051      -95119.2511        181.000          27.000  
G27  22918370.192    -1956950.589        4221.000          32.000  
G28  20561377.251      -48339.023          81.000          41.000  
G29  22315020.164      408853.018       -1008.000          36.000  
G31  20103810.089     -378397.137         790.000          44.000  
G32  20169419.781      637602.241       -1491.000          49.000  
> 2024 12 28  3 30  3.9949999  0  9                     
G10  23791805.068      306298.7061      -2746.000          13.000  
G16  19879290.453    -1128457.065        2301.000          44.000  
G25  24120265.002       19728.6931      -2900.000          16.000  
G26  19080508.101      -95300.7441        181.000          26.000  
G27  22917565.946    -1961173.467        4222.000          31.000  
G28  20561361.517      -48421.618          82.000          41.000  
G29  22315212.065      409861.622       -1008.000          34.000  
G31  20103659.497     -379188.432         791.000          44.000  
G32  20169703.640      639093.885       -1491.000          49.000  
> 2024 12 28  3 30  4.9949999  0  9                     
G10  23792326.062      309039.0441      -2740.000          16.000  
G16  19878852.486    -1130758.665        2301.000          44.000  
G25  24120819.884       22622.9721      -2894.000          16.000  
G26  19080481.507      -95482.2141        181.000          26.000  
G27  22916770.845    -1965396.908        4223.000          32.000  
G28  20561345.693      -48504.670          83.000          41.000  
G29  22315404.005      410870.343       -1008.000          34.000  
G31  20103508.817     -379980.213         791.000          45.000  
G32  20169987.493      640585.492       -1491.000          49.000  
> 2024 12 28  3 30  5.9949999  0  9                     
G10  23792845.904      311781.8831      -2742.000          15.000  
G16  19878414.500    -1133060.329        2301.000          44.000  
G25  24121390.262       25536.8871      -2913.000          14.000  
G26  19080440.848      -95663.9211        181.000          26.000  
G27  22915970.019    -1969620.980        4224.000          33.000  
G28  20561329.771      -48588.190          83.000          41.000  
G29  22315595.842      411878.921       -1008.000          36.000  
G31  20103358.045     -380772.472         792.000          45.000  
G32  20170271.336      642077.054       -1491.000          50.000  
> 2024 12 28  3 30  6.9949999  0  9                     
G10  23793366.060      314522.2771      -2740.000           9.000  
G16  19877976.665    -1135361.171        2300.000          44.000  
G25  24121891.956       28451.1841      -2914.000          17.000  
G26  19080396.908      -95844.9971        181.000          25.000  
G27  22915166.227    -1973844.798        4223.000          32.000  
G28  20561313.909      -48671.371          83.000          41.000  
G29  22315787.887      412888.371       -1009.000          36.000  
G31  20103207.361     -381564.291         791.000          45.000  
G32  20170555.330      643569.415       -1492.000          50.000  
> 2024 12 28  3 30  7.9949999  0  8                     
G16  19877539.119    -1137660.476        2299.000          44.000  
G25  24122479.470       31365.3201      -2914.000          14.000  
G26  19080342.848      -96024.4871        179.000          24.000  
G27  22914366.972    -1978067.535        4222.000          33.000  
G28  20561298.283      -48753.359          81.000          41.000  
G29  22315980.261      413899.438       -1011.000          36.000  
G31  20103056.880     -382355.061         790.000          45.000  
G32  20170839.616      645063.320       -1493.000          50.000  
> 2024 12 28  3 30  8.9949999  0  7                     
G16  19877101.811    -1139958.542        2298.000          44.000  
G26  19080310.495      -96202.7701        178.000          24.000  
G27  22913560.737    -1982289.642        4222.000          33.000  
G28  20561282.803      -48834.562          81.000          41.000  
G29  22316172.890      414911.785       -1012.000          36.000  
G31  20102906.568     -383144.984         789.000          45.000  
G32  20171124.141      646558.476       -1495.000          50.000  
> 2024 12 28  3 30  9.9949999  0  8                     
G10  23794925.621      322743.7501      -2742.000          16.000  
G16  19876664.530    -1142256.477        2297.000          44.000  
G26  19080307.424      -96380.9091        178.000          23.000  
G27  22912765.042    -1986512.066        4222.000          34.000  
G28  20561267.289      -48915.961          81.000          41.000  
G29  22316365.527      415924.360       -1012.000          34.000  
G31  20102756.203     -383935.167         790.000          44.000  
G32  20171408.696      648053.769       -1495.000          49.000  
> 2024 12 28  3 30 10.9949999  0  8                     
G10  23795448.185      325487.0351      -2743.000          15.000  
G16  19876227.605    -1144552.564        2296.000          44.000  
G26  19080262.995      -96557.4521        176.000          21.000  
G27  22911966.834    -1990733.308        4221.000          33.000  
G28  20561252.022      -48996.034          80.000          41.000  
G29  22316558.446      416938.738       -1014.000          34.000  
G31  20102606.113     -384723.897         788.000          44.000  
G32  20171693.607      649550.913       -1497.000          49.000  
> 2024 12 28  3 30 11.9949999  0  7                     
G16  19875790.971    -1146847.126        2294.000          45.000  
G26  19080234.377      -96732.3171        174.000          23.000  
G27  22911162.275    -1994953.542        4220.000          34.000  
G28  20561236.961      -49074.966          78.000          40.000  
G29  22316751.666      417954.619       -1015.000          34.000  
G31  20102456.224     -385511.556         787.000          45.000  
G32  20171978.815      651049.600       -1498.000          50.000  
> 2024 12 28  3 30 12.9949999  0  8                     
G10  23796513.067      330987.5041      -2752.000          17.000  
G16  19875354.436    -1149141.160        2294.000          45.000  
G26  19080199.616      -96906.9071        174.000          25.000  
G27  22910356.668    -1999173.771        4220.000          35.000  
G28  20561221.925      -49153.766          78.000          41.000  
G29  22316944.956      418971.193       -1016.000          34.000  
G31  20102306.355     -386299.101         787.000          45.000  
G32  20172264.124      652548.807       -1499.000          50.000  
> 2024 12 28  3 30 13.9949999  0  8                     
G10  23797049.521      333742.6421      -2755.000          19.000  
G16  19874917.946    -1151434.966        2293.000          45.000  
G26  19080142.589      -97081.2991        174.000          24.000  
G27  22909551.515    -2003394.303        4220.000          34.000  
G28  20561206.848      -49232.774          79.000          41.000  
G29  22317138.386      419988.088       -1016.000          35.000  
G31  20102156.455     -387086.795         787.000          44.000  
G32  20172549.478      654048.262       -1499.000          49.000  
> 2024 12 28  3 30 14.9949999  0  8                     
G10  23797576.518      336497.3051      -2754.000          19.000  
G16  19874481.743    -1153727.259        2292.000          45.000  
G26  19080112.261      -97254.1821        172.000          25.000  
G27  22908753.865    -2007613.919        4219.000          36.000  
G28  20561191.994      -49310.666          77.000          41.000  
G29  22317331.965      421006.398       -1018.000          34.000  
G31  20102006.754     -387873.439         786.000          45.000  
G32  20172835.116      655549.201       -1500.000          50.000  
> 2024 12 28  3 30 15.9949999  0  8                     
G10  23798112.833      339250.8791      -2753.000          20.000  
G16  19874045.513    -1156019.662        2292.000          44.000  
G26  19080093.065      -97427.3251        173.000          26.000  
G27  22907941.348    -2011834.195        4220.000          35.000  
G28  20561177.042      -49389.060          78.000          41.000  
G29  22317525.611      422024.639       -1018.000          35.000  
G31  20101856.957     -388660.605         787.000          45.000  
G32  20173120.739      657050.070       -1500.000          49.000  
> 2024 12 28  3 30 16.9949999  0  8                     
G10  23798634.560      342000.7891      -2749.000          22.000  
G16  19873609.317    -1158311.892        2292.000          44.000  
G26  19080061.725      -97600.3291        173.000          27.000  
G27  22907144.537    -2016054.769        4220.000          34.000  
G28  20561162.044      -49467.722          78.000          42.000  
G29  22317719.379      423043.160       -1018.000          36.000  
G31  20101707.118     -389447.983         787.000          44.000  
G32  20173406.396      658551.099       -1501.000          49.000  
> 2024 12 28  3 30 17.9949999  0  8                     
G10  23799089.731      344752.8921      -2752.000          20.000  
G16  19873172.930    -1160605.132        2293.000          45.000  
G26  19080053.488      -97774.3661        174.000          28.000  
G27  22906337.290    -2020276.932        4222.000          35.000  
G28  20561146.789      -49547.809          80.000          42.000  
G29  22317912.925      424060.627       -1017.000          35.000  
G31  20101557.004     -390236.813         788.000          44.000  
G32  20173691.863      660051.127       -1500.000          49.000  
> 2024 12 28  3 30 18.9949999  0  8                     
G10  23799657.526      347503.5911      -2750.000          19.000  
G16  19872736.477    -1162898.731        2293.000          45.000  
G26  19080020.088      -97948.835         174.000          28.000  
G27  22905539.570    -2024499.991        4223.000          34.000  
G28  20561131.401      -49628.645          80.000          42.000  
G29  22318106.455      425077.909       -1017.000          35.000  
G31  20101406.744     -391026.396         789.000          45.000  
G32  20173977.273      661550.838       -1499.000          50.000  
> 2024 12 28  3 30 19.9949999  0  8                     
G10  23800188.118      350255.1151      -2751.000          21.000  
G16  19872300.311    -1165190.854        2292.000          45.000  
G26  19079984.246      -98121.888         173.000          29.000  
G27  22904731.241    -2028722.154        4222.000          34.000  
G28  20561116.214      -49708.472          79.000          41.000  
G29  22318300.333      426096.589       -1018.000          36.000  
G31  20101256.669     -391814.970         788.000          44.000  
G32  20174262.949      663051.957       -1501.000          49.000  
> 2024 12 28  3 30 20.9949999  0  8                     
G10  23800730.296      353006.5721      -2751.000          21.000  
G16  19871864.408    -1167481.587        2290.000          44.000  
G26  19079946.832      -98293.690         171.000          29.000  
G27  22903936.489    -2032943.440        4221.000          32.000  
G28  20561101.214      -49787.304          78.000          40.000  
G29  22318494.509      427116.707       -1020.000          36.000  
G31  20101106.786     -392602.551         787.000          45.000  
G32  20174548.891      664554.497       -1502.000          49.000  
> 2024 12 28  3 30 21.9949999  0  8                     
G10  23801235.096      355758.8601      -2752.000          19.000  
G16  19871428.497    -1169772.363        2290.000          45.000  
G26  19079909.210      -98465.505         171.000          29.000  
G27  22903132.034    -2037165.335        4221.000          33.000  
G28  20561086.127      -49866.582          79.000          40.000  
G29  22318688.680      428136.874       -1020.000          36.000  
G31  20100956.832     -393390.548         788.000          45.000  
G32  20174834.837      666057.039       -1502.000          50.000  
> 2024 12 28  3 30 22.9949999  0  8                     
G10  23801763.977      358509.6271      -2750.000          19.000  
G16  19870992.543    -1172063.387        2291.000          45.000  
G26  19079865.480      -98637.728         172.000          28.000  
G27  22902330.371    -2041388.029        4222.000          33.000  
G28  20561070.906      -49946.548          79.000          40.000  
G29  22318882.694      429156.845       -1019.000          36.000  
G31  20100806.748     -394179.254         788.000          45.000  
G32  20175120.723      667559.266       -1502.000          50.000  
> 2024 12 28  3 30 23.9949999  0  8                     
G10  23802280.678      361259.8981      -2750.000          18.000  
G16  19870556.678    -1174353.986        2290.000          45.000  
G26  19079833.860      -98809.550         171.000          28.000  
G27  22901528.568    -2045610.827        4222.000          34.000  
G28  20561055.696      -50026.450          79.000          41.000  
G29  22319076.707      430177.251       -1020.000          36.000  
G31  20100656.677     -394967.914         788.000          45.000  
G32  20175406.701      669061.980       -1502.000          50.000  
> 2024 12 28  3 30 24.9949999  0  8                     
G10  23802781.778      364005.3791      -2744.000          14.000  
G16  19870121.036    -1176643.393        2289.000          45.000  
G26  19079802.519      -98980.112         170.000          28.000  
G27  22900722.438    -2049832.988        4222.000          34.000  
G28  20561040.619      -50105.622          79.000          40.000  
G29  22319271.033      431198.864       -1021.000          33.000  
G31  20100506.761     -395755.804         787.000          45.000  
G32  20175692.902      670565.879       -1503.000          50.000  
> 2024 12 28  3 30 25.9949999  0  7                     
G16  19869685.398    -1178932.755        2289.000          44.000  
G26  19079792.084      -99150.831         170.000          29.000  
G27  22899915.121    -2054055.698        4222.000          33.000  
G28  20561025.461      -50185.174          79.000          39.000  
G29  22319465.392      432220.596       -1021.000          34.000  
G31  20100356.765     -396544.114         788.000          45.000  
G32  20175979.108      672069.812       -1503.000          50.000  
> 2024 12 28  3 30 26.9949999  0  7                     
G16  19869249.704    -1181222.393        2289.000          44.000  
G26  19079754.217      -99321.815         170.000          30.000  
G27  22899109.165    -2058279.130        4223.000          33.000  
G28  20561010.176      -50265.358          80.000          40.000  
G29  22319659.761      433242.086       -1021.000          35.000  
G31  20100206.645     -397333.056         788.000          45.000  
G32  20176265.262      673573.494       -1503.000          49.000  
> 2024 12 28  3 30 27.9949999  0  7                     
G16  19868813.969    -1183512.206        2289.000          44.000  
G26  19079728.111      -99493.099         171.000          30.000  
G27  22898307.537    -2062503.307        4224.000          32.000  
G28  20560994.772      -50346.144          80.000          39.000  
G29  22319854.073      434263.452       -1021.000          34.000  
G31  20100056.408     -398122.593         789.000          44.000  
G32  20176551.381      675077.003       -1503.000          49.000  
> 2024 12 28  3 30 28.9949999  0  8                     
G10  23804910.007      375000.6461      -2749.000          17.000  
G16  19868378.276    -1185801.780        2289.000          44.000  
G26  19079683.544      -99664.223         171.000          30.000  
G27  22897504.513    -2066727.854        4224.000          33.000  
G28  20560979.322      -50427.168          81.000          41.000  
G29  22320048.457      435285.049       -1021.000          35.000  
G31  20099906.121     -398912.373         789.000          45.000  
G32  20176837.542      676580.731       -1503.000          49.000  
> 2024 12 28  3 30 29.9949999  0  8                     
G10  23805439.586      377751.2641      -2750.000          15.000  
G16  19867942.635    -1188091.058        2289.000          44.000  
G26  19079651.051      -99835.075         170.000          30.000  
G27  22896700.546    -2070952.574        4224.000          31.000  
G28  20560963.862      -50508.261          81.000          41.000  
G29  22320242.928      436307.022       -1021.000          34.000  
G31  20099755.821     -399702.215         789.000          45.000  
G32  20177123.761      678084.766       -1504.000          49.000  
> 2024 12 28  3 30 30.9949999  0  8                     
G10  23805969.863      380502.6591      -2751.000          19.000  
G16  19867507.061    -1190379.992        2288.000          44.000  
G26  19079610.706     -100005.785         170.000          29.000  
G27  22895894.102    -2075177.557        4224.000          31.000  
G28  20560948.377      -50589.487          81.000          40.000  
G29  22320437.503      437329.354       -1022.000          34.000  
G31  20099605.502     -400492.156         789.000          45.000  
G32  20177410.044      679589.135       -1504.000          49.000  
> 2024 12 28  3 30 31.9949999  0  8                     
G10  23806495.324      383251.5741      -2748.000          21.000  
G16  19867071.481    -1192668.979        2288.000          44.000  
G26  19079582.158     -100176.377         170.000          30.000  
G27  22895091.706    -2079403.080        4225.000          31.000  
G28  20560932.815      -50671.138          81.000          41.000  
G29  22320632.128      438351.718       -1022.000          34.000  
G31  20099455.095     -401282.545         790.000          45.000  
G32  20177696.321      681093.465       -1504.000          50.000  
> 2024 12 28  3 30 32.9949999  0  8                     
G10  23806995.133      385994.6471      -2743.000          21.000  
G16  19866635.894    -1194958.006        2289.000          44.000  
G26  19079550.678     -100347.247         170.000          30.000  
G27  22894273.570    -2083629.176        4226.000          29.000  
G28  20560917.171      -50753.242          82.000          40.000  
G29  22320826.765      439374.048       -1022.000          35.000  
G31  20099304.592     -402073.420         790.000          44.000  
G32  20177982.592      682597.766       -1504.000          50.000  
> 2024 12 28  3 30 33.9949999  0  8                     
G10  23807542.756      388739.4581      -2744.000          22.000  
G16  19866200.361    -1197246.740        2288.000          44.000  
G26  19079523.211     -100517.795         170.000          30.000  
G27  22893466.532    -2087855.601        4226.000          28.000  
G28  20560901.513      -50835.437          82.000          40.000  
G29  22321021.423      440396.708       -1022.000          34.000  
G31  20099154.065     -402864.378         790.000          44.000  
G32  20178268.925      684102.389       -1504.000          49.000  
> 2024 12 28  3 30 34.9949999  0  8                     
G10  23808017.228      391483.6881      -2744.000          23.000  
G16  19865764.916    -1199534.991        2288.000          44.000  
G26  19079493.231     -100687.963         170.000          30.000  
G27  22892651.712    -2092082.145        4226.000          28.000  
G28  20560885.858      -50917.606          82.000          40.000  
G29  22321216.160      441419.909       -1023.000          35.000  
G31  20099003.545     -403655.290         790.000          44.000  
G32  20178555.334      685607.420       -1505.000          49.000  
> 2024 12 28  3 30 35.9949999  0  8                     
G10  23808537.663      394226.4891      -2742.000          23.000  
G16  19865329.410    -1201823.563        2288.000          44.000  
G26  19079465.555     -100858.540         170.000          31.000  
G27  22891851.305    -2096309.506        4227.000          28.000  
G28  20560870.059      -51000.521          82.000          40.000  
G29  22321410.868      442442.844       -1022.000          36.000  
G31  20098852.883     -404446.956         791.000          44.000  
G32  20178841.692      687112.188       -1504.000          49.000  
> 2024 12 28  3 30 36.9949999  0  8                     
G10  23809064.520      396968.9391      -2742.000          20.000  
G16  19864893.912    -1204112.076        2288.000          44.000  
G26  19079429.783     -101029.154         170.000          31.000  
G27  22891046.222    -2100537.283        4227.000          29.000  
G28  20560854.200      -51083.762          83.000          41.000  
G29  22321605.546      443465.796       -1022.000          36.000  
G31  20098702.160     -405238.967         792.000          45.000  
G32  20179128.062      688617.008       -1504.000          49.000  
> 2024 12 28  3 30 37.9949999  0  8                     
G10  23809569.913      399709.3691      -2740.000          21.000  
G16  19864458.389    -1206400.750        2288.000          44.000  
G26  19079394.987     -101199.990         170.000          32.000  
G27  22890234.717    -2104765.793        4228.000          29.000  
G28  20560838.235      -51167.611          83.000          41.000  
G29  22321800.182      444488.664       -1022.000          35.000  
G31  20098551.332     -406031.554         792.000          45.000  
G32  20179414.399      690121.659       -1504.000          49.000  
> 2024 12 28  3 30 38.9949999  0  8                     
G10  23810109.683      402450.1571      -2740.000          20.000  
G16  19864022.902    -1208689.227        2288.000          44.000  
G26  19079359.737     -101370.616         170.000          31.000  
G27  22889432.356    -2108994.591        4228.000          28.000  
G28  20560822.242      -51251.656          84.000          41.000  
G29  22321994.883      445511.813       -1023.000          35.000  
G31  20098400.467     -406824.361         792.000          44.000  
G32  20179700.779      691626.538       -1504.000          49.000  
> 2024 12 28  3 30 39.9949999  0  8                     
G10  23810644.846      405191.5821      -2741.000          22.000  
G16  19863587.519    -1210977.158        2287.000          44.000  
G26  19079327.664     -101540.797         170.000          31.000  
G27  22888622.596    -2113223.535        4228.000          28.000  
G28  20560806.284      -51335.569          83.000          41.000  
G29  22322189.715      446535.545       -1023.000          36.000  
G31  20098249.618     -407617.077         792.000          44.000  
G32  20179987.251      693131.915       -1505.000          49.000  
> 2024 12 28  3 30 40.9949999  0  8                     
G10  23811135.337      407932.9061      -2741.000          20.000  
G16  19863152.227    -1213264.648        2287.000          44.000  
G26  19079294.125     -101710.635         169.000          31.000  
G27  22887819.118    -2117452.502        4228.000          28.000  
G28  20560790.334      -51419.496          83.000          41.000  
G29  22322384.609      447559.714       -1024.000          36.000  
G31  20098098.778     -408409.721         792.000          44.000  
G32  20180273.811      694637.775       -1505.000          49.000  
> 2024 12 28  3 30 41.9949999  0  8                     
G10  23811670.221      410672.9931      -2740.000          20.000  
G16  19862716.963    -1215551.988        2287.000          44.000  
G26  19079259.050     -101880.406         169.000          31.000  
G27  22887002.727    -2121681.804        4229.000          26.000  
G28  20560774.352      -51503.620          84.000          41.000  
G29  22322579.471      448584.089       -1024.000          35.000  
G31  20097947.886     -409202.614         792.000          44.000  
G32  20180560.399      696143.798       -1506.000          49.000  
> 2024 12 28  3 30 42.9949999  0  8                     
G10  23812169.612      413412.2561      -2738.000          20.000  
G16  19862281.780    -1217838.896        2286.000          44.000  
G26  19079234.654     -102049.761         169.000          31.000  
G27  22886196.248    -2125911.290        4229.000          27.000  
G28  20560758.361      -51587.773          84.000          41.000  
G29  22322774.524      449608.917       -1024.000          34.000  
G31  20097796.991     -409995.528         792.000          45.000  
G32  20180847.061      697650.227       -1506.000          49.000  
> 2024 12 28  3 30 43.9949999  0  8                     
G10  23812706.345      416152.6991      -2740.000          21.000  
G16  19861846.704    -1220125.229        2286.000          45.000  
G26  19079192.809     -102218.577         168.000          31.000  
G27  22885392.805    -2130140.670        4229.000          26.000  
G28  20560742.392      -51671.768          83.000          41.000  
G29  22322969.790      450634.373       -1025.000          34.000  
G31  20097646.121     -410788.297         792.000          45.000  
G32  20181133.829      699157.227       -1506.000          48.000  
> 2024 12 28  3 30 44.9949999  0  8                     
G10  23813202.595      418898.9161      -2746.000          19.000  
G16  19861411.737    -1222410.976        2285.000          44.000  
G26  19079159.165     -102386.943         168.000          29.000  
G27  22884599.693    -2134370.050        4229.000          27.000  
G28  20560726.464      -51755.559          83.000          41.000  
G29  22323165.171      451660.443       -1026.000          35.000  
G31  20097495.289     -411580.863         792.000          45.000  
G32  20181420.713      700664.842       -1507.000          48.000  
> 2024 12 28  3 30 45.9949999  0  8                     
G10  23813699.542      421637.9241      -2739.000          20.000  
G16  19860976.843    -1224696.329        2285.000          44.000  
G26  19079117.389     -102554.928         167.000          30.000  
G27  22883782.569    -2138599.6321       4229.000          27.000  
G28  20560710.529      -51839.403          83.000          41.000  
G29  22323360.639      452686.975       -1026.000          35.000  
G31  20097344.452     -412373.466         792.000          44.000  
G32  20181707.664      702172.830       -1507.000          48.000  
> 2024 12 28  3 30 46.9949999  0  8                     
G10  23814200.957      424376.7761      -2738.000          18.000  
G16  19860542.030    -1226981.222        2284.000          45.000  
G26  19079080.115     -102722.545         167.000          29.000  
G27  22882971.029    -2142829.2251       4229.000          25.000  
G28  20560694.608      -51923.204          83.000          41.000  
G29  22323556.184      453714.000       -1027.000          34.000  
G31  20097193.624     -413166.021         792.000          45.000  
G32  20181994.705      703681.300       -1508.000          48.000  
> 2024 12 28  3 30 47.9949999  0  8                     
G10  23814725.824      427115.1491      -2738.000          19.000  
G16  19860107.296    -1229265.703        2284.000          44.000  
G26  19079045.424     -102889.792         167.000          29.000  
G27  22882151.323    -2147058.9931       4229.000          26.000  
G28  20560678.698      -52006.974          83.000          41.000  
G29  22323751.821      454741.464       -1027.000          33.000  
G31  20097042.794     -413958.582         792.000          44.000  
G32  20182281.821      705190.175       -1508.000          48.000  
> 2024 12 28  3 30 48.9949999  0  8                     
G10  23815261.127      429852.9971      -2737.000          18.000  
G16  19859672.627    -1231549.833        2284.000          45.000  
G26  19079015.375     -103056.877         167.000          29.000  
G27  22881367.913    -2151288.815        4229.000          25.000  
G28  20560662.773      -52090.827          83.000          41.000  
G29  22323947.532      455769.287       -1027.000          34.000  
G31  20096891.951     -414751.210         792.000          45.000  
G32  20182569.004      706699.424       -1509.000          48.000  
> 2024 12 28  3 30 49.9949999  0  7                     
G16  19859237.958    -1233833.971        2284.000          45.000  
G26  19078983.476     -103223.846         166.000          29.000  
G27  22880557.490    -2155519.408        4230.000          27.000  
G28  20560646.774      -52175.077          84.000          41.000  
G29  22324143.281      456797.195       -1027.000          33.000  
G31  20096741.032     -415544.253         793.000          45.000  
G32  20182856.186      708208.665       -1509.000          48.000  
> 2024 12 28  3 30 50.9949999  0  7                     
G16  19858803.357    -1236117.744        2283.000          45.000  
G26  19078963.129     -103390.535         166.000          29.000  
G27  22879768.426    -2159750.091        4230.000          28.000  
G28  20560630.747      -52259.465          84.000          41.000  
G29  22324339.075      457825.494       -1028.000          33.000  
G31  20096590.095     -416337.375         793.000          44.000  
G32  20183143.428      709718.231       -1509.000          48.000  
> 2024 12 28  3 30 51.9949999  0  7                     
G16  19858368.773    -1238401.448        2283.000          45.000  
G26  19078940.164     -103557.348         166.000          30.000  
G27  22878965.402    -2163981.319        4231.000          27.000  
G28  20560614.668      -52344.116          84.000          41.000  
G29  22324534.904      458853.854       -1028.000          34.000  
G31  20096439.094     -417130.838         793.000          44.000  
G32  20183430.691      711227.888       -1509.000          48.000  
> 2024 12 28  3 30 52.9949999  0  7                     
G16  19857934.255    -1240684.826        2283.000          45.000  
G26  19078909.208     -103723.869         166.000          30.000  
G27  22878158.643    -2168212.674        4231.000          29.000  
G28  20560598.566      -52428.868          84.000          41.000  
G29  22324730.779      459882.670       -1028.000          35.000  
G31  20096288.074     -417924.384         793.000          43.000  
G32  20183718.026      712737.895       -1510.000          48.000  
> 2024 12 28  3 30 53.9949999  0  7                     
G16  19857499.851    -1242967.627        2282.000          44.000  
G26  19078868.618     -103889.888         166.000          30.000  
G27  22877358.027    -2172444.038        4231.000          29.000  
G28  20560582.485      -52513.479          84.000          41.000  
G29  22324926.749      460912.071       -1029.000          35.000  
G31  20096137.084     -418717.754         793.000          44.000  
G32  20184005.471      714248.479       -1510.000          48.000  
> 2024 12 28  3 30 54.9949999  0  7                     
G16  19857065.484    -1245250.232        2282.000          45.000  
G26  19078832.915     -104055.754         165.000          30.000  
G27  22876561.460    -2176675.654        4231.000          31.000  
G28  20560566.352      -52598.292          84.000          40.000  
G29  22325122.735      461941.672       -1029.000          34.000  
G31  20095986.040     -419511.371         793.000          44.000  
G32  20184292.948      715759.228       -1510.000          48.000  
> 2024 12 28  3 30 55.9949999  0  7                     
G16  19856631.130    -1247532.766        2282.000          44.000  
G26  19078804.297     -104221.628         165.000          30.000  
G27  22875748.698    -2180907.836        4232.000          30.000  
G28  20560550.162      -52683.432          85.000          41.000  
G29  22325318.747      462971.345       -1029.000          33.000  
G31  20095834.923     -420305.322         793.000          43.000  
G32  20184580.450      717270.076       -1510.000          49.000  
> 2024 12 28  3 30 56.9949999  0  8                     
G10  23819454.414      451737.0701      -2736.000          19.000  
G16  19856196.842    -1249814.920        2282.000          44.000  
G26  19078776.481     -104387.172         165.000          31.000  
G27  22874952.933    -2185140.091        4232.000          31.000  
G28  20560533.972      -52768.628          85.000          41.000  
G29  22325514.816      464001.483       -1030.000          33.000  
G31  20095683.802     -421099.288         793.000          44.000  
G32  20184868.031      718781.308       -1511.000          49.000  
> 2024 12 28  3 30 57.9949999  0  8                     
G10  23820026.363      454471.3571      -2734.000          23.000  
G16  19855762.618    -1252096.738        2281.000          44.000  
G26  19078754.948     -104552.425         165.000          32.000  
G27  22874149.490    -2189372.617        4232.000          30.000  
G28  20560517.771      -52853.888          85.000          41.000  
G29  22325710.979      465031.948       -1030.000          32.000  
G31  20095532.660     -421893.358         794.000          44.000  
G32  20185155.684      720292.880       -1511.000          49.000  
> 2024 12 28  3 30 58.9949999  0  8                     
G10  23820527.603      457209.9351      -2738.000          22.000  
G16  19855328.445    -1254378.256        2281.000          44.000  
G26  19078725.666     -104717.523         165.000          32.000  
G27  22873342.174    -2193605.378        4232.000          30.000  
G28  20560501.549      -52939.283          85.000          41.000  
G29  22325907.179      466062.810       -1030.000          32.000  
G31  20095381.493     -422687.559         794.000          44.000  
G32  20185443.403      721804.754       -1511.000          49.000  
> 2024 12 28  3 30 59.9949999  0  8                     
G10  23821073.515      459942.7961      -2732.000          23.000  
G16  19854894.340    -1256659.409        2281.000          44.000  
G26  19078693.139     -104882.236         164.000          32.000  
G27  22872538.975    -2197838.312        4232.000          31.000  
G28  20560485.320      -53024.696          85.000          41.000  
G29  22326103.504      467094.065       -1031.000          33.000  
G31  20095230.330     -423481.755         794.000          43.000  
G32  20185731.200      723317.010       -1512.000          49.000  
> 2024 12 28  3 31  0.9949999  0  8                     
G10  23821604.246      462675.1491      -2732.000          21.000  
G16  19854460.252    -1258940.471        2281.000          44.000  
G26  19078667.103     -105046.938         164.000          33.000  
G27  22871738.743    -2202071.686        4233.000          32.000  
G28  20560469.008      -53110.498          85.000          41.000  
G29  22326299.840      468125.476       -1031.000          33.000  
G31  20095079.100     -424276.343         794.000          43.000  
G32  20186019.001      724829.294       -1512.000          49.000  
> 2024 12 28  3 31  1.9949999  0  8                     
G10  23822096.203      465408.3241      -2733.000          20.000  
G16  19854026.139    -1261221.686        2281.000          44.000  
G26  19078636.251     -105211.917         164.000          33.000  
G27  22870935.719    -2206305.773        4234.000          32.000  
G28  20560452.600      -53196.837          86.000          41.000  
G29  22326496.133      469156.739       -1031.000          32.000  
G31  20094927.768     -425071.486         795.000          43.000  
G32  20186306.779      726341.472       -1512.000          49.000  
> 2024 12 28  3 31  2.9949999  0  8                     
G10  23822644.663      468136.3701      -2728.000          18.000  
G16  19853592.022    -1263502.894        2281.000          44.000  
G26  19078604.771     -105376.895         164.000          33.000  
G27  22870133.253    -2210540.344        4234.000          32.000  
G28  20560436.114      -53283.558          86.000          41.000  
G29  22326692.433      470188.028       -1031.000          32.000  
G31  20094776.372     -425867.014         795.000          44.000  
G32  20186594.559      727853.674       -1512.000          48.000  
> 2024 12 28  3 31  3.9949999  0  7                     
G16  19853157.918    -1265783.993        2281.000          44.000  
G26  19078569.801     -105541.874         164.000          33.000  
G27  22869323.423    -2214775.431        4235.000          32.000  
G28  20560419.562      -53370.610          87.000          41.000  
G29  22326888.783      471219.456       -1031.000          32.000  
G31  20094624.917     -426662.883         795.000          44.000  
G32  20186882.347      729365.956       -1512.000          48.000  
> 2024 12 28  3 31  4.9949999  0  7                     
G16  19852723.910    -1268064.584        2280.000          44.000  
G26  19078530.224     -105706.370         164.000          33.000  
G27  22868518.166    -2219010.534        4235.000          32.000  
G28  20560403.018      -53457.572          86.000          41.000  
G29  22327085.215      472251.458       -1031.000          34.000  
G31  20094473.491     -427458.620         795.000          44.000  
G32  20187170.228      730878.760       -1512.000          48.000  
> 2024 12 28  3 31  5.9949999  0  7                     
G16  19852289.918    -1270345.118        2280.000          44.000  
G26  19078501.954     -105870.901         164.000          33.000  
G27  22867713.571    -2223246.066        4235.000          33.000  
G28  20560386.406      -53544.838          87.000          40.000  
G29  22327281.633      473283.602       -1032.000          34.000  
G31  20094321.995     -428254.729         796.000          44.000  
G32  20187458.126      732391.656       -1512.000          49.000  
> 2024 12 28  3 31  6.9949999  0  7                     
G16  19851855.945    -1272625.541        2280.000          44.000  
G26  19078473.615     -106035.415         164.000          33.000  
G27  22866910.686    -2227482.087        4236.000          33.000  
G28  20560369.728      -53632.474          87.000          41.000  
G29  22327478.055      474315.774       -1032.000          34.000  
G31  20094170.434     -429051.160         796.000          43.000  
G32  20187746.041      733904.628       -1512.000          49.000  
> 2024 12 28  3 31  7.9949999  0  7                     
G16  19851421.985    -1274905.922        2280.000          44.000  
G26  19078441.228     -106199.937         164.000          33.000  
G27  22866106.301    -2231718.626        4236.000          34.000  
G28  20560352.988      -53720.435          87.000          40.000  
G29  22327674.430      475348.098       -1032.000          32.000  
G31  20094018.796     -429847.979         796.000          43.000  
G32  20188033.969      735417.640       -1513.000          49.000  
> 2024 12 28  3 31  8.9949999  0  7                     
G16  19850988.074    -1277186.063        2280.000          44.000  
G26  19078409.015     -106364.277         164.000          32.000  
G27  22865303.486    -2235955.434        4236.000          34.000  
G28  20560336.208      -53808.624          88.000          40.000  
G29  22327870.868      476380.710       -1032.000          32.000  
G31  20093867.140     -430644.913         796.000          43.000  
G32  20188321.955      736930.926       -1513.000          49.000  
> 2024 12 28  3 31  9.9949999  0  9                     
G10  23826256.579        7607.1261      -2727.000          23.000  
G16  19850554.217    -1279465.914        2279.000          44.000  
G25  24182181.655       -1225.3361        462.000          20.000  
G26  19078379.105     -106528.378         164.000          32.000  
G27  22864494.285    -2240192.463        4237.000          34.000  
G28  20560319.416      -53896.876          88.000          40.000  
G29  22328067.355      477413.617       -1032.000          32.000  
G31  20093715.455     -431442.028         797.000          43.000  
G32  20188609.996      738444.484       -1513.000          49.000  
> 2024 12 28  3 31 10.9949999  0  9                     
G10  23826777.887       10334.0751      -2726.000          24.000  
G16  19850120.425    -1281745.444        2279.000          44.000  
G25  24182052.140       -1684.9381        459.000          21.000  
G26  19078338.969     -106692.256         163.000          31.000  
G27  22863678.732    -2244429.757        4237.000          34.000  
G28  20560302.606      -53985.220          88.000          40.000  
G29  22328263.924      478446.845       -1033.000          33.000  
G31  20093563.752     -432239.210         797.000          43.000  
G32  20188898.103      739958.370       -1513.000          49.000  
> 2024 12 28  3 31 11.9949999  0  9                     
G10  23827275.846       13062.0731      -2727.000          25.000  
G16  19849686.699    -1284024.620        2279.000          44.000  
G25  24181966.669       -2143.0591        458.000          21.000  
G26  19078304.558     -106855.838         163.000          30.000  
G27  22862876.720    -2248667.188        4237.000          34.000  
G28  20560285.773      -54073.670          88.000          39.000  
G29  22328450.260      479480.5021      -1033.000          29.000  
G31  20093412.032     -433036.478         797.000          43.000  
G32  20189186.273      741472.604       -1514.000          49.000  
> 2024 12 28  3 31 12.9949999  0  8                     
G16  19849253.036    -1286303.465        2278.000          44.000  
G25  24181932.152       -2594.4971        451.000          21.000  
G26  19078270.739     -107019.132         163.000          30.000  
G27  22862073.451    -2252904.843        4237.000          34.000  
G28  20560268.938      -54162.169          88.000          40.000  
G29  22328650.937      480514.576       -1034.000          32.000  
G31  20093260.305     -433833.794         797.000          43.000  
G32  20189474.506      742987.193       -1514.000          49.000  
> 2024 12 28  3 31 13.9949999  0  8                     
G16  19848819.499    -1288581.637        2278.000          43.000  
G25  24181834.012       -3044.2021        449.000          22.000  
G26  19078230.080     -107181.871         162.000          29.000  
G27  22861270.706    -2257142.323        4237.000          34.000  
G28  20560252.149      -54250.443          88.000          39.000  
G29  22328849.137      481549.342       -1034.000          33.000  
G31  20093108.619     -434630.903         797.000          43.000  
G32  20189762.855      744502.416       -1515.000          48.000  
> 2024 12 28  3 31 14.9949999  0  8                     
G16  19848386.031    -1290859.447        2277.000          43.000  
G25  24181799.251       -3485.2911        441.000          23.000  
G26  19078185.303     -107344.213         162.000          27.000  
G27  22860461.086    -2261380.017        4237.000          35.000  
G28  20560235.363      -54338.707          88.000          40.000  
G29  22329046.953      482584.560       -1035.000          32.000  
G31  20092956.932     -435428.019         797.000          44.000  
G32  20190051.278      746018.036       -1515.000          49.000  
> 2024 12 28  3 31 15.9949999  0  8                     
G16  19847952.673    -1293136.684        2277.000          44.000  
G25  24181745.923       -3926.0621        440.000          21.000  
G26  19078160.698     -107506.193         161.000          28.000  
G27  22859656.840    -2265617.719        4237.000          34.000  
G28  20560218.588      -54426.894          88.000          40.000  
G29  22329247.421      483620.246       -1035.000          32.000  
G31  20092805.276     -436224.989         796.000          44.000  
G32  20190339.807      747534.222       -1516.000          49.000  
> 2024 12 28  3 31 16.9949999  0  7                     
G16  19847519.465    -1295413.116        2276.000          44.000  
G26  19078136.652     -107667.362         161.000          28.000  
G27  22858850.885    -2269855.143        4237.000          35.000  
G28  20560201.892      -54514.639          87.000          40.000  
G29  22329440.525      484656.846       -1036.000          32.000  
G31  20092653.687     -437021.604         796.000          44.000  
G32  20190628.490      749051.212       -1516.000          49.000  
> 2024 12 28  3 31 17.9949999  0  7                     
G16  19847086.404    -1297688.793        2275.000          44.000  
G26  19078118.538     -107827.847         160.000          28.000  
G27  22858046.220    -2274092.357        4237.000          35.000  
G28  20560185.251      -54602.059          87.000          40.000  
G29  22329642.947      485694.248       -1037.000          33.000  
G31  20092502.168     -437817.855         796.000          44.000  
G32  20190917.314      750568.936       -1517.000          49.000  
> 2024 12 28  3 31 18.9949999  0  8                     
G16  19846653.480    -1299963.771        2274.000          44.000  
G25  24181419.325       -5241.9961        442.000          22.000  
G26  19078091.211     -107987.711         159.000          29.000  
G27  22857242.393    -2278329.378        4237.000          35.000  
G28  20560168.650      -54689.181          87.000          40.000  
G29  22329842.473      486732.356       -1038.000          33.000  
G31  20092350.696     -438613.833         795.000          44.000  
G32  20191206.280      752087.406       -1518.000          49.000  
> 2024 12 28  3 31 19.9949999  0  8                     
G16  19846220.777    -1302237.609        2273.000          44.000  
G25  24181314.310       -5682.1911        440.000          20.000  
G26  19078065.106     -108146.468         158.000          29.000  
G27  22856430.260    -2282565.839        4236.000          34.000  
G28  20560152.181      -54775.598          86.000          39.000  
G29  22330041.161      487771.621       -1039.000          33.000  
G31  20092199.366     -439409.091         795.000          44.000  
G32  20191495.450      753606.956       -1519.000          49.000  
> 2024 12 28  3 31 20.9949999  0  8                     
G16  19845788.099    -1304511.305        2273.000          43.000  
G25  24181239.309       -6118.1511        435.000          22.000  
G26  19078036.138     -108305.249         158.000          30.000  
G27  22855624.723    -2286802.643        4236.000          35.000  
G28  20560135.647      -54862.287          86.000          39.000  
G29  22330239.780      488811.152       -1039.000          34.000  
G31  20092047.990     -440204.622         795.000          44.000  
G32  20191784.653      755126.685       -1519.000          49.000  
> 2024 12 28  3 31 21.9949999  0  8                     
G16  19845355.466    -1306784.799        2273.000          44.000  
G25  24181120.263       -6568.7911        450.000          21.000  
G26  19078010.661     -108463.804         158.000          30.000  
G27  22854816.464    -2291039.840        4237.000          35.000  
G28  20560119.056      -54949.188          86.000          38.000  
G29  22330433.023      489850.768       -1039.000          34.000  
G31  20091896.571     -441000.374         795.000          43.000  
G32  20192073.894      756646.614       -1519.000          49.000  
> 2024 12 28  3 31 22.9949999  0  7                     
G16  19844922.843    -1309058.270        2273.000          44.000  
G26  19077970.072     -108622.423         158.000          30.000  
G27  22854014.801    -2295277.509        4237.000          35.000  
G28  20560102.375      -55036.495          87.000          39.000  
G29  22330630.979      490890.565       -1039.000          32.000  
G31  20091745.088     -441796.499         796.000          43.000  
G32  20192363.135      758166.556       -1519.000          49.000  
> 2024 12 28  3 31 23.9949999  0  7                     
G16  19844490.316    -1311331.221        2272.000          44.000  
G26  19077940.895     -108780.621         158.000          30.000  
G27  22853207.065    -2299515.293        4237.000          35.000  
G28  20560085.724      -55123.671          87.000          39.000  
G29  22330830.958      491930.858       -1040.000          32.000  
G31  20091593.615     -442592.545         796.000          43.000  
G32  20192652.477      759687.031       -1520.000          49.000  
> 2024 12 28  3 31 24.9949999  0  7                     
G16  19844057.871    -1313603.777        2272.000          44.000  
G26  19077913.289     -108938.464         157.000          31.000  
G27  22852400.097    -2303753.161        4237.000          35.000  
G28  20560069.087      -55210.872          87.000          40.000  
G29  22331025.284      492971.673       -1040.000          33.000  
G31  20091442.134     -443388.590         796.000          43.000  
G32  20192941.893      761207.891       -1520.000          49.000  
> 2024 12 28  3 31 25.9949999  0  7                     
G16  19843625.415    -1315876.367        2272.000          44.000  
G26  19077893.116     -109096.444         157.000          31.000  
G27  22851595.468    -2307991.612        4238.000          35.000  
G28  20560052.367      -55298.543          87.000          39.000  
G29  22331219.156      494012.440       -1040.000          32.000  
G31  20091290.558     -444185.106         796.000          43.000  
G32  20193231.307      762728.731       -1520.000          49.000  
> 2024 12 28  3 31 26.9949999  0  7                     
G16  19843192.997    -1318148.736        2272.000          44.000  
G26  19077862.125     -109254.225         157.000          32.000  
G27  22850785.708    -2312230.350        4238.000          35.000  
G28  20560035.628      -55386.384          87.000          40.000  
G29  22331414.773      495053.424       -1040.000          32.000  
G31  20091138.950     -444981.797         796.000          43.000  
G32  20193520.764      764249.786       -1521.000          49.000  
> 2024 12 28  3 31 27.9949999  0  7                     
G16  19842760.608    -1320420.943        2272.000          44.000  
G26  19077836.438     -109412.001         157.000          32.000  
G27  22849982.056    -2316469.530        4239.000          35.000  
G28  20560018.845      -55474.505          88.000          40.000  
G29  22331611.157      496094.634       -1041.000          32.000  
G31  20090987.288     -445778.762         796.000          43.000  
G32  20193810.250      765770.984       -1521.000          49.000  
> 2024 12 28  3 31 28.9949999  0  7                     
G16  19842328.275    -1322692.842        2271.000          43.000  
G26  19077804.260     -109569.445         157.000          32.000  
G27  22849176.449    -2320708.843        4239.000          35.000  
G28  20560002.053      -55562.672          88.000          40.000  
G29  22331814.278      497136.241       -1041.000          31.000  
G31  20090835.612     -446575.815         797.000          43.000  
G32  20194099.788      767292.497       -1521.000          48.000  
