     2.11           OBSERVATION DATA    Mixed(MIXED)        RINEX VERSION / TYPE
cnvtToRINEX 3.08.0  convertToRINEX OPR  10-Mar-23 03:37 UTC PGM / RUN BY / DATE 
----------------------------------------------------------- COMMENT             
CK01                                                        MARKER NAME         
CK01                                                        MARKER NUMBER       
GNSS Observer       Trimble                                 OBSERVER / AGENCY   
5411458396          TRIMBLE R4-3        5.09                REC # / TYPE / VERS 
                    TRMR4-3         NONE                    ANT # / TYPE        
 -2956583.2298  5075884.7099  2476675.8756                  APPROX POSITION XYZ 
        1.7000        0.0000        0.0000                  ANTENNA: DELTA H/E/N
     1     1     0                                          WAVELENGTH FACT L1/2
     5    C1    C2    L1    L2    P2                        # / TYPES OF OBSERV 
  2023     3    10     2    52   35.0000000     GPS         TIME OF FIRST OBS   
  2023     3    10     3    28   23.0000000     GPS         TIME OF LAST OBS    
     0                                                      RCV CLOCK OFFS APPL 
    18                                                      LEAP SECONDS        
     9                                                      # OF SATELLITES     
   G04  2149  2149  2149  4298  2149                        PRN / # OF OBS      
   G08  2149  2149  2149  4298  2149                        PRN / # OF OBS      
   G09  2149  2149  2149  4298  2149                        PRN / # OF OBS      
   G16  2149     0  2149  2149  2149                        PRN / # OF OBS      
   G21    71     0    71    71    71                        PRN / # OF OBS      
   G26  2149  2149  2149  4298  2149                        PRN / # OF OBS      
   G27  2149  2149  2149  4298  2149                        PRN / # OF OBS      
   G28  1149  1149  1149  2298  1149                        PRN / # OF OBS      
   G31  2149  2149  2149  4298  2149                        PRN / # OF OBS      
CARRIER PHASE MEASUREMENTS: PHASE SHIFTS REMOVED            COMMENT             
                                                            END OF HEADER       
 23  3 10  2 52 35.0000000  0  8G04G08G09G16G26G27G28G31            
  21323385.695 5  21323395.563 9 112055148.072 5  87315736.107 9  21323394.78547
  21149570.508 6  21149584.480 9 111141741.662 6  86604008.747 9  21149583.35949
  23624345.141 5  23624359.625 9 124146784.868 5  96737772.821 9  23624358.87148
  21125797.453 6                 111016813.146 6  86506634.46647  21125804.38747
  22477382.836 5  22477396.992 9 118119438.588 5  92041176.885 9  22477396.78147
  19870505.227 7  19870514.910 9 104420201.628 7  81366414.148 9  19870514.43849
  23616865.063 5  23616886.613 8 124107462.153 5  96707132.754 8  23616885.09446
  23067772.570 5  23067792.457 8 121221956.852 5  94458747.497 8  23067791.41447
 23  3 10  2 52 36.0000000  0  8G04G08G09G16G26G27G28G31            
  21322966.563 5  21322975.711 9 112052944.135 5  87314018.739 9  21322975.12947
  21148861.289 6  21148875.488 9 111138015.652 6  86601105.364 9  21148874.28549
  23623628.781 4  23623643.359 9 124143019.459 4  96734838.732 9  23623642.43048
  21125741.641 6                 111016523.458 6  86506408.72047  21125749.27747
  22477475.781 5  22477490.078 9 118119926.332 5  92041556.938 9  22477489.74247
  19870186.156 7  19870196.246 9 104418525.479 7  81365108.054 9  19870195.64149
  23617061.922 5  23617083.453 8 124108498.461 5  96707940.238 8  23617082.08646
  23067892.828 5  23067913.590 9 121222588.768 5  94459239.872 9  23067912.27747
 23  3 10  2 52 37.0000000  0  8G04G08G09G16G26G27G28G31            
  21322547.219 6  21322556.715 9 112050741.351 6  87312302.278 9  21322556.25047
  21148152.469 6  21148166.348 9 111134290.657 6  86598202.765 9  21148165.21549
  23622912.430 5  23622927.266 9 124139255.003 5  96731905.390 9  23622926.21148
  21125687.102 6                 111016234.478 6  86506183.52348  21125694.09848
  22477568.219 5  22477582.816 9 118120414.579 5  92041937.379 9  22477582.46547
  19869867.922 7  19869877.348 9 104416850.544 7  81363802.900 9  19869876.75049
  23617259.984 5  23617281.383 8 124109535.535 5  96708748.350 8  23617279.85546
  23068012.945 5  23068033.473 9 121223221.460 5  94459732.862 9  23068032.41047
 23  3 10  2 52 38.0000000  0  8G04G08G09G16G26G27G28G31            
  21322127.789 5  21322137.977 9 112048539.411 5  87310586.475 9  21322136.92647
  21147443.930 6  21147458.281 9 111130566.385 6  86595300.731 9  21147457.24249
  23622196.180 4  23622210.238 9 124135491.202 4  96728972.545 9  23622209.30148
  21125632.109 6                 111015945.810 6  86505958.57348  21125639.05548
  22477661.500 5  22477676.387 9 118120903.022 5  92042317.980 9  22477676.02047
  19869549.313 7  19869558.473 9 104415176.460 7  81362498.416 9  19869557.75449
  23617457.633 5  23617478.695 8 124110573.146 5  96709556.893 8  23617477.20746
  23068133.586 5  23068154.727 9 121223854.617 5  94460226.217 9  23068153.17247
 23  3 10  2 52 39.0000000  0  8G04G08G09G16G26G27G28G31            
  21321709.500 5  21321718.996 9 112046338.258 5  87308871.279 9  21321718.16447
  21146735.367 6  21146749.434 9 111126842.774 6  86592399.227 9  21146748.21949
  23621480.023 5  23621495.012 9 124131727.979 5  96726040.159 9  23621493.53548
  21125577.359 6                 111015657.470 6  86505733.89948  21125584.02748
  22477754.258 5  22477769.281 9 118121391.575 5  92042698.659 9  22477768.67647
  19869230.977 7  19869240.410 9 104413503.217 7  81361194.595 9  19869239.71949
  23617654.516 5  23617676.621 8 124111611.178 5  96710365.764 8  23617674.76246
  23068254.445 5  23068275.254 9 121224488.197 5  94460719.907 9  23068273.59447
 23  3 10  2 52 40.0000000  0  8G04G08G09G16G26G27G28G31            
  21321290.688 5  21321299.859 9 112044138.202 5  87307156.942 9  21321299.28547
  21146026.789 6  21146041.066 9 111123120.171 6  86589498.504 9  21146039.91049
  23620763.906 4  23620778.543 9 124127965.699 4  96723108.529 9  23620777.52748
  21125522.898 6                 111015369.771 6  86505509.71648  21125529.48048
  22477847.648 5  22477862.094 9 118121880.645 5  92043079.739 9  22477861.50447
  19868912.578 7  19868922.199 9 104411831.188 7  81359891.720 9  19868921.82849
  23617851.984 5  23617874.344 8 124112650.011 5  96711175.261 8  23617872.39546
  23068375.414 5  23068396.117 9 121225122.604 5  94461214.244 9  23068394.85247
 23  3 10  2 52 41.0000000  0  8G04G08G09G16G26G27G28G31            
  21320872.047 6  21320881.398 9 112041939.131 6  87305443.373 9  21320880.94547
  21145318.688 6  21145332.668 9 111119398.387 6  86586598.408 9  21145331.86749
  23620048.508 4  23620062.688 8 124124204.197 4  96720177.492 8  23620061.71148
  21125467.875 6                 111015082.570 6  86505285.92248  21125474.94548
  22477940.234 5  22477955.402 9 118122370.015 5  92043461.062 9  22477954.79747
  19868594.641 7  19868604.227 9 104410160.150 7  81358589.612 9  19868603.52049
  23618049.852 5  23618072.125 8 124113689.454 5  96711985.219 8  23618070.51646
  23068496.172 5  23068516.859 9 121225757.572 5  94461709.025 9  23068515.59047
 23  3 10  2 52 42.0000000  0  8G04G08G09G16G26G27G28G31            
  21320454.031 6  21320463.699 9 112039741.102 6  87303730.615 9  21320463.05147
  21144610.180 6  21144623.875 9 111115677.504 6  86583699.020 9  21144623.03549
  23619332.633 4  23619347.273 8 124120443.563 4  96717247.133 8  23619345.92248
  21125413.359 6                 111014795.928 6  86505062.55848  21125419.96148
  22478033.875 5  22478048.855 9 118122859.790 5  92043842.701 9  22478048.14847
  19868276.953 7  19868286.543 9 104408490.209 7  81357288.362 9  19868285.85249
  23618247.344 5  23618269.938 8 124114729.603 5  96712795.722 8  23618268.30546
  23068617.352 6  23068637.320 9 121226393.259 6  94462204.351 9  23068636.27347
 23  3 10  2 52 43.0000000  0  8G04G08G09G16G26G27G28G31            
  21320035.523 6  21320044.867 9 112037543.981 6  87302018.574 9  21320044.32047
  21143902.586 6  21143916.234 9 111111957.434 6  86580800.264 9  21143915.37549
  23618617.117 4  23618631.414 8 124116683.631 4  96714317.317 8  23618630.51248
  21125358.578 6                 111014509.698 6  86504839.51748  21125365.58248
  22478126.914 6  22478142.148 9 118123349.833 6  92044224.548 9  22478141.59447
  19867959.453 7  19867969.395 9 104406821.234 7  81355987.863 9  19867968.34049
  23618445.703 5  23618468.332 8 124115770.294 5  96713606.656 8  23618466.53946
  23068737.781 6  23068758.461 9 121227029.437 6  94462700.063 9  23068757.50447
 23  3 10  2 52 44.0000000  0  8G04G08G09G16G26G27G28G31            
  21319618.266 6  21319626.902 9 112035347.732 6  87300307.203 9  21319626.60547
  21143195.016 6  21143209.254 9 111108238.056 6  86577902.046 9  21143208.04749
  23617901.922 5  23617915.883 8 124112924.420 5  96711388.061 8  23617915.02348
  21125304.594 6                 111014223.897 6  86504616.80948  21125311.39148
  22478220.422 6  22478234.492 9 118123840.069 6  92044606.535 9  22478234.15647
  19867642.094 7  19867651.781 9 104405153.179 7  81354688.074 9  19867651.21149
  23618643.953 5  23618666.207 8 124116811.563 5  96714418.053 8  23618664.23446
  23068859.102 5  23068879.508 8 121227666.200 5  94463196.234 8  23068878.33247
 23  3 10  2 52 45.0000000  0  8G04G08G09G16G26G27G28G31            
  21319200.094 5  21319208.949 9 112033152.466 5  87298596.604 9  21319209.01647
  21142487.266 6  21142501.305 9 111104519.587 6  86575004.543 9  21142500.12549
  23617186.234 4  23617200.742 8 124109165.999 4  96708459.418 8  23617200.06648
  21125250.375 6                 111013938.590 6  86504394.48048  21125257.04348
  22478313.781 5  22478328.328 9 118124330.706 5  92044988.828 9  22478327.91447
  19867324.344 7  19867334.250 9 104403486.171 7  81353389.104 9  19867333.73049
  23618842.156 5  23618863.484 8 124117853.414 5  96715229.890 8  23618862.01646
  23068980.117 5  23069000.516 8 121228303.567 5  94463692.871 8  23068999.26647
 23  3 10  2 52 46.0000000  0  8G04G08G09G16G26G27G28G31            
  21318782.570 5  21318791.734 9 112030958.407 5  87296886.946 9  21318791.60947
  21141780.086 6  21141794.355 9 111100802.184 6  86572107.866 9  21141793.07449
  23616471.852 4  23616485.750 8 124105408.599 4  96705531.559 8  23616485.03948
  21125196.633 6                 111013653.982 6  86504172.70548  21125202.86748
  22478407.109 5  22478421.668 9 118124821.859 5  92045371.536 9  22478421.03547
  19867007.766 7  19867017.203 9 104401820.401 7  81352091.102 9  19867016.52349
  23619040.625 5  23619062.547 8 124118896.158 5  96716042.426 8  23619060.95346
  23069102.023 5  23069122.414 8 121228941.771 5  94464190.165 8  23069121.32447
 23  3 10  2 52 47.0000000  0  8G04G08G09G16G26G27G28G31            
  21318365.461 5  21318374.289 9 112028765.318 5  87295178.041 9  21318374.34848
  21141072.703 6  21141086.734 9 111097085.645 6  86569211.867 9  21141085.40649
  23615756.766 4  23615771.273 9 124101651.974 4  96702604.306 9  23615770.41448
  21125142.859 6                 111013369.904 6  86503951.34648  21125148.60948
  22478500.273 6  22478515.566 9 118125313.354 6  92045754.507 9  22478514.98047
  19866690.969 7  19866700.844 9 104400155.695 7  81350793.917 9  19866700.28549
  23619239.148 5  23619261.262 8 124119939.517 5  96716855.432 8  23619259.60546
  23069223.234 5  23069243.953 8 121229580.589 5  94464687.922 8  23069242.83647
 23  3 10  2 52 48.0000000  0  8G04G08G09G16G26G27G28G31            
  21317948.133 5  21317957.109 9 112026573.152 5  87293469.851 9  21317957.27747
  21140365.453 6  21140379.949 9 111093369.865 6  86566316.457 9  21140378.62149
  23615041.773 4  23615056.293 9 124097896.104 4  96699677.639 9  23615055.38348
  21125088.500 6                 111013086.273 6  86503730.33048  21125094.82448
  22478594.273 6  22478609.109 9 118125805.122 6  92046137.696 9  22478608.67647
  19866374.367 7  19866383.926 9 104398491.946 7  81349497.488 9  19866383.18449
  23619437.531 5  23619459.953 8 124120983.506 5  96717668.922 8  23619457.98446
  23069344.859 5  23069365.570 8 121230219.987 5  94465186.146 8  23069364.18847
 23  3 10  2 52 49.0000000  0  8G04G08G09G16G26G27G28G31            
  21317531.555 5  21317540.164 9 112024381.911 5  87291762.384 9  21317540.07447
  21139658.148 6  21139672.359 9 111089654.898 6  86563421.673 9  21139670.97749
  23614327.180 4  23614341.516 8 124094140.984 4  96696751.567 8  23614340.44148
  21125034.508 6                 111012803.060 6  86503509.64248  21125040.97348
  22478688.125 6  22478702.406 9 118126297.169 6  92046521.102 9  22478702.23847
  19866057.883 7  19866067.727 9 104396829.171 7  81348201.817 9  19866067.17249
  23619636.289 5  23619658.723 8 124122028.042 5  96718482.855 8  23619656.87146
  23069466.836 5  23069487.691 8 121230859.953 5  94465684.815 8  23069486.22747
 23  3 10  2 52 50.0000000  0  8G04G08G09G16G26G27G28G31            
  21317113.773 5  21317123.473 9 112022191.570 5  87290055.624 9  21317123.48447
  21138951.891 6  21138965.387 9 111085940.692 6  86560527.485 9  21138964.17649
  23613613.273 5  23613627.379 8 124090386.526 5  96693826.021 8  23613626.52748
  21124980.578 6                 111012520.293 6  86503289.29748  21124986.96148
  22478781.031 6  22478796.773 9 118126789.486 6  92046904.716 9  22478796.28547
  19865741.820 7  19865751.453 9 104395167.327 7  81346906.870 9  19865750.81649
  23619835.289 5  23619857.520 8 124123073.151 5  96719297.229 8  23619855.75446
  23069588.656 5  23069609.234 8 121231500.446 5  94466183.896 8  23069607.72347
 23  3 10  2 52 51.0000000  0  8G04G08G09G16G26G27G28G31            
  21316697.648 5  21316706.773 9 112020002.199 5  87288349.618 9  21316706.69947
  21138245.164 6  21138259.031 9 111082227.365 6  86557633.990 9  21138257.85949
  23612898.875 4  23612913.621 9 124086632.911 4  96690901.138 9  23612912.74648
  21124926.461 6                 111012237.996 6  86503069.30948  21124933.20748
  22478875.594 6  22478889.965 9 118127282.115 6  92047288.576 9  22478889.65647
  19865425.586 7  19865434.926 9 104393506.549 7  81345612.764 9  19865434.34449
  23620034.570 5  23620056.777 8 124124118.888 5  96720112.082 8  23620054.62146
  23069710.953 5  23069730.805 8 121232141.571 5  94466683.461 8  23069729.68847
 23  3 10  2 52 52.0000000  0  8G04G08G09G16G26G27G28G31            
  21316281.125 5  21316290.148 9 112017813.862 5  87286644.429 9  21316290.10947
  21137538.617 6  21137552.809 9 111078514.945 6  86554741.195 9  21137551.43049
  23612184.250 5  23612198.574 8 124082880.127 5  96687976.891 8  23612197.97348
  21124873.281 6                 111011956.277 6  86502849.78148  21124879.80548
  22478969.531 6  22478983.590 9 118127775.142 6  92047672.742 9  22478983.55147
  19865109.703 7  19865119.203 9 104391846.845 7  81344319.486 9  19865118.68849
  23620232.883 5  23620255.680 8 124125165.282 5  96720927.465 8  23620253.94146
  23069833.078 5  23069853.371 9 121232783.379 5  94467183.555 9  23069852.11747
 23  3 10  2 52 53.0000000  0  8G04G08G09G16G26G27G28G31            
  21315865.305 6  21315873.973 9 112015626.570 6  87284940.047 9  21315874.02048
  21136832.578 6  21136846.766 9 111074803.406 6  86551849.086 9  21136845.53549
  23611471.125 5  23611484.719 8 124079128.203 5  96685053.319 8  23611484.10248
  21124819.555 6                 111011675.099 6  86502630.68248  21124826.69948
  22479063.328 5  22479077.957 9 118128268.554 5  92048057.210 9  22479077.37947
  19864794.180 7  19864804.027 9 104390188.226 7  81343027.049 9  19864803.34849
  23620432.227 5  23620455.047 8 124126212.400 5  96721743.418 8  23620453.43446
  23069955.797 5  23069976.000 9 121233425.868 5  94467684.177 9  23069974.46147
 23  3 10  2 52 54.0000000  0  8G04G08G09G16G26G27G28G31            
  21315448.594 6  21315458.000 9 112013440.045 6  87283236.253 9  21315458.11347
  21136126.078 6  21136140.695 9 111071092.553 6  86548957.514 9  21136139.07449
  23610756.836 5  23610770.707 8 124075376.842 5  96682130.194 8  23610770.30948
  21124766.555 6                 111011394.225 6  86502411.82648  21124773.08248
  22479156.711 6  22479171.816 9 118128762.108 6  92048441.785 9  22479171.09047
  19864478.367 7  19864488.441 9 104388530.443 7  81341735.275 9  19864487.73849
  23620632.000 5  23620654.348 8 124127259.965 5  96722559.713 8  23620652.64846
  23070077.711 5  23070098.578 8 121234068.756 5  94468185.112 8  23070097.02347
 23  3 10  2 52 55.0000000  0  8G04G08G09G16G26G27G28G31            
  21315033.125 5  21315042.082 9 112011254.375 5  87281533.136 9  21315042.02747
  21135419.875 6  21135434.387 9 111067382.398 6  86546066.478 9  21135432.98849
  23610043.172 5  23610056.633 8 124071626.184 5  96679207.617 8  23610056.31648
  21124713.297 6                 111011113.707 6  86502193.23148  21124719.93448
  22479250.773 6  22479265.406 9 118129255.874 6  92048826.526 9  22479264.92647
  19864162.992 7  19864173.086 9 104386873.539 7  81340444.173 9  19864172.47349
  23620831.047 5  23620853.949 8 124128308.015 5  96723376.374 8  23620852.23046
  23070199.867 5  23070220.855 8 121234712.179 5  94468686.473 8  23070219.01647
 23  3 10  2 52 56.0000000  0  8G04G08G09G16G26G27G28G31            
  21314617.438 5  21314626.219 9 112009069.615 5  87279830.728 9  21314626.35247
  21134714.391 6  21134728.195 9 111063673.027 6  86543176.060 9  21134726.99249
  23609328.797 5  23609343.598 8 124067876.220 5  96676285.576 8  23609342.86748
  21124659.469 6                 111010833.616 6  86501974.98048  21124666.70348
  22479344.844 6  22479359.703 9 118129749.873 6  92049211.452 9  22479359.27047
  19863848.148 7  19863857.727 9 104385217.617 7  81339153.844 9  19863857.30149
  23621031.031 5  23621053.637 8 124129356.614 5  96724193.470 8  23621052.23446
  23070323.203 5  23070343.445 8 121235356.114 5  94469188.231 8  23070342.12547
 23  3 10  2 52 57.0000000  0  8G04G08G09G16G26G27G28G31            
  21314201.313 6  21314210.930 9 112006885.661 6  87278128.945 9  21314210.58647
  21134008.602 6  21134023.238 9 111059964.355 6  86540286.186 9  21134021.82849
  23608615.773 5  23608629.871 8 124064126.899 5  96673364.020 8  23608629.49248
  21124605.945 6                 111010553.882 6  86501757.00447  21124613.04747
  22479438.414 6  22479453.629 9 118130244.036 6  92049596.504 9  22479453.16447
  19863533.063 7  19863542.691 9 104383562.555 7  81337864.187 9  19863542.17649
  23621230.047 5  23621253.008 8 124130405.692 5  96725010.942 8  23621251.59046
  23070445.633 5  23070465.586 8 121236000.492 5  94469690.345 8  23070464.35547
 23  3 10  2 52 58.0000000  0  8G04G08G09G16G26G27G28G31            
  21313786.078 5  21313796.098 9 112004702.845 5  87276428.056 9  21313795.62547
  21133302.695 6  21133316.887 9 111056256.691 6  86537397.094 9  21133315.78549
  23607902.031 5  23607916.309 8 124060378.533 5  96670443.216 8  23607915.99648
  21124553.172 6                 111010274.825 6  86501539.54948  21124559.69148
  22479533.047 6  22479547.586 9 118130738.746 6  92049981.986 9  22479547.28147
  19863218.289 7  19863228.203 9 104381908.698 7  81336575.468 9  19863227.44949
  23621430.063 5  23621452.887 8 124131455.597 5  96725829.067 8  23621451.51246
  23070567.859 6  23070588.477 8 121236645.713 6  94470193.109 8  23070587.14547
 23  3 10  2 52 59.0000000  0  8G04G08G09G16G26G27G28G31            
  21313370.922 6  21313380.680 9 112002520.984 6  87274727.904 9  21313380.22748
  21132597.531 6  21132612.070 9 111052549.809 6  86534508.613 9  21132610.95749
  23607189.516 5  23607203.277 8 124056630.900 5  96667523.000 8  23607203.08648
  21124500.359 6                 111009996.208 6  86501322.43748  21124507.14148
  22479627.188 6  22479642.086 9 118131233.736 6  92050367.684 9  22479641.59847
  19862904.195 7  19862913.309 9 104380255.832 7  81335287.516 9  19862912.59849
  23621629.805 5  23621652.688 8 124132506.115 5  96726647.665 8  23621651.30546
  23070691.148 6  23070711.527 8 121237291.469 6  94470696.289 8  23070710.39847
 23  3 10  2 53  0.0000000  0  8G04G08G09G16G26G27G28G31            
  21312955.953 6  21312965.977 9 112000340.119 6  87273028.528 9  21312965.30948
  21131892.398 6  21131906.945 9 111048843.850 6  86531620.862 9  21131905.99649
  23606476.414 5  23606490.656 8 124052884.125 5  96664603.451 8  23606490.25848
  21124447.008 6                 111009718.105 6  86501105.72848  21124454.06648
  22479721.148 6  22479736.723 9 118131729.057 6  92050753.641 9  22479736.24247
  19862589.695 7  19862599.160 9 104378604.003 7  81334000.377 9  19862598.66449
  23621830.172 5  23621852.145 8 124133557.212 5  96727466.702 8  23621851.17646
  23070814.023 5  23070834.051 9 121237937.872 5  94471199.981 9  23070832.89547
 23  3 10  2 53  1.0000000  0  8G04G08G09G16G26G27G28G31            
  21312541.305 6  21312550.980 9 111998160.092 6  87271329.802 9  21312549.82448
  21131187.094 6  21131201.465 9 111045138.606 6  86528733.664 9  21131200.34849
  23605763.352 5  23605778.023 8 124049138.005 5  96661684.413 8  23605777.29348
  21124394.422 6                 111009440.346 6  86500889.28648  21124400.79348
  22479815.391 5  22479831.027 9 118132224.605 5  92051139.768 9  22479830.44947
  19862276.094 7  19862285.180 9 104376953.080 7  81332713.943 9  19862284.51249
  23622030.203 5  23622052.254 8 124134608.871 5  96728286.193 8  23622050.98446
  23070936.961 5  23070957.699 8 121238584.792 5  94471704.065 8  23070956.22347
 23  3 10  2 53  2.0000000  0  8G04G08G09G16G26G27G28G31            
  21312126.297 6  21312136.316 9 111995980.608 6  87269631.506 9  21312135.36748
  21130482.813 6  21130496.906 9 111041433.817 6  86525846.808 9  21130495.72749
  23605050.617 4  23605065.270 8 124045392.224 4  96658765.617 8  23605064.53548
  21124341.641 6                 111009162.696 6  86500672.94048  21124348.48048
  22479909.852 5  22479924.918 9 118132720.045 5  92051525.811 9  22479924.68447
  19861961.891 7  19861971.313 9 104375302.777 7  81331427.997 9  19861970.81349
  23622230.563 5  23622252.895 8 124135660.716 5  96729105.823 8  23622251.34446
  23071060.523 5  23071080.926 9 121239231.923 5  94472208.318 9  23071079.37547
 23  3 10  2 53  3.0000000  0  8G04G08G09G16G26G27G28G31            
  21311711.898 6  21311721.820 9 111993802.262 6  87267934.088 9  21311720.91848
  21129777.656 6  21129791.613 9 111037729.987 6  86522960.702 9  21129790.34049
  23604337.938 5  23604352.461 9 124041647.400 5  96655847.559 9  23604351.53148
  21124288.859 6                 111008885.659 6  86500457.05948  21124295.64548
  22480004.102 5  22480019.363 9 118133215.929 5  92051912.201 9  22480019.10247
  19861647.930 7  19861656.996 9 104373653.630 7  81330142.944 9  19861656.48049
  23622430.953 5  23622453.598 8 124136713.352 5  96729926.067 8  23622451.80946
  23071183.695 5  23071203.684 8 121239879.761 5  94472713.113 8  23071202.31647
 23  3 10  2 53  4.0000000  0  8G04G08G09G16G26G27G28G31            
  21311297.734 6  21311307.445 9 111991624.862 6  87266237.401 9  21311306.66848
  21129073.023 6  21129087.281 9 111034027.002 6  86520075.263 9  21129086.02749
  23603625.922 4  23603640.480 9 124037903.337 4  96652930.100 9  23603639.61748
  21124236.695 6                 111008609.105 6  86500241.56348  21124243.07848
  22480099.211 5  22480113.793 9 118133712.191 5  92052298.890 9  22480113.30547
  19861334.477 7  19861343.203 9 104372005.496 7  81328858.688 9  19861342.68449
  23622631.617 5  23622653.805 8 124137766.571 5  96730746.762 8  23622652.10246
  23071307.008 5  23071327.246 8 121240528.230 5  94473218.398 8  23071326.02747
 23  3 10  2 53  5.0000000  0  8G04G08G09G16G26G27G28G31            
  21310883.945 6  21310892.684 9 111989448.300 6  87264541.372 9  21310892.21947
  21128368.539 6  21128382.570 9 111030324.737 6  86517190.387 9  21128381.57849
  23602912.391 4  23602928.102 9 124034159.937 4  96650013.163 9  23602927.18848
  21124183.539 6                 111008332.927 6  86500026.35948  21124190.25848
  22480193.281 5  22480207.922 9 118134208.611 5  92052685.700 9  22480207.51647
  19861020.898 7  19861030.234 9 104370358.247 7  81327575.118 9  19861029.54749
  23622831.383 5  23622853.625 8 124138820.290 5  96731567.837 8  23622852.15646
  23071430.523 5  23071451.297 8 121241177.198 5  94473724.080 8  23071449.76247
 23  3 10  2 53  6.0000000  0  8G04G08G09G16G26G27G28G31            
  21310469.992 6  21310479.289 9 111987272.547 6  87262845.981 9  21310478.56347
  21127664.172 6  21127678.582 9 111026623.102 6  86514305.997 9  21127677.53149
  23602200.109 4  23602215.844 9 124030417.121 4  96647096.695 9  23602214.85248
  21124131.500 6                 111008057.029 6  86499811.37148  21124137.60948
  22480287.844 5  22480302.734 9 118134705.159 5  92053072.618 9  22480302.09047
  19860707.586 7  19860716.336 9 104368711.842 7  81326292.196 9  19860715.70749
  23623033.008 5  23623054.426 8 124139874.505 5  96732389.307 8  23623053.26246
  23071553.773 5  23071574.488 8 121241826.597 5  94474230.085 8  23071573.21947
 23  3 10  2 53  7.0000000  0  8G04G08G09G16G26G27G28G31            
  21310055.914 6  21310065.133 9 111985097.727 6  87261151.308 9  21310064.55547
  21126960.156 6  21126974.031 9 111022922.328 6  86511422.292 9  21126972.88349
  23601488.289 4  23601503.480 9 124026675.105 4  96644180.850 9  23601502.43048
  21124078.898 6                 111007781.646 6  86499596.77748  21124085.40648
  22480382.719 5  22480397.465 9 118135202.042 5  92053459.793 9  22480396.82047
  19860394.727 7  19860403.695 9 104367066.457 7  81325010.077 9  19860403.14549
  23623233.102 5  23623255.398 8 124140929.297 5  96733211.231 8  23623254.51646
  23071677.719 5  23071697.973 8 121242476.585 5  94474736.561 8  23071696.60247
 23  3 10  2 53  8.0000000  0  8G04G08G09G16G26G27G28G31            
  21309642.258 6  21309650.906 9 111982923.964 6  87259457.459 9  21309650.41047
  21126255.711 6  21126269.941 9 111019222.491 6  86508539.309 9  21126269.22749
  23600776.398 4  23600791.742 8 124022933.955 4  96641265.675 8  23600790.64548
  21124026.266 6                 111007506.799 6  86499382.60847  21124033.30947
  22480477.148 5  22480491.684 9 118135699.309 5  92053847.262 9  22480491.05947
  19860081.891 7  19860090.855 9 104365422.173 7  81323728.810 9  19860090.30949
  23623434.008 5  23623456.016 8 124141984.812 5  96734033.711 8  23623454.90246
  23071801.742 5  23071822.047 8 121243127.239 5  94475243.556 8  23071820.41047
 23  3 10  2 53  9.0000000  0  8G04G08G09G16G26G27G28G31            
  21309228.430 6  21309238.285 9 111980751.215 6  87257764.395 9  21309237.81647
  21125552.289 6  21125565.770 9 111015523.538 6  86505657.006 9  21125564.88349
  23600065.648 4  23600079.887 8 124019193.595 4  96638351.110 8  23600079.19548
  21123974.305 6                 111007232.504 6  86499168.86448  21123980.82448
  22480572.258 5  22480586.719 8 118136196.964 5  92054235.036 8  22480586.18447
  19859768.734 7  19859778.012 9 104363778.926 7  81322448.354 9  19859777.42249
  23623635.008 5  23623656.898 8 124143040.978 5  96734856.704 8  23623655.96946
  23071925.813 5  23071945.961 8 121243778.573 5  94475751.074 8  23071944.51247
 23  3 10  2 53 10.0000000  0  8G04G08G09G16G26G27G28G31            
  21308815.477 6  21308824.617 9 111978579.345 6  87256072.021 9  21308824.03947
  21124848.102 6  21124862.168 9 111011825.327 6  86502775.290 9  21124861.32049
  23599353.313 5  23599368.297 8 124015454.009 5  96635437.149 8  23599367.65648
  21123922.453 6                 111006958.617 6  86498955.43948  21123928.96548
  22480666.805 5  22480681.652 9 118136694.840 5  92054622.986 9  22480681.10947
  19859456.234 7  19859465.602 9 104362136.654 7  81321168.663 9  19859464.97349
  23623836.375 5  23623857.957 8 124144097.685 5  96735680.126 8  23623857.02046
  23072049.445 5  23072070.074 8 121244430.445 5  94476259.021 8  23072068.90647
 23  3 10  2 53 11.0000000  0  8G04G08G09G16G26G27G28G31            
  21308402.273 6  21308411.363 9 111976408.243 6  87254380.253 9  21308411.00847
  21124144.234 6  21124158.555 9 111008127.765 6  86499894.073 9  21124157.66849
  23598641.852 5  23598657.172 9 124011714.937 5  96632523.584 9  23598656.34448
  21123870.031 6                 111006685.007 6  86498742.23248  21123876.94548
  22480761.445 5  22480776.297 9 118137192.850 5  92055011.041 9  22480775.53147
  19859144.047 7  19859153.469 9 104360495.181 7  81319889.594 9  19859152.53149
  23624037.977 5  23624059.375 8 124145154.838 5  96736503.887 8  23624058.15246
  23072173.680 5  23072193.656 8 121245082.691 5  94476767.258 8  23072192.39847
 23  3 10  2 53 12.0000000  0  8G04G08G09G16G26G27G28G31            
  21307989.094 6  21307998.309 9 111974238.122 6  87252689.243 9  21307998.08647
  21123441.141 6  21123455.324 9 111004431.067 6  86497013.528 9  21123454.37149
  23597930.898 5  23597945.461 9 124007976.692 5  96629610.662 9  23597944.54748
  21123818.586 6                 111006411.874 6  86498529.39748  21123824.95348
  22480856.023 5  22480871.207 9 118137691.198 5  92055399.354 9  22480870.81647
  19858831.820 7  19858841.133 9 104358854.758 7  81318611.343 9  19858840.36749
  23624239.063 5  23624260.586 8 124146212.610 5  96737328.136 8  23624259.52347
  23072297.828 5  23072318.348 8 121245735.578 5  94477275.994 8  23072316.64547
 23  3 10  2 53 13.0000000  0  8G04G08G09G16G26G27G28G31            
  21307576.570 6  21307585.320 9 111972068.904 6  87250998.942 9  21307585.23447
  21122737.734 6  21122752.301 9 111000735.173 6  86494133.614 9  21122751.19549
  23597219.195 4  23597234.313 9 124004239.163 4  96626698.293 9  23597233.35548
  21123766.508 6                 111006139.217 6  86498316.93548  21123772.97748
  22480951.039 5  22480965.824 9 118138189.816 5  92055787.876 9  22480965.23447
  19858519.930 7  19858529.164 9 104357215.297 7  81317333.831 9  19858528.43049
  23624439.805 5  23624462.141 8 124147270.945 5  96738152.813 8  23624461.19146
  23072422.344 5  23072442.410 8 121246389.033 5  94477785.177 8  23072440.89147
 23  3 10  2 53 14.0000000  0  8G04G08G09G16G26G27G28G31            
  21307163.813 6  21307172.406 9 111969900.668 6  87249309.414 9  21307172.34448
  21122034.250 6  21122048.609 9 110997040.077 6  86491254.320 9  21122047.66849
  23596507.852 5  23596523.086 9 124000502.449 5  96623786.563 9  23596522.13348
  21123714.336 6                 111005866.993 6  86498104.80848  21123721.16848
  22481046.750 5  22481060.848 9 118138688.723 5  92056176.623 9  22481060.47747
  19858207.758 7  19858217.742 9 104355576.809 7  81316057.084 9  19858216.75449
  23624642.461 5  23624662.895 8 124148329.897 5  96738977.979 8  23624662.13346
  23072547.180 5  23072567.270 8 121247043.083 5  94478294.816 8  23072565.68447
 23  3 10  2 53 15.0000000  0  8G04G08G09G16G26G27G28G31            
  21306751.539 6  21306760.141 9 111967733.246 6  87247620.506 9  21306759.93048
  21121331.016 6  21121345.891 9 110993345.712 6  86488375.601 9  21121344.75049
  23595797.203 5  23595812.461 9 123996766.365 5  96620875.326 9  23595811.49648
  21123662.828 6                 111005595.155 6  86497892.98448  21123669.87148
  22481141.531 6  22481155.973 9 118139187.852 6  92056565.540 9  22481155.67647
  19857896.555 7  19857905.949 9 104353939.256 7  81314781.069 9  19857905.25049
  23624843.109 5  23624864.996 8 124149389.380 5  96739803.550 8  23624864.23046
  23072671.023 5  23072691.703 8 121247697.601 5  94478804.818 8  23072690.28947
 23  3 10  2 53 16.0000000  0  8G04G08G09G16G26G27G28G31            
  21306338.648 6  21306348.289 9 111965566.875 6  87245932.433 9  21306348.03147
  21120628.484 6  21120643.184 9 110989652.263 6  86485497.588 9  21120642.24649
  23595086.672 5  23595101.590 9 123993031.146 5  96617964.759 9  23595100.69948
  21123611.352 6                 111005323.878 6  86497681.59648  21123618.24648
  22481236.352 5  22481250.629 9 118139687.376 5  92056954.771 9  22481250.19147
  19857584.766 7  19857594.285 9 104352302.773 7  81313505.887 9  19857593.43449
  23625045.078 5  23625066.707 9 124150449.521 5  96740629.624 9  23625065.87947
  23072795.711 5  23072816.445 8 121248352.850 5  94479315.393 8  23072814.56347
 23  3 10  2 53 17.0000000  0  8G04G08G09G16G26G27G28G31            
  21305927.281 6  21305935.727 9 111963401.487 6  87244245.120 9  21305935.63348
  21119926.023 6  21119940.512 9 110985959.662 6  86482620.246 9  21119939.72749
  23594376.211 5  23594390.652 9 123989296.697 5  96615054.803 9  23594389.63748
  21123559.539 6                 111005053.084 6  86497470.58548  21123566.55548
  22481331.234 5  22481346.016 9 118140187.226 5  92057344.257 9  22481345.45347
  19857273.773 7  19857283.121 9 104350667.320 7  81312231.504 9  19857282.32449
  23625246.828 5  23625268.707 8 124151510.341 5  96741456.224 8  23625267.64147
  23072920.992 5  23072941.203 9 121249008.670 5  94479826.419 9  23072939.37947
 23  3 10  2 53 18.0000000  0  8G04G08G09G16G26G27G28G31            
  21305515.406 6  21305524.273 9 111961237.075 6  87242558.566 9  21305523.74247
  21119223.188 6  21119237.324 9 110982267.940 6  86479743.589 9  21119236.75849
  23593665.664 5  23593680.383 9 123985563.053 5  96612145.477 9  23593679.41848
  21123508.508 6                 111004782.805 6  86497259.98448  21123515.18448
  22481426.141 5  22481440.926 9 118140687.385 5  92057733.978 9  22481440.20747
  19856962.430 7  19856972.027 9 104349032.903 7  81310957.934 9  19856971.16849
  23625448.672 5  23625470.609 8 124152571.775 5  96742283.322 8  23625469.62146
  23073045.953 5  23073066.063 8 121249665.136 5  94480337.937 8  23073064.49247
 23  3 10  2 53 19.0000000  0  8G04G08G09G16G26G27G28G31            
  21305103.430 6  21305112.469 9 111959073.489 6  87240872.653 9  21305112.15647
  21118521.234 6  21118535.457 9 110978576.921 6  86476867.469 9  21118534.42249
  23592955.375 5  23592970.012 9 123981830.068 5  96609236.664 9  23592969.25048
  21123456.516 6                 111004512.882 6  86497049.65248  21123463.78948
  22481521.547 6  22481536.461 9 118141187.760 6  92058123.868 9  22481535.52747
  19856651.703 7  19856661.246 9 104347399.378 7  81309685.061 9  19856660.52049
  23625650.703 5  23625672.852 8 124153633.667 5  96743110.782 8  23625671.72346
  23073170.789 5  23073191.555 8 121250322.076 5  94480849.824 8  23073189.80947
 23  3 10  2 53 20.0000000  0  8G04G08G09G16G26G27G28G31            
  21304692.000 6  21304700.945 9 111956910.769 6  87239187.419 9  21304700.49647
  21117819.023 6  21117833.328 9 110974886.623 6  86473991.915 9  21117832.34049
  23592245.328 5  23592259.711 8 123978097.729 5  96606328.352 8  23592259.11748
  21123405.672 6                 111004243.295 6  86496839.58248  21123412.59848
  22481616.563 5  22481631.852 9 118141688.317 5  92058513.912 9  22481631.02347
  19856340.891 7  19856350.730 9 104345766.747 7  81308412.880 9  19856350.16849
  23625853.063 5  23625875.074 8 124154696.093 5  96743938.637 8  23625873.75046
  23073296.063 5  23073316.309 8 121250979.497 5  94481362.094 8  23073314.24247
 23  3 10  2 53 21.0000000  0  8G04G08G09G16G26G27G28G31            
  21304280.656 6  21304289.586 9 111954749.016 6  87237502.943 9  21304289.10947
  21117117.016 6  21117130.871 9 110971197.195 6  86471117.045 9  21117130.22749
  23591534.438 5  23591549.430 8 123974366.208 5  96603420.672 8  23591548.97348
  21123354.859 6                 111003974.229 6  86496629.91348  21123360.90648
  22481712.234 5  22481727.117 8 118142189.230 5  92058904.222 8  22481726.44547
  19856030.633 7  19856040.184 9 104344135.147 7  81307141.508 9  19856039.46949
  23626054.969 5  23626077.781 8 124155759.129 5  96744766.973 8  23626076.52046
  23073421.531 5  23073441.742 8 121251637.569 5  94481874.865 8  23073439.71147
 23  3 10  2 53 22.0000000  0  8G04G08G09G16G26G27G28G31            
  21303869.719 6  21303879.035 9 111952588.396 6  87235819.341 9  21303878.14147
  21116414.828 6  21116428.617 9 110967508.799 6  86468242.968 9  21116428.07449
  23590824.672 5  23590839.438 8 123970635.630 5  96600513.729 8  23590839.09448
  21123303.320 6                 111003705.828 6  86496420.75948  21123309.90648
  22481807.063 5  22481822.477 9 118142690.661 5  92059294.943 9  22481821.55947
  19855720.094 7  19855729.816 9 104342504.752 7  81305871.073 9  19855729.20749
  23626257.406 5  23626280.199 8 124156822.999 5  96745595.956 8  23626278.94546
  23073546.711 5  23073566.824 8 121252296.419 5  94482388.245 8  23073564.73447
 23  3 10  2 53 23.0000000  0  8G04G08G09G16G26G27G28G31            
  21303458.852 6  21303467.828 9 111950428.365 6  87234136.199 9  21303467.17647
  21115713.367 6  21115726.934 9 110963820.840 6  86465369.238 9  21115726.34449
  23590115.289 5  23590129.754 9 123966905.454 5  96597607.104 9  23590129.39548
  21123252.477 6                 111003437.501 6  86496211.67148  21123259.07848
  22481903.234 5  22481918.148 9 118143191.966 5  92059685.563 9  22481917.14847
  19855410.000 7  19855419.859 9 104340874.967 7  81304601.106 9  19855419.21149
  23626459.719 5  23626482.457 8 124157887.097 5  96746425.119 8  23626481.40646
  23073672.461 5  23073692.359 8 121252955.459 5  94482901.775 8  23073690.57847
 23  3 10  2 53 24.0000000  0  8G04G08G09G16G26G27G28G31            
  21303047.352 6  21303056.918 9 111948268.931 6  87232453.514 9  21303056.22347
  21115011.344 6  21115025.379 9 110960133.323 6  86462495.847 9  21115024.51649
  23589405.711 5  23589419.441 9 123963175.699 5  96594700.810 9  23589419.51648
  21123201.508 6                 111003169.271 6  86496002.65148  21123207.89548
  22481998.492 5  22482013.277 9 118143693.260 5  92060076.171 9  22482012.75847
  19855100.203 7  19855109.223 9 104339245.831 7  81303331.648 9  19855108.85949
  23626662.602 5  23626685.035 8 124158951.396 5  96747254.449 8  23626683.81646
  23073798.016 5  23073817.566 8 121253614.751 5  94483415.491 8  23073815.57447
 23  3 10  2 53 25.0000000  0  8G04G08G09G16G26G27G28G31            
  21302636.695 6  21302646.066 9 111946110.457 6  87230771.571 9  21302645.26648
  21114309.938 6  21114323.906 9 110956446.683 6  86459623.139 9  21114322.87549
  23588696.102 5  23588709.766 9 123959446.727 5  96591795.115 9  23588709.85248
  21123150.742 6                 111002901.568 6  86495794.04748  21123156.71948
  22482093.625 5  22482108.723 9 118144194.836 5  92060467.005 9  22482108.01647
  19854790.602 7  19854800.262 9 104337617.738 7  81302063.008 9  19854799.47349
  23626864.828 5  23626887.566 8 124160016.384 5  96748084.319 8  23626886.43046
  23073923.086 6  23073943.668 8 121254274.653 6  94483929.690 8  23073941.93447
 23  3 10  2 53 26.0000000  0  8G04G08G09G16G26G27G28G31            
  21302226.094 6  21302235.680 9 111943952.914 6  87229090.367 9  21302234.92648
  21113608.625 6  21113622.258 9 110952760.804 6  86456751.027 9  21113621.23449
  23587986.703 5  23588000.480 9 123955718.488 5  96588890.002 9  23588000.61348
  21123100.000 6                 111002634.276 6  86495585.76548  21123106.02748
  22482189.188 5  22482204.602 9 118144696.723 5  92060858.077 9  22482203.74247
  19854480.789 7  19854490.234 9 104335990.590 7  81300795.097 9  19854489.76249
  23627067.195 5  23627090.133 9 124161081.923 5  96748914.610 9  23627089.09046
  23074048.828 6  23074069.145 8 121254935.094 6  94484444.315 8  23074067.35947
 23  3 10  2 53 27.0000000  0  8G04G08G09G16G26G27G28G31            
  21301815.938 6  21301824.930 9 111941796.153 6  87227409.774 9  21301824.48848
  21112907.313 6  21112921.199 9 110949075.616 6  86453879.452 9  21112920.11749
  23587277.195 5  23587290.914 9 123951990.846 5  96585985.355 9  23587290.96548
  21123048.992 6                 111002367.335 6  86495377.75048  21123055.33648
  22482284.523 5  22482299.285 9 118145198.778 5  92061249.271 9  22482298.92247
  19854171.211 7  19854180.762 9 104334364.309 7  81299527.858 9  19854180.30149
  23627270.625 5  23627293.121 9 124162147.932 5  96749745.264 9  23627291.99246
  23074174.969 6  23074194.953 8 121255596.023 6  94484959.314 8  23074193.26247
 23  3 10  2 53 28.0000000  0  8G04G08G09G16G26G27G28G31            
  21301405.391 6  21301414.688 9 111939640.243 6  87225729.837 9  21301414.26248
  21112206.031 6  21112220.031 9 110945391.130 6  86451008.435 9  21112218.92649
  23586567.852 5  23586581.758 9 123948263.840 5  96583081.199 9  23586581.82448
  21122998.156 6                 111002100.706 6  86495169.98848  21123004.89848
  22482380.234 5  22482395.520 9 118145700.976 5  92061640.589 9  22482394.96947
  19853862.148 7  19853871.586 9 104332738.885 7  81298261.291 9  19853870.93449
  23627473.758 5  23627495.961 9 124163214.388 5  96750576.273 9  23627494.95346
  23074300.430 5  23074320.805 8 121256257.402 5  94485474.670 8  23074318.95347
 23  3 10  2 53 29.0000000  0  8G04G08G09G16G26G27G28G31            
  21300995.891 6  21301004.887 9 111937485.166 6  87224050.555 9  21301004.08648
  21111504.953 6  21111518.809 9 110941707.365 6  86448137.969 9  21111517.68049
  23585858.648 5  23585872.691 9 123944537.583 5  96580177.625 9  23585872.78548
  21122947.617 6                 111001834.479 6  86494962.54048  21122954.17648
  22482475.945 5  22482490.578 9 118146203.396 5  92062032.076 9  22482490.12547
  19853553.367 7  19853562.539 9 104331114.391 7  81296995.451 9  19853562.09049
  23627676.336 5  23627699.012 9 124164281.395 5  96751407.716 9  23627698.07447
  23074426.484 6  23074446.699 9 121256919.305 6  94485990.424 9  23074444.99247
 23  3 10  2 53 30.0000000  0  8G04G08G09G16G26G27G28G31            
  21300585.859 6  21300594.957 9 111935331.169 6  87222372.113 9  21300594.27048
  21110804.094 6  21110818.160 9 110938024.571 6  86445268.265 9  21110816.99649
  23585149.695 5  23585164.336 9 123940812.161 5  96577274.694 9  23585164.24648
  21122896.734 6                 111001568.819 6  86494755.52348  21122903.21148
  22482571.727 5  22482586.836 9 118146706.227 5  92062423.878 9  22482586.18447
  19853244.055 7  19853253.645 9 104329491.021 7  81295730.485 9  19853253.21149
  23627879.852 5  23627902.480 8 124165349.095 5  96752239.698 8  23627901.55946
  23074552.297 6  23074572.695 9 121257581.880 6  94486506.705 9  23074571.13347
 23  3 10  2 53 31.0000000  0  8G04G08G09G16G26G27G28G31            
  21300176.336 6  21300185.527 9 111933178.283 6  87220694.531 9  21300184.56348
  21110103.656 6  21110117.828 9 110934342.767 6  86442399.312 9  21110116.71149
  23584440.867 5  23584454.992 8 123937087.647 5  96574372.469 8  23584455.24248
  21122846.109 6                 111001303.800 6  86494549.00748  21122852.83648
  22482668.117 5  22482682.668 9 118147209.560 5  92062816.073 9  22482681.93047
  19852935.391 7  19852944.117 9 104327868.815 7  81294466.429 9  19852943.71949
  23628083.016 5  23628105.543 8 124166417.577 5  96753072.288 8  23628104.73846
  23074678.367 6  23074699.004 9 121258245.231 6  94487023.589 9  23074697.23847
 23  3 10  2 53 32.0000000  0  8G04G08G09G16G26G27G28G31            
  21299766.836 6  21299776.020 9 111931026.306 6  87219017.663 9  21299775.05547
  21109403.344 6  21109417.289 9 110930661.744 6  86439530.977 9  21109415.93449
  23583732.820 5  23583746.504 8 123933363.884 5  96571470.835 8  23583746.59448
  21122796.063 6                 111001039.196 6  86494342.81748  21122802.96948
  22482763.445 5  22482778.641 9 118147713.133 5  92063208.469 9  22482777.80547
  19852626.961 7  19852636.027 9 104326247.556 7  81293203.102 9  19852635.51649
  23628286.508 5  23628308.906 8 124167486.626 5  96753905.314 8  23628308.07046
  23074805.219 6  23074825.164 8 121258909.130 6  94487540.900 8  23074823.52347
 23  3 10  2 53 33.0000000  0  8G04G08G09G16G26G27G28G31            
  21299357.250 6  21299366.250 9 111928875.058 6  87217341.354 9  21299365.54347
  21108702.875 6  21108716.855 9 110926981.326 6  86436663.112 9  21108715.41849
  23583023.695 5  23583038.262 8 123929640.686 5  96568569.645 8  23583038.18448
  21122745.539 6                 111000774.841 6  86494136.82947  21122752.42647
  22482859.602 5  22482873.883 9 118148216.803 5  92063600.941 9  22482873.30547
  19852318.477 7  19852328.141 9 104324627.091 7  81291940.398 9  19852327.37949
  23628490.406 5  23628511.941 8 124168556.058 5  96754738.652 8  23628511.37946
  23074931.484 6  23074952.090 8 121259573.399 6  94488058.510 8  23074950.36347
 23  3 10  2 53 34.0000000  0  8G04G08G09G16G26G27G28G31            
  21298947.984 6  21298957.289 9 111926724.690 6  87215665.730 9  21298956.75448
  21108002.438 6  21108017.109 9 110923301.683 6  86433795.858 9  21108015.58649
  23582315.813 5  23582329.910 8 123925918.165 5  96565668.991 8  23582330.01248
  21122695.250 6                 111000510.909 6  86493931.16847  21122702.13747
  22482955.305 5  22482970.047 9 118148720.699 5  92063993.578 9  22482969.43047
  19852010.477 7  19852020.070 9 104323007.566 7  81290678.428 9  19852019.41449
  23628694.000 5  23628716.453 8 124169626.057 5  96755572.423 8  23628715.46947
  23075057.789 5  23075078.328 8 121260238.218 5  94488576.548 8  23075076.67247
 23  3 10  2 53 35.0000000  0  8G04G08G09G16G26G27G28G31            
  21298539.086 6  21298548.023 9 111924575.002 6  87213990.651 9  21298547.60947
  21107302.250 6  21107316.594 9 110919622.576 6  86430929.021 9  21107315.10949
  23581607.641 5  23581621.215 8 123922196.158 5  96562768.731 8  23581621.36348
  21122645.047 6                 111000247.134 6  86493725.62748  21122651.92648
  22483051.289 5  22483065.621 9 118149224.635 5  92064386.255 9  22483064.96947
  19851702.195 7  19851711.730 9 104321388.736 7  81289417.001 9  19851710.86349
  23628897.031 5  23628919.906 8 124170696.313 5  96756406.388 8  23628919.06346
  23075184.664 6  23075204.582 8 121260903.338 6  94489094.828 8  23075203.09447
 23  3 10  2 53 36.0000000  0  8G04G08G09G16G26G27G28G31            
  21298129.969 6  21298139.020 9 111922426.354 6  87212316.376 9  21298138.55148
  21106602.398 6  21106616.766 9 110915944.415 6  86428062.930 9  21106615.29349
  23580899.703 5  23580913.371 9 123918474.965 5  96559869.095 9  23580913.27748
  21122595.289 6                 110999983.932 6  86493520.53348  21122601.91848
  22483146.922 5  22483161.590 9 118149728.911 5  92064779.183 9  22483161.22347
  19851394.516 7  19851404.195 9 104319771.008 7  81288156.438 9  19851403.63749
  23629101.219 5  23629123.527 8 124171767.302 5  96757240.963 8  23629122.86346
  23075310.930 5  23075331.699 8 121261569.137 5  94489613.627 8  23075330.07047
 23  3 10  2 53 37.0000000  0  8G04G08G09G16G26G27G28G31            
  21297721.227 6  21297730.492 9 111920278.608 6  87210642.802 9  21297730.13347
  21105902.820 6  21105916.969 9 110912267.051 6  86425197.449 9  21105915.68449
  23580191.266 5  23580205.297 9 123914754.549 5  96556970.072 9  23580205.13748
  21122544.992 6                 110999721.147 6  86493315.75948  21122551.50848
  22483243.750 5  22483257.840 9 118150233.521 5  92065172.378 9  22483257.34447
  19851086.922 7  19851096.469 9 104318154.246 7  81286896.626 9  19851095.65249
  23629304.445 5  23629327.016 8 124172838.868 5  96758075.981 8  23629326.37546
  23075438.031 5  23075458.449 8 121262235.522 5  94490132.863 8  23075456.87547
 23  3 10  2 53 38.0000000  0  8G04G08G09G16G26G27G28G31            
  21297312.836 6  21297321.949 9 111918131.811 6  87208969.965 9  21297321.91448
  21105203.109 6  21105217.297 9 110908590.501 6  86422332.609 9  21105215.96549
  23579483.492 5  23579497.871 9 123911034.879 5  96554071.636 9  23579497.64548
  21122494.953 6                 110999458.826 6  86493111.33748  21122501.66448
  22483339.500 5  22483353.898 9 118150738.379 5  92065565.752 9  22483353.56647
  19850779.375 7  19850789.051 9 104316538.491 7  81285637.591 9  19850788.17249
  23629509.211 5  23629531.164 8 124173911.054 5  96758911.462 8  23629530.61346
  23075565.438 5  23075585.414 8 121262902.441 5  94490652.529 8  23075583.71547
 23  3 10  2 53 39.0000000  0  8G04G08G09G16G26G27G28G31            
  21296904.297 6  21296913.027 9 111915985.667 6  87207297.642 9  21296913.09448
  21104503.711 6  21104518.102 9 110904914.486 6  86419468.180 9  21104516.44549
  23578775.719 5  23578790.184 9 123907315.663 5  96551173.548 9  23578790.03148
  21122445.195 6                 110999196.683 6  86492907.06348  21122452.19148
  22483435.570 5  22483450.445 9 118151243.269 5  92065959.154 9  22483449.72747
  19850472.023 7  19850481.516 9 104314923.422 7  81284379.098 9  19850480.63749
  23629713.797 5  23629735.512 8 124174983.507 5  96759747.141 8  23629734.62146
  23075691.891 5  23075711.898 8 121263569.658 5  94491172.435 8  23075710.71547
 23  3 10  2 53 40.0000000  0  8G04G08G09G16G26G27G28G31            
  21296496.242 6  21296505.266 9 111913840.411 6  87205626.012 9  21296505.30548
  21103804.047 6  21103818.477 9 110901239.261 6  86416604.368 9  21103817.10949
  23578068.109 5  23578082.410 9 123903597.166 5  96548276.017 9  23578082.22748
  21122395.477 6                 110998934.941 6  86492703.10748  21122402.34848
  22483531.953 5  22483546.285 9 118151748.396 5  92066352.747 9  22483545.64547
  19850164.703 7  19850174.313 9 104313309.314 7  81283121.352 9  19850173.50449
  23629917.000 5  23629939.566 8 124176056.526 5  96760583.254 8  23629938.44146
  23075818.727 5  23075838.656 8 121264237.446 5  94491692.778 8  23075837.62547
 23  3 10  2 53 41.0000000  0  8G04G08G09G16G26G27G28G31            
  21296088.055 6  21296096.910 9 111911696.233 6  87203955.223 9  21296096.96947
  21103104.984 6  21103119.297 9 110897564.899 6  86413741.227 9  21103117.75049
  23577360.641 5  23577375.008 9 123899879.586 5  96545379.203 9  23577374.64548
  21122345.867 6                 110998673.817 6  86492499.63048  21122352.08248
  22483627.688 5  22483642.504 9 118152253.964 5  92066746.690 9  22483641.64847
  19849857.742 7  19849867.484 9 104311696.311 7  81281864.470 9  19849866.73049
  23630121.828 5  23630144.043 8 124177130.247 5  96761419.923 8  23630142.76646
  23075946.180 5  23075966.328 9 121264905.938 5  94492213.671 9  23075965.00447
 23  3 10  2 53 42.0000000  0  8G04G08G09G16G26G27G28G31            
  21295679.531 6  21295689.047 9 111909552.900 6  87202285.092 9  21295689.24648
  21102405.805 6  21102420.285 9 110893891.269 6  86410878.658 9  21102418.87549
  23576653.453 5  23576667.848 9 123896162.639 5  96542482.882 9  23576667.32448
  21122296.422 6                 110998413.008 6  86492296.40648  21122302.74648
  22483723.906 5  22483738.738 9 118152759.710 5  92067140.767 9  22483737.84047
  19849550.820 7  19849560.559 9 104310084.221 7  81280608.295 9  19849559.64549
  23630326.758 5  23630348.363 8 124178204.515 5  96762257.017 8  23630347.06646
  23076073.336 5  23076093.820 8 121265574.899 5  94492734.928 8  23076092.64547
 23  3 10  2 53 43.0000000  0  8G04G08G09G16G26G27G28G31            
  21295272.227 6  21295281.273 9 111907410.422 6  87200615.637 9  21295281.66048
  21101706.758 6  21101720.715 9 110890218.376 6  86408016.665 9  21101719.48049
  23575946.055 5  23575961.391 9 123892446.354 5  96539587.074 9  23575960.60548
  21122246.609 6                 110998152.586 6  86492093.48047  21122253.43047
  22483820.008 5  22483835.039 9 118153265.643 5  92067534.986 9  22483834.27047
  19849244.352 7  19849253.734 9 104308473.004 7  81279352.805 9  19849253.00049
  23630530.555 5  23630553.020 8 124179279.244 5  96763094.469 8  23630551.62546
  23076200.703 5  23076221.320 8 121266244.352 5  94493256.576 8  23076219.84447
 23  3 10  2 53 44.0000000  0  8G04G08G09G16G26G27G28G31            
  21294864.961 6  21294874.051 9 111905268.637 6  87198946.711 9  21294874.35547
  21101008.195 6  21101022.309 9 110886546.101 6  86405155.155 9  21101020.79749
  23575239.211 5  23575254.063 8 123888730.633 5  96536691.710 8  23575253.14848
  21122197.242 6                 110997892.424 6  86491890.74847  21122203.63347
  22483916.258 5  22483931.270 9 118153771.685 5  92067929.307 9  22483930.50047
  19848938.164 7  19848947.465 9 104306862.577 7  81278097.927 9  19848946.83249
  23630735.828 5  23630757.398 8 124180354.361 5  96763932.236 8  23630756.04746
  23076328.914 5  23076348.813 8 121266914.184 5  94493778.518 8  23076347.96947
 23  3 10  2 53 45.0000000  0  8G04G08G09G16G26G27G28G31            
  21294457.484 6  21294466.078 9 111903127.464 6  87197278.255 9  21294466.38747
  21100309.180 6  21100323.711 9 110882874.273 6  86402293.996 9  21100322.25049
  23574532.180 4  23574546.508 8 123885015.298 4  96533796.637 8  23574546.04348
  21122147.383 6                 110997632.359 6  86491688.09948  21122154.63748
  22484012.813 5  22484027.539 9 118154277.646 5  92068323.555 9  22484026.45747
  19848631.914 7  19848641.117 9 104305252.804 7  81276843.562 9  19848640.43449
  23630940.867 5  23630962.141 8 124181429.750 5  96764770.194 8  23630961.01246
  23076455.523 5  23076475.980 8 121267584.255 5  94494300.643 8  23076475.25847
 23  3 10  2 53 46.0000000  0  8G04G08G09G16G26G27G28G31            
  21294050.516 6  21294059.195 9 111900987.065 6  87195610.403 9  21294059.16447
  21099610.844 6  21099624.914 9 110879203.108 6  86399433.358 9  21099623.54749
  23573825.367 4  23573839.547 9 123881300.546 4  96530902.029 9  23573838.94148
  21122098.586 6                 110997372.541 6  86491485.63548  21122104.61748
  22484109.008 5  22484123.965 9 118154783.768 5  92068717.926 9  22484122.91447
  19848325.508 7  19848334.949 9 104303643.813 7  81275589.808 9  19848334.02749
  23631145.289 5  23631166.781 8 124182505.542 5  96765608.477 8  23631165.75846
  23076582.930 5  23076603.977 8 121268254.717 5  94494823.065 8  23076603.10547
 23  3 10  2 53 47.0000000  0  8G04G08G09G16G26G27G28G31            
  21293642.781 6  21293651.719 9 111898847.694 6  87193943.362 9  21293651.74248
  21098912.727 6  21098926.457 9 110875532.860 6  86396573.421 9  21098925.03949
  23573118.094 5  23573133.535 9 123877586.646 5  96528008.081 9  23573132.53148
  21122048.703 6                 110997113.287 6  86491283.61748  21122055.50848
  22484205.188 5  22484220.645 9 118155290.229 5  92069112.562 9  22484219.63347
  19848019.438 7  19848028.789 9 104302035.929 7  81274336.905 9  19848027.68049
  23631349.875 5  23631371.414 8 124183582.008 5  96766447.299 8  23631370.53946
  23076711.125 5  23076731.699 8 121268925.856 5  94495346.013 8  23076730.96947
 23  3 10  2 53 48.0000000  0  8G04G08G09G16G26G27G28G31            
  21293236.313 6  21293245.391 9 111896708.965 6  87192276.820 9  21293245.27748
  21098213.977 6  21098227.762 9 110871863.171 6  86393713.931 9  21098226.47349
  23572411.867 5  23572426.512 9 123873873.233 5  96525114.523 9  23572425.64148
  21121999.656 6                 110996854.221 6  86491081.74948  21122006.08648
  22484302.000 5  22484317.008 9 118155796.713 5  92069507.220 9  22484315.80147
  19847713.781 7  19847722.945 9 104300428.757 7  81273084.566 9  19847722.32449
  23631554.984 5  23631576.156 8 124184658.805 5  96767286.374 8  23631575.39846
  23076839.258 5  23076859.547 8 121269597.309 5  94495869.218 8  23076858.59447
 23  3 10  2 53 49.0000000  0  8G04G08G09G16G26G27G28G31            
  21292829.211 6  21292838.242 9 111894571.070 6  87190610.929 9  21292838.13748
  21097515.789 6  21097529.996 9 110868194.160 6  86390854.962 9  21097528.66449
  23571705.328 5  23571720.508 9 123870160.484 5  96522221.480 9  23571719.71148
  21121950.305 6                 110996595.520 6  86490880.15748  21121957.07848
  22484398.008 5  22484413.766 9 118156303.378 5  92069902.015 9  22484412.93047
  19847408.094 7  19847417.320 9 104298822.486 7  81271832.922 9  19847416.69149
  23631759.484 5  23631781.223 8 124185736.067 5  96768125.804 8  23631780.33246
  23076967.375 5  23076987.473 8 121270269.246 5  94496392.795 8  23076986.44547
 23  3 10  2 53 50.0000000  0  8G04G08G09G16G26G27G28G31            
  21292422.523 6  21292432.000 9 111892434.090 6  87188945.750 9  21292431.72748
  21096817.781 6  21096831.395 9 110864525.945 6  86387996.619 9  21096830.24249
  23570999.016 5  23571013.660 9 123866448.459 5  96519328.992 9  23571013.05148
  21121901.633 6                 110996337.213 6  86490678.87848  21121907.88748
  22484494.344 5  22484509.512 9 118156810.329 5  92070297.035 9  22484509.03147
  19847102.430 7  19847111.770 9 104297217.127 7  81270581.986 9  19847111.11749
  23631964.945 5  23631986.500 8 124186813.896 5  96768965.680 8  23631985.51246
  23077094.555 5  23077115.578 9 121270941.717 5  94496916.792 9  23077114.60247
 23  3 10  2 53 51.0000000  0  8G04G08G09G16G26G27G28G31            
  21292016.109 6  21292025.680 9 111890298.027 6  87187281.287 9  21292025.38348
  21096120.359 6  21096134.668 9 110860858.483 6  86385138.856 9  21096133.39849
  23570292.398 5  23570307.125 9 123862737.145 5  96516437.060 9  23570306.45348
  21121852.625 6                 110996079.331 6  86490477.91948  21121858.81648
  22484591.344 5  22484606.426 9 118157317.528 5  92070692.246 9  22484605.71147
  19846797.383 7  19846806.305 9 104295612.757 7  81269331.830 9  19846805.73849
  23632169.750 5  23632191.492 8 124187892.352 5  96769806.037 8  23632190.61746
  23077223.102 5  23077243.180 9 121271614.758 5  94497441.233 9  23077241.82447
 23  3 10  2 53 52.0000000  0  8G04G08G09G16G26G27G28G31            
  21291609.953 6  21291619.422 9 111888162.801 6  87185617.468 9  21291619.13748
  21095422.375 6  21095436.465 9 110857191.789 6  86382281.698 9  21095435.33249
  23569586.141 5  23569601.238 9 123859026.547 5  96513545.684 9  23569600.64548
  21121802.836 6                 110995821.853 6  86490277.28848  21121810.15248
  22484687.461 5  22484702.750 9 118157824.950 5  92071087.629 9  22484702.12947
  19846492.102 7  19846501.398 9 104294009.302 7  81268082.382 9  19846501.04749
  23632374.945 5  23632397.066 8 124188971.257 5  96770646.710 8  23632395.81346
  23077350.984 5  23077371.746 9 121272288.301 5  94497966.063 9  23077370.46547
 23  3 10  2 53 53.0000000  0  8G04G08G09G16G26G27G28G31            
  21291203.469 6  21291213.191 9 111886028.473 6  87183954.353 9  21291213.12148
  21094724.859 6  21094738.125 9 110853525.825 6  86379425.106 9  21094737.02349
  23568880.438 5  23568895.051 9 123855316.602 5  96510654.818 9  23568894.37548
  21121754.141 6                 110995564.759 6  86490076.94648  21121760.86348
  22484784.039 5  22484799.121 9 118158332.595 5  92071483.180 9  22484798.82847
  19846187.266 7  19846196.637 9 104292406.773 7  81266833.652 9  19846195.86349
  23632580.258 5  23632602.492 8 124190050.695 5  96771487.842 8  23632601.27346
  23077479.656 5  23077500.008 9 121272962.339 5  94498491.279 9  23077498.92247
 23  3 10  2 53 54.0000000  0  8G04G08G09G16G26G27G28G31            
  21290797.484 6  21290806.840 9 111883895.033 6  87182291.924 9  21290806.60948
  21094027.375 6  21094041.508 9 110849860.614 6  86376569.096 9  21094040.30949
  23568174.672 5  23568189.465 9 123851607.399 5  96507764.535 9  23568188.57848
  21121705.539 6                 110995308.077 6  86489876.93548  21121712.46148
  22484881.086 5  22484895.973 9 118158840.488 5  92071878.935 9  22484895.55547
  19845882.445 7  19845891.797 9 104290805.188 7  81265585.664 9  19845891.14549
  23632786.344 5  23632807.926 8 124191130.678 5  96772329.414 8  23632806.89846
  23077608.328 5  23077628.289 8 121273636.945 5  94499016.942 8  23077627.30147
 23  3 10  2 53 55.0000000  0  8G04G08G09G16G26G27G28G31            
  21290391.703 6  21290401.387 9 111881762.465 6  87180630.174 9  21290400.92247
  21093330.297 6  21093343.516 9 110846196.191 6  86373713.703 9  21093342.34849
  23567468.227 5  23567483.887 9 123847898.834 5  96504874.729 9  23567482.70348
  21121656.227 6                 110995051.760 6  86489677.20448  21121663.45748
  22484977.664 5  22484992.660 9 118159348.594 5  92072274.850 9  22484992.13347
  19845578.125 7  19845586.977 9 104289204.508 7  81264338.379 9  19845586.28949
  23632992.203 5  23633013.762 8 124192211.234 5  96773171.429 8  23633012.76246
  23077736.055 5  23077756.219 8 121274312.050 5  94499542.990 8  23077755.25847
 23  3 10  2 53 56.0000000  0  8G04G08G09G16G26G27G28G31            
  21289986.242 6  21289995.758 9 111879630.813 6  87178969.146 9  21289995.37947
  21092632.656 6  21092646.730 9 110842532.537 6  86370858.913 9  21092645.75449
  23566763.367 5  23566778.039 8 123844191.040 5  96501985.542 8  23566777.34048
  21121607.656 6                 110994795.904 6  86489477.82548  21121614.56348
  22485074.063 5  22485089.129 9 118159856.979 5  92072670.985 9  22485088.80147
  19845273.492 7  19845282.574 9 104287604.816 7  81263091.860 9  19845281.97749
  23633197.266 5  23633219.410 8 124193292.318 5  96774013.842 8  23633218.40246
  23077865.039 5  23077884.969 8 121274987.701 5  94500069.462 8  23077884.18447
 23  3 10  2 53 57.0000000  0  8G04G08G09G16G26G27G28G31            
  21289580.656 6  21289590.262 9 111877499.876 6  87177308.669 9  21289590.22747
  21091935.766 6  21091949.789 9 110838869.486 6  86368004.587 9  21091948.45749
  23566057.914 5  23566072.426 8 123840483.774 5  96499096.768 8  23566071.60948
  21121559.227 6                 110994540.267 6  86489278.62548  21121566.14148
  22485171.570 5  22485186.164 9 118160365.432 5  92073067.174 9  22485185.88347
  19844969.172 7  19844978.637 9 104286005.879 7  81261845.938 9  19844977.82049
  23633402.367 5  23633424.625 8 124194373.803 5  96774856.557 8  23633423.78146
  23077993.383 5  23078014.051 8 121275663.719 5  94500596.223 8  23078013.36347
 23  3 10  2 53 58.0000000  0  8G04G08G09G16G26G27G28G31            
  21289175.406 6  21289184.875 9 111875369.967 6  87175648.996 9  21289184.78548
  21091238.938 6  21091252.609 9 110835207.353 6  86365150.976 9  21091251.39149
  23565353.258 5  23565367.230 8 123836777.333 5  96496208.635 8  23565366.18048
  21121510.656 6                 110994285.162 6  86489079.83348  21121517.34848
  22485268.102 5  22485283.051 9 118160874.237 5  92073463.639 9  22485282.96547
  19844665.273 7  19844674.820 9 104284408.014 7  81260600.850 9  19844673.94549
  23633609.258 5  23633630.789 8 124195455.935 5  96775699.779 8  23633629.94146
  23078122.227 5  23078142.668 8 121276340.388 5  94501123.480 8  23078141.94147
 23  3 10  2 53 59.0000000  0  8G04G08G09G16G26G27G28G31            
  21288769.758 6  21288779.930 9 111873240.887 6  87173989.966 9  21288779.86748
  21090542.414 6  21090555.844 9 110831545.970 6  86362297.951 9  21090554.85949
  23564647.797 5  23564661.852 9 123833071.603 5  96493321.053 9  23564661.14148
  21121462.453 6                 110994030.425 6  86488881.33348  21121469.00848
  22485364.648 5  22485379.574 9 118161383.272 5  92073860.275 9  22485379.37947
  19844361.016 7  19844370.195 9 104282811.055 7  81259356.459 9  19844369.53549
  23633814.656 5  23633836.699 8 124196538.588 5  96776543.403 8  23633835.80946
  23078251.445 5  23078271.488 8 121277017.564 5  94501651.140 8  23078270.69947
 23  3 10  2 54  0.0000000  0  8G04G08G09G16G26G27G28G31            
  21288365.188 6  21288374.641 9 111871112.460 6  87172331.448 9  21288374.42648
  21089845.492 6  21089859.363 9 110827885.102 6  86359445.323 9  21089858.05149
  23563942.688 5  23563956.902 9 123829366.323 5  96490433.821 9  23563956.12948
  21121414.211 6                 110993775.814 6  86488682.93848  21121420.39848
  22485461.742 5  22485476.402 9 118161892.292 5  92074256.903 9  22485476.40647
  19844057.375 7  19844066.711 9 104281214.777 7  81258112.608 9  19844066.01249
  23634020.320 5  23634042.766 8 124197621.528 5  96777387.251 8  23634041.78946
  23078380.492 5  23078400.602 9 121277695.004 5  94502179.006 9  23078399.65247
 23  3 10  2 54  1.0000000  0  8G04G08G09G16G26G27G28G31            
  21287960.422 6  21287969.887 9 111868984.846 6  87170673.564 9  21287969.84048
  21089149.188 6  21089162.746 9 110824224.904 6  86356593.224 9  21089161.55149
  23563237.609 5  23563251.984 9 123825661.628 5  96487547.040 9  23563251.29748
  21121365.797 6                 110993521.562 6  86488484.81748  21121372.09848
  22485558.883 5  22485573.527 9 118162401.455 5  92074653.646 9  22485573.36347
  19843753.570 7  19843763.379 9 104279619.369 7  81256869.428 9  19843762.46549
  23634227.008 5  23634249.117 8 124198704.923 5  96778231.456 8  23634247.84446
  23078509.109 5  23078529.645 9 121278372.903 5  94502707.229 9  23078528.64847
 23  3 10  2 54  2.0000000  0  8G04G08G09G16G26G27G28G31            
  21287555.469 6  21287564.859 9 111866858.098 6  87169016.353 9  21287564.91848
  21088452.648 6  21088466.977 9 110820565.460 6  86353741.705 9  21088465.53149
  23562532.289 5  23562546.957 9 123821957.660 5  96484660.837 9  23562546.44948
  21121317.203 6                 110993267.695 6  86488286.99548  21121323.75848
  22485655.836 5  22485670.551 9 118162910.897 5  92075050.606 9  22485670.18047
  19843450.281 7  19843460.160 9 104278024.878 7  81255626.969 9  19843459.30549
  23634433.344 5  23634455.734 8 124199788.861 5  96779076.086 8  23634454.60946
  23078637.969 5  23078658.477 9 121279051.334 5  94503235.866 9  23078657.48847
 23  3 10  2 54  3.0000000  0  8G04G08G09G16G26G27G28G31            
  21287151.188 6  21287160.082 9 111864732.272 6  87167359.861 9  21287160.12548
  21087756.523 6  21087770.262 9 110816906.812 6  86350890.813 9  21087769.07449
  23561827.680 5  23561841.938 9 123818254.407 5  96481775.188 9  23561841.65648
  21121268.797 6                 110993014.238 6  86488089.49248  21121275.64848
  22485752.664 5  22485767.668 9 118163420.547 5  92075447.730 9  22485767.14147
  19843147.117 7  19843156.914 9 104276431.364 7  81254385.271 9  19843156.03549
  23634639.813 5  23634662.176 8 124200873.358 5  96779921.155 8  23634660.84446
  23078766.969 5  23078787.672 9 121279730.276 5  94503764.903 9  23078786.87147
 23  3 10  2 54  4.0000000  0  8G04G08G09G16G26G27G28G31            
  21286746.609 6  21286756.145 9 111862607.110 6  87165703.886 9  21286756.06648
  21087060.273 6  21087074.414 9 110813248.717 6  86348040.346 9  21087073.02749
  23561123.344 5  23561137.676 9 123814551.656 5  96478889.932 9  23561137.25048
  21121220.641 6                 110992760.992 6  86487892.14848  21121227.46548
  22485849.563 5  22485864.164 9 118163930.262 5  92075844.905 9  22485863.75447
  19842844.063 7  19842853.457 9 104274838.549 7  81253144.116 9  19842852.58249
  23634846.258 5  23634868.227 8 124201958.198 5  96780766.497 8  23634866.99646
  23078896.414 5  23078916.930 9 121280409.586 5  94504294.230 9  23078916.20347
 23  3 10  2 54  5.0000000  0  8G04G08G09G16G26G27G28G31            
  21286342.656 6  21286351.797 9 111860482.834 6  87164048.603 9  21286351.77048
  21086364.117 6  21086378.426 9 110809591.335 6  86345190.437 9  21086376.93449
  23560418.703 5  23560432.727 9 123810849.581 5  96476005.195 9  23560432.48048
  21121172.750 6                 110992508.124 6  86487695.10148  21121179.53548
  22485946.508 5  22485961.602 9 118164440.186 5  92076242.235 9  22485960.91447
  19842541.016 7  19842550.813 9 104273246.667 7  81251903.686 9  19842550.27049
  23635053.227 5  23635075.215 8 124203043.557 5  96781612.232 8  23635073.91846
  23079025.477 5  23079046.352 9 121281089.380 5  94504823.932 9  23079045.72747
 23  3 10  2 54  6.0000000  0  8G04G08G09G16G26G27G28G31            
  21285938.547 6  21285947.516 9 111858359.409 6  87162393.983 9  21285947.49648
  21085668.648 6  21085682.344 9 110805934.767 6  86342341.161 9  21085681.05949
  23559714.000 4  23559728.492 9 123807148.254 4  96473121.052 9  23559728.31648
  21121124.508 6                 110992255.659 6  86487498.37448  21121131.28948
  22486043.922 5  22486058.914 9 118164950.353 5  92076639.758 9  22486058.14547
  19842238.195 7  19842248.379 9 104271655.736 7  81250664.003 9  19842247.38749
  23635259.383 5  23635281.734 8 124204129.469 5  96782458.405 8  23635280.42646
  23079155.164 5  23079176.230 9 121281769.711 5  94505354.051 9  23079175.03947
 23  3 10  2 54  7.0000000  0  8G04G08G09G16G26G27G28G31            
  21285534.773 6  21285543.391 9 111856236.771 6  87160739.979 9  21285543.48447
  21084972.648 6  21084986.582 9 110802278.771 6  86339492.333 9  21084985.11749
  23559009.719 5  23559024.230 9 123803447.497 5  96470237.349 9  23559023.63348
  21121076.391 6                 110992003.470 6  86487301.85548  21121083.78948
  22486140.555 5  22486155.629 9 118165460.624 5  92077037.361 9  22486155.16047
  19841935.875 7  19841945.180 9 104270065.591 7  81249424.922 9  19841944.64149
  23635466.266 5  23635488.664 8 124205215.747 5  96783304.860 8  23635487.11346
  23079284.852 5  23079305.895 8 121282450.415 5  94505884.460 8  23079304.80547
 23  3 10  2 54  8.0000000  0  8G04G08G09G16G26G27G28G31            
  21285131.172 6  21285139.957 9 111854115.036 6  87159086.679 9  21285140.10947
  21084276.992 6  21084290.988 9 110798623.588 6  86336644.138 9  21084289.88349
  23558306.172 5  23558320.328 8 123799747.425 5  96467354.181 8  23558319.85948
  21121028.789 6                 110991751.682 6  86487105.64948  21121036.02048
  22486238.094 5  22486253.254 9 118165971.136 5  92077435.153 9  22486252.71147
  19841633.297 7  19841643.246 9 104268476.396 7  81248186.591 9  19841642.62949
  23635673.023 5  23635695.316 8 124206302.606 5  96784151.767 8  23635694.19146
  23079414.398 5  23079435.324 8 121283131.701 5  94506415.325 8  23079434.16447
 23  3 10  2 54  9.0000000  0  8G04G08G09G16G26G27G28G31            
  21284727.023 6  21284736.262 9 111851994.127 6  87157434.024 9  21284736.50447
  21083581.180 6  21083595.668 9 110794969.127 6  86333796.508 9  21083594.28149
  23557601.961 5  23557616.102 8 123796048.021 5  96464471.527 8  23557615.93048
  21120981.078 6                 110991500.252 6  86486909.72848  21120987.77048
  22486335.273 5  22486350.363 9 118166481.849 5  92077833.098 9  22486349.91447
  19841331.008 7  19841340.438 9 104266888.099 7  81246948.960 9  19841339.96149
  23635879.742 5  23635901.910 8 124207389.957 5  96784999.063 8  23635901.05146
  23079543.734 5  23079564.309 8 121283813.438 5  94506946.541 8  23079563.68447
 23  3 10  2 54 10.0000000  0  8G04G08G09G16G26G27G28G31            
  21284323.680 6  21284333.090 9 111849873.987 6  87155781.968 9  21284332.77048
  21082885.914 6  21082900.906 9 110791315.292 6  86330949.362 9  21082899.23049
  23556898.313 5  23556912.113 8 123792349.208 5  96461589.337 8  23556912.13748
  21120932.852 6                 110991249.135 6  86486714.04348  21120940.08648
  22486432.539 5  22486447.730 9 118166992.694 5  92078231.153 9  22486447.29747
  19841029.039 7  19841038.352 9 104265300.634 7  81245711.972 9  19841037.78549
  23636086.766 5  23636108.793 8 124208477.736 5  96785846.686 8  23636108.08246
  23079673.898 5  23079694.277 8 121284495.641 5  94507478.119 8  23079693.76247
 23  3 10  2 54 11.0000000  0  8G04G08G09G16G26G27G28G31            
  21283920.695 6  21283929.852 9 111847754.800 6  87154130.655 9  21283929.69148
  21082190.805 6  21082205.621 9 110787662.285 6  86328102.866 9  21082204.34049
  23556194.727 5  23556208.289 9 123788651.167 5  96458707.749 9  23556208.03148
  21120885.398 6                 110990998.450 6  86486518.70248  21120892.68448
  22486529.898 5  22486544.598 9 118167503.829 5  92078629.431 9  22486543.95747
  19840726.969 7  19840736.867 9 104263714.138 7  81244475.741 9  19840736.34449
  23636294.125 5  23636315.813 8 124209566.119 5  96786694.783 8  23636314.96546
  23079804.453 5  23079824.180 8 121285178.368 5  94508010.104 8  23079823.32447
 23  3 10  2 54 12.0000000  0  8G04G08G09G16G26G27G28G31            
  21283517.602 6  21283526.449 9 111845636.492 6  87152480.021 9  21283526.37948
  21081496.102 6  21081510.469 9 110784010.023 6  86325256.951 9  21081509.14149
  23555490.953 5  23555505.215 9 123784953.811 5  96455826.693 9  23555504.92648
  21120837.320 6                 110990748.154 6  86486323.65948  21120844.66848
  22486627.383 5  22486642.363 9 118168015.193 5  92079027.886 9  22486641.96947
  19840425.258 7  19840434.699 9 104262128.595 7  81243240.249 9  19840434.19149
  23636501.641 5  23636523.527 8 124210655.027 5  96787543.284 8  23636522.71546
  23079934.281 5  23079954.223 8 121285861.642 5  94508542.519 8  23079953.67247
 23  3 10  2 54 13.0000000  0  8G04G08G09G16G26G27G28G31            
  21283114.664 6  21283123.742 9 111843519.131 6  87150830.133 9  21283123.57048
  21080801.359 6  21080815.184 9 110780358.647 6  86322411.729 9  21080813.92249
  23554787.352 5  23554801.492 9 123781257.260 5  96452946.271 9  23554801.29748
  21120789.969 6                 110990498.356 6  86486129.00348  21120797.05148
  22486724.383 5  22486740.078 9 118168526.888 5  92079426.603 9  22486739.69547
  19840123.711 7  19840133.035 9 104260544.060 7  81242005.541 9  19840132.51649
  23636708.867 5  23636731.035 9 124211744.565 5  96788392.279 9  23636730.06346
  23080063.938 5  23080084.566 8 121286545.522 5  94509075.409 8  23080083.85547
 23  3 10  2 54 14.0000000  0  8G04G08G09G16G26G27G28G31            
  21282711.734 6  21282721.617 9 111841402.612 6  87149180.899 9  21282721.10948
  21080106.906 6  21080120.680 9 110776707.957 6  86319567.035 9  21080119.43449
  23554084.172 5  23554098.117 9 123777561.348 5  96450066.341 9  23554097.86348
  21120742.320 6                 110990248.863 6  86485934.58648  21120749.92648
  22486821.828 5  22486836.594 9 118169038.753 5  92079825.443 9  22486836.50447
  19839822.313 7  19839831.801 9 104258960.387 7  81240771.508 9  19839831.48049
  23636916.086 5  23636938.254 9 124212834.531 5  96789241.604 9  23636937.24246
  23080194.547 5  23080214.617 8 121287229.884 5  94509608.674 8  23080213.77747
 23  3 10  2 54 15.0000000  0  8G04G08G09G16G26G27G28G31            
  21282309.172 6  21282318.676 9 111839286.843 6  87147532.245 9  21282318.24648
  21079411.727 6  21079425.676 9 110773057.877 6  86316722.818 9  21079424.35549
  23553381.148 4  23553395.023 9 123773865.979 4  96447186.832 9  23553394.78148
  21120695.336 6                 110989999.652 6  86485740.39848  21120701.94148
  22486919.313 5  22486934.164 9 118169550.717 5  92080224.369 9  22486933.79347
  19839521.383 7  19839530.461 9 104257377.520 7  81239538.103 9  19839530.03549
  23637123.875 5  23637145.742 9 124213924.971 5  96790091.296 9  23637144.59846
  23080324.797 6  23080344.879 9 121287914.601 6  94510142.206 9  23080344.07447
 23  3 10  2 54 16.0000000  0  8G04G08G09G16G26G27G28G31            
  21281906.438 6  21281916.008 9 111837171.971 6  87145884.287 9  21281915.74648
  21078717.547 6  21078731.547 9 110769408.633 6  86313879.258 9  21078730.29749
  23552677.797 4  23552692.516 9 123770171.380 4  96444307.923 9  23552691.70748
  21120648.234 6                 110989750.870 6  86485546.54148  21120654.52748
  22487016.828 5  22487031.625 9 118170062.932 5  92080623.489 9  22487031.53147
  19839220.148 7  19839229.621 9 104255795.612 7  81238305.441 9  19839229.05149
  23637331.289 5  23637353.797 9 124215015.950 5  96790941.417 9  23637352.56346
  23080454.547 5  23080475.469 9 121288599.893 5  94510676.191 9  23080474.35547
 23  3 10  2 54 17.0000000  0  8G04G08G09G16G26G27G28G31            
  21281504.484 6  21281513.832 9 111835058.109 6  87144237.116 9  21281513.52348
  21078023.344 6  21078037.449 9 110765760.290 6  86311036.390 9  21078035.92249
  23551975.516 4  23551989.340 9 123766477.552 4  96441429.613 9  23551988.82448
  21120600.688 6                 110989502.613 6  86485353.09248  21120607.75048
  22487114.438 5  22487128.727 9 118170575.508 5  92081022.887 9  22487128.72347
  19838919.133 7  19838928.277 9 104254214.757 7  81237073.607 9  19838928.08249
  23637538.563 5  23637560.777 8 124216107.566 5  96791792.029 8  23637559.83646
  23080585.516 5  23080606.109 9 121289285.825 5  94511210.680 9  23080604.76247
 23  3 10  2 54 18.0000000  0  8G04G08G09G16G26G27G28G31            
  21281102.344 6  21281111.953 9 111832945.041 6  87142590.566 9  21281111.41848
  21077328.922 6  21077342.633 9 110762112.615 6  86308194.050 9  21077341.57849
  23551272.156 4  23551286.348 9 123762784.388 4  96438551.818 9  23551285.67648
  21120553.422 6                 110989254.648 6  86485159.87448  21120560.39548
  22487212.016 5  22487227.008 9 118171088.245 5  92081422.412 9  22487226.85547
  19838618.766 7  19838628.082 9 104252634.749 7  81235842.429 9  19838627.67649
  23637746.984 5  23637769.023 8 124217199.663 5  96792643.019 8  23637768.01646
  23080716.125 5  23080736.625 9 121289972.198 5  94511745.508 9  23080735.68047
 23  3 10  2 54 19.0000000  0  8G04G08G09G16G26G27G28G31            
  21280700.109 6  21280710.145 9 111830832.604 6  87140944.506 9  21280709.41447
  21076635.227 6  21076648.992 9 110758465.436 6  86305352.099 9  21076647.64549
  23550569.492 4  23550584.152 9 123759091.691 4  96435674.396 9  23550583.32448
  21120506.453 6                 110989006.862 6  86484966.78348  21120513.19548
  22487309.539 5  22487324.383 9 118171601.000 5  92081821.948 9  22487324.06647
  19838318.336 7  19838327.559 9 104251055.450 7  81234611.810 9  19838327.10249
  23637954.109 5  23637976.895 8 124218292.040 5  96793494.220 8  23637976.00846
  23080846.922 5  23080866.637 8 121290658.827 5  94512280.540 8  23080865.71147
 23  3 10  2 54 20.0000000  0  8G04G08G09G16G26G27G28G31            
  21280298.469 6  21280308.324 9 111828721.010 6  87139299.104 9  21280307.77347
  21075941.594 6  21075955.105 9 110754818.939 6  86302510.676 9  21075953.75049
  23549866.758 4  23549881.430 8 123755399.600 4  96432797.441 8  23549880.73448
  21120459.195 6                 110988759.391 6  86484773.94648  21120466.50848
  22487407.195 5  22487421.953 8 118172113.868 5  92082221.573 8  22487421.75047
  19838017.961 7  19838027.016 9 104249477.000 7  81233381.845 9  19838026.49249
  23638162.938 5  23638184.664 8 124219384.882 5  96794345.790 8  23638183.83646
  23080977.680 5  23080998.074 8 121291345.969 5  94512815.969 8  23080996.82047
 23  3 10  2 54 21.0000000  0  8G04G08G09G16G26G27G28G31            
  21279896.984 6  21279906.199 9 111826610.070 6  87137654.221 9  21279905.78547
  21075247.766 6  21075261.469 9 110751172.995 6  86299669.686 9  21075260.09049
  23549164.461 4  23549178.984 8 123751708.015 4  96429920.880 8  23549178.49648
  21120412.219 6                 110988512.110 6  86484581.25748  21120419.48448
  22487504.602 5  22487519.672 9 118172626.782 5  92082621.241 9  22487519.28547
  19837717.656 7  19837727.438 9 104247899.274 7  81232152.448 9  19837726.84049
  23638371.047 5  23638392.570 8 124220478.093 5  96795197.647 8  23638391.95746
  23081108.750 5  23081128.656 8 121292033.369 5  94513351.602 8  23081127.60947
 23  3 10  2 54 22.0000000  0  8G04G08G09G16G26G27G28G31            
  21279495.156 6  21279505.266 9 111824500.277 6  87136010.216 9  21279505.01647
  21074553.836 6  21074567.648 9 110747528.056 6  86296829.477 9  21074566.18849
  23548461.859 4  23548476.918 8 123748017.371 4  96427045.051 8  23548476.21948
  21120365.430 6                 110988265.463 6  86484389.05248  21120372.36348
  22487602.664 5  22487617.465 9 118173140.192 5  92083021.291 9  22487617.24647
  19837417.492 7  19837426.953 9 104246322.732 7  81230923.976 9  19837426.25049
  23638579.461 5  23638600.840 8 124221572.041 5  96796050.085 8  23638600.30146
  23081239.664 5  23081259.656 8 121292721.603 5  94513887.884 8  23081258.64547
 23  3 10  2 54 23.0000000  0  8G04G08G09G16G26G27G28G31            
  21279093.641 6  21279103.934 9 111822391.484 6  87134366.996 9  21279103.35947
  21073860.742 6  21073874.383 9 110743883.982 6  86293989.939 9  21073873.39849
  23547759.695 4  23547774.246 9 123744327.563 4  96424169.882 9  23547773.53948
  21120318.313 6                 110988019.368 6  86484197.28748  21120325.48848
  22487700.438 5  22487714.863 9 118173653.956 5  92083421.622 9  22487714.66447
  19837117.766 7  19837127.281 9 104244747.256 7  81229696.328 9  19837126.40649
  23638787.641 5  23638808.852 8 124222666.663 5  96796903.037 8  23638808.81646
  23081370.719 5  23081390.836 8 121293410.446 5  94514424.636 8  23081389.50047
 23  3 10  2 54 24.0000000  0  8G04G08G09G16G26G27G28G31            
  21278692.680 6  21278702.172 9 111820283.385 6  87132724.312 9  21278701.92648
  21073167.328 6  21073180.629 9 110740240.496 6  86291150.863 9  21073179.48049
  23547057.953 4  23547072.371 9 123740638.295 4  96421295.138 9  23547071.94948
  21120271.648 6                 110987773.474 6  86484005.67848  21120278.62948
  22487797.695 5  22487812.207 9 118174167.767 5  92083821.983 9  22487812.30547
  19836818.414 7  19836827.605 9 104243172.502 7  81228469.241 9  19836826.52749
  23638995.492 5  23639017.473 8 124223761.618 5  96797756.247 8  23639017.16446
  23081501.383 5  23081522.332 8 121294099.611 5  94514961.646 8  23081521.01647
 23  3 10  2 54 25.0000000  0  8G04G08G09G16G26G27G28G31            
  21278292.195 6  21278301.094 9 111818176.073 6  87131082.245 9  21278300.93048
  21072473.953 6  21072487.723 9 110736597.651 6  86288312.287 9  21072486.24649
  23546356.008 4  23546370.340 9 123736949.574 4  96418420.810 9  23546369.97748
  21120225.586 6                 110987527.849 6  86483814.27848  21120231.62548
  22487895.789 5  22487910.285 9 118174681.700 5  92084222.442 9  22487910.21147
  19836518.945 7  19836528.234 9 104241598.590 7  81227242.816 9  19836527.34049
  23639203.656 5  23639226.262 8 124224857.037 5  96798609.817 8  23639225.46146
  23081633.039 5  23081653.363 8 121294789.217 5  94515498.987 8  23081651.69947
 23  3 10  2 54 26.0000000  0  8G04G08G09G16G26G27G28G31            
  21277890.977 6  21277900.063 9 111816069.612 6  87129440.843 9  21277899.92248
  21071780.992 6  21071794.844 9 110732955.561 6  86285474.300 9  21071793.24249
  23545654.641 4  23545668.965 9 123733261.568 4  96415547.038 9  23545668.56348
  21120178.414 6                 110987282.618 6  86483623.18548  21120185.46548
  22487993.820 5  22488008.660 9 118175195.855 5  92084623.076 9  22488008.23047
  19836219.500 7  19836228.777 9 104240025.592 7  81226017.104 9  19836228.00049
  23639412.859 5  23639434.836 9 124225952.945 5  96799463.771 9  23639434.23046
  23081764.234 5  23081784.867 8 121295479.313 5  94516036.719 8  23081783.50447
 23  3 10  2 54 27.0000000  0  8G04G08G09G16G26G27G28G31            
  21277489.922 6  21277499.602 9 111813963.843 6  87127799.976 9  21277499.41048
  21071088.000 6  21071101.551 9 110729314.048 6  86282636.759 9  21071100.38349
  23544952.578 5  23544966.992 9 123729574.114 5  96412673.697 9  23544966.60248
  21120131.688 6                 110987037.611 6  86483432.26248  21120138.93848
  22488091.242 5  22488106.664 9 118175710.076 5  92085023.765 9  22488106.32047
  19835920.180 7  19835929.516 9 104238453.343 7  81224791.978 9  19835928.46549
  23639621.336 5  23639643.195 9 124227049.233 5  96800318.027 9  23639642.71947
  23081895.844 5  23081916.023 9 121296169.785 5  94516574.740 9  23081914.60247
 23  3 10  2 54 28.0000000  0  8G04G08G09G16G26G27G28G31            
  21277089.609 6  21277099.129 9 111811859.148 6  87126159.952 9  21277098.61348
  21070395.250 6  21070408.770 9 110725673.490 6  86279799.962 9  21070407.67649
  23544251.109 5  23544265.824 9 123725887.510 5  96409801.021 9  23544264.92648
  21120085.117 6                 110986793.185 6  86483241.80048  21120092.09448
  22488189.375 5  22488204.098 9 118176224.708 5  92085424.766 9  22488203.87147
  19835621.273 7  19835631.195 9 104236882.226 7  81223567.729 9  19835630.27749
  23639830.063 5  23639851.660 9 124228146.236 5  96801172.843 9  23639851.28146
  23082027.289 5  23082047.945 8 121296860.965 5  94517113.313 8  23082046.12947
 23  3 10  2 54 29.0000000  0  8G04G08G09G16G26G27G28G31            
  21276689.742 6  21276698.375 9 111809755.376 6  87124520.643 9  21276698.28548
  21069703.234 6  21069716.445 9 110722033.692 6  86276963.763 9  21069715.19949
  23543549.438 5  23543564.316 9 123722201.617 5  96406928.896 9  23543563.47748
  21120038.898 6                 110986549.160 6  86483051.64448  21120046.09848
  22488286.813 5  22488302.137 9 118176739.595 5  92085825.967 9  22488301.71147
  19835322.273 7  19835331.836 9 104235312.024 7  81222344.196 9  19835330.98449
  23640038.734 5  23640061.098 9 124229243.755 5  96802028.057 9  23640060.33247
  23082159.289 5  23082179.820 9 121297552.664 5  94517652.291 9  23082178.39547
 23  3 10  2 54 30.0000000  0  8G04G08G09G16G26G27G28G31            
  21276289.539 6  21276297.828 9 111807652.588 6  87122882.107 9  21276297.73848
  21069010.328 6  21069024.094 9 110718394.804 6  86274128.262 9  21069022.75849
  23542848.195 5  23542863.219 9 123718516.573 5  96404057.433 9  23542862.65648
  21119992.391 6                 110986305.658 6  86482861.89748  21119999.57848
  22488385.188 5  22488400.043 9 118177254.825 5  92086227.435 9  22488399.91447
  19835023.570 7  19835033.332 9 104233742.910 7  81221121.511 9  19835032.74249
  23640247.602 5  23640269.637 9 124230341.982 5  96802883.824 9  23640269.20346
  23082290.570 5  23082311.246 8 121298244.986 5  94518191.759 8  23082309.75047
 23  3 10  2 54 31.0000000  0  8G04G08G09G16G26G27G28G31            
  21275889.477 6  21275898.004 9 111805550.358 6  87121244.005 9  21275897.71947
  21068317.906 6  21068331.754 9 110714756.348 6  86271293.099 9  21068330.53549
  23542147.508 5  23542161.688 9 123714831.932 5  96401186.280 9  23542160.93848
  21119946.586 6                 110986062.202 6  86482672.19048  21119953.39148
  22488483.102 5  22488498.398 9 118177769.993 5  92086628.850 9  22488497.96947
  19834725.180 7  19834734.758 9 104232174.377 7  81219899.273 9  19834734.18049
  23640457.047 5  23640478.676 9 124231440.401 5  96803739.738 9  23640478.02346
  23082422.422 5  23082442.504 8 121298937.585 5  94518731.440 8  23082441.31347
 23  3 10  2 54 32.0000000  0  8G04G08G09G16G26G27G28G31            
  21275489.070 6  21275498.496 9 111803448.785 6  87119606.410 9  21275498.47747
  21067625.664 6  21067639.418 9 110711118.450 6  86268458.374 9  21067638.04349
  23541446.094 5  23541461.066 9 123711147.678 5  96398315.428 9  23541460.37948
  21119899.570 6                 110985818.916 6  86482482.61648  21119906.85248
  22488581.461 5  22488596.578 9 118178285.103 5  92087030.224 9  22488596.13747
  19834426.938 7  19834436.297 9 104230606.551 7  81218677.593 9  19834435.79749
  23640665.602 5  23640687.820 8 124232539.137 5  96804595.898 8  23640687.37146
  23082554.391 5  23082574.164 8 121299630.405 5  94519271.290 8  23082573.32047
 23  3 10  2 54 33.0000000  0  8G04G08G09G16G26G27G28G31            
  21275089.609 6  21275098.063 9 111801347.896 6  87117969.343 9  21275098.36747
  21066933.844 6  21066947.465 9 110707481.119 6  86265624.090 9  21066945.89849
  23540744.656 5  23540759.441 8 123707464.017 5  96395445.042 8  23540759.17248
  21119853.195 6                 110985575.861 6  86482293.22148  21119860.57448
  22488679.273 5  22488694.609 8 118178800.313 5  92087431.682 8  22488694.19947
  19834128.734 7  19834138.586 9 104229039.470 7  81217456.487 9  19834137.89149
  23640875.063 5  23640897.340 8 124233638.182 5  96805452.300 8  23640897.18846
  23082686.742 5  23082706.570 8 121300323.586 5  94519811.425 8  23082705.60947
 23  3 10  2 54 34.0000000  0  8G04G08G09G16G26G27G28G31            
  21274690.008 6  21274698.656 9 111799247.694 6  87116332.821 9  21274698.59047
  21066241.383 6  21066254.969 9 110703844.347 6  86262790.244 9  21066253.57849
  23540043.555 5  23540058.434 9 123703780.802 5  96392575.003 9  23540058.39848
  21119807.039 6                 110985332.992 6  86482103.96648  21119814.25848
  22488777.703 5  22488792.609 9 118179315.520 5  92087833.131 9  22488792.07047
  19833830.523 7  19833839.832 9 104227473.127 7  81216235.956 9  19833839.15649
  23641083.563 5  23641106.309 8 124234737.583 5  96806308.984 8  23641105.87146
  23082818.672 5  23082838.824 8 121301017.085 5  94520351.807 8  23082837.52047
 23  3 10  2 54 35.0000000  0  8G04G08G09G16G26G27G28G31            
  21274289.984 6  21274299.652 9 111797148.155 6  87114696.813 9  21274299.48848
  21065549.555 6  21065563.055 9 110700208.104 6  86259956.802 9  21065561.97349
  23539342.914 4  23539358.180 9 123700098.104 4  96389705.377 9  23539357.78948
  21119760.938 6                 110985090.318 6  86481914.86248  21119768.11348
  22488875.680 5  22488890.809 9 118179830.742 5  92088234.599 9  22488890.09047
  19833532.734 7  19833542.340 9 104225907.486 7  81215015.970 9  19833541.65649
  23641293.070 5  23641315.395 9 124235837.310 5  96807165.923 9  23641315.07446
  23082950.297 5  23082970.543 8 121301710.897 5  94520892.436 8  23082969.34447
 23  3 10  2 54 36.0000000  0  8G04G08G09G16G26G27G28G31            
  21273891.125 6  21273900.766 9 111795049.666 6  87113061.631 9  21273900.36747
  21064857.711 6  21064871.527 9 110696572.775 6  86257124.081 9  21064870.12549
  23538642.492 4  23538657.352 9 123696416.279 4  96386836.422 9  23538656.81348
  21119714.836 6                 110984848.164 6  86481726.16648  21119722.10248
  22488974.055 5  22488988.859 9 118180346.398 5  92088636.395 9  22488988.18047
  19833235.063 7  19833244.645 9 104224342.940 7  81213796.847 9  19833243.80149
  23641502.586 5  23641524.609 9 124236937.732 5  96808023.405 9  23641524.44147
  23083082.805 5  23083102.520 8 121302405.381 5  94521433.581 8  23083101.55147
 23  3 10  2 54 37.0000000  0  8G04G08G09G16G26G27G28G31            
  21273492.211 6  21273501.234 9 111792952.120 6  87111427.178 9  21273500.96947
  21064166.398 6  21064179.391 9 110692938.261 6  86254291.986 9  21064178.10549
  23537941.570 4  23537956.582 9 123692735.191 4  96383968.043 9  23537956.34848
  21119668.688 6                 110984606.486 6  86481537.84448  21119676.22348
  22489071.789 5  22489086.742 9 118180862.317 5  92089038.404 9  22489086.27747
  19832937.188 7  19832946.785 9 104222779.378 7  81212578.483 9  19832946.00849
  23641711.797 5  23641734.402 9 124238038.715 5  96808881.315 9  23641734.00446
  23083214.563 5  23083234.770 9 121303100.463 5  94521975.197 9  23083234.08647
 23  3 10  2 54 38.0000000  0  8G04G08G09G16G26G27G28G31            
  21273092.891 6  21273101.840 9 111790855.189 6  87109793.204 9  21273101.63347
  21063474.797 6  21063487.953 9 110689304.260 6  86251460.302 9  21063486.70349
  23537241.180 4  23537256.051 9 123689054.536 4  96381100.004 9  23537255.70748
  21119622.891 6                 110984364.950 6  86481349.63248  21119630.57048
  22489170.203 5  22489184.512 9 118181378.205 5  92089440.381 9  22489184.27047
  19832640.063 7  19832649.563 9 104221216.483 7  81211360.642 9  19832648.82049
  23641921.594 5  23641943.707 9 124239139.998 5  96809739.465 9  23641943.11746
  23083347.188 5  23083367.207 9 121303795.779 5  94522516.994 9  23083366.18447
 23  3 10  2 54 39.0000000  0  8G04G08G09G16G26G27G28G31            
  21272693.898 6  21272703.191 9 111788759.069 6  87108159.862 9  21272703.00047
  21062783.148 6  21062796.707 9 110685670.981 6  86248629.176 9  21062795.22749
  23536541.641 4  23536556.172 9 123685374.586 4  96378232.514 9  23536555.69548
  21119577.055 6                 110984123.736 6  86481161.67448  21119584.80948
  22489268.602 5  22489283.102 9 118181894.313 5  92089842.532 9  22489282.77747
  19832342.836 7  19832351.820 9 104219654.493 7  81210143.500 9  19832351.32849
  23642130.797 5  23642153.406 9 124240241.755 5  96810597.982 9  23642153.10247
  23083480.539 5  23083499.918 9 121304491.578 5  94523059.166 9  23083498.50047
 23  3 10  2 54 40.0000000  0  8G04G08G09G16G26G27G28G31            
  21272294.523 6  21272304.840 9 111786663.882 6  87106527.245 9  21272304.47347
  21062092.164 6  21062105.531 9 110682038.478 6  86245798.653 9  21062104.32049
  23535841.172 4  23535855.641 9 123681695.327 4  96375365.563 9  23535855.33248
  21119531.547 6                 110983882.983 6  86480974.06648  21119538.96148
  22489366.859 5  22489381.703 9 118182410.651 5  92090244.864 9  22489381.23847
  19832045.789 7  19832055.215 9 104218093.447 7  81208927.097 9  19832054.66049
  23642341.133 5  23642363.527 9 124241344.100 5  96811456.959 9  23642363.08647
  23083612.000 5  23083632.164 9 121305187.935 5  94523601.771 9  23083630.89547
 23  3 10  2 54 41.0000000  0  8G04G08G09G16G26G27G28G31            
  21271896.578 6  21271906.172 9 111784569.356 6  87104895.147 9  21271905.64547
  21061400.742 6  21061414.844 9 110678406.488 6  86242968.533 9  21061413.10249
  23535140.898 4  23535155.609 9 123678016.575 4  96372499.002 9  23535155.41048
  21119485.148 6                 110983642.381 6  86480786.57948  21119492.75048
  22489465.094 5  22489479.246 9 118182927.022 5  92090647.225 9  22489479.29747
  19831748.758 7  19831758.703 9 104216533.125 7  81207711.259 9  19831758.01249
  23642550.484 5  23642572.840 9 124242446.747 5  96812316.169 9  23642572.41446
  23083744.773 5  23083765.137 9 121305884.601 5  94524144.624 9  23083763.64547
 23  3 10  2 54 42.0000000  0  8G04G08G09G16G26G27G28G31            
  21271498.516 6  21271507.949 9 111782475.576 6  87103263.631 9  21271507.13747
  21060709.797 6  21060723.973 9 110674775.147 6  86240138.920 9  21060722.25849
  23534440.625 4  23534455.293 9 123674338.371 4  96369632.866 9  23534455.32048
  21119439.609 6                 110983402.037 6  86480599.29248  21119447.28948
  22489563.008 5  22489577.859 9 118183443.470 5  92091049.641 9  22489577.87147
  19831452.063 7  19831461.758 9 104214973.585 7  81206496.024 9  19831460.89149
  23642760.656 5  23642783.141 9 124243549.800 5  96813175.696 9  23642782.93446
  23083877.727 6  23083898.090 8 121306581.655 6  94524687.777 8  23083896.67247
 23  3 10  2 54 43.0000000  0  8G04G08G09G16G26G27G28G31            
  21271100.344 6  21271109.465 9 111780382.696 6  87101632.808 9  21271108.59047
  21060019.313 6  21060032.926 9 110671144.597 6  86237309.918 9  21060031.63749
  23533741.063 4  23533755.715 8 123670660.894 4  96366767.305 8  23533755.76648
  21119394.531 6                 110983162.097 6  86480412.31848  21119401.49648
  22489661.320 5  22489676.125 9 118183960.171 5  92091452.260 9  22489676.23047
  19831155.109 7  19831164.688 9 104213414.990 7  81205281.535 9  19831163.80949
  23642970.734 5  23642993.688 9 124244653.408 5  96814035.656 9  23642993.06646
  23084010.727 6  23084030.367 8 121307279.241 6  94525231.345 8  23084029.43847
 23  3 10  2 54 44.0000000  0  8G04G08G09G16G26G27G28G31            
  21270701.781 6  21270711.570 9 111778290.422 6  87100002.462 9  21270710.63747
  21059328.438 6  21059342.066 9 110667514.536 6  86234481.302 9  21059340.45349
  23533041.844 5  23533056.043 8 123666983.859 5  96363902.086 8  23533055.91448
  21119348.469 6                 110982922.281 6  86480225.45448  21119355.69148
  22489760.000 5  22489774.570 9 118184476.838 5  92091854.843 9  22489774.71547
  19830858.844 7  19830868.297 9 104211857.061 7  81204067.562 9  19830867.34049
  23643180.945 5  23643203.102 8 124245757.262 5  96814895.802 8  23643202.57446
  23084143.344 6  23084163.348 8 121307977.071 6  94525775.101 8  23084162.12147
 23  3 10  2 54 45.0000000  0  8G04G08G09G16G26G27G28G31            
  21270304.102 6  21270313.551 9 111776198.877 6  87098372.683 9  21270312.75847
  21058637.398 6  21058651.414 9 110663885.089 6  86231653.165 9  21058650.21149
  23532342.359 4  23532356.695 8 123663307.376 4  96361037.300 8  23532356.24648
  21119302.781 6                 110982682.729 6  86480038.78748  21119310.48848
  22489857.727 5  22489872.758 8 118184993.610 5  92092257.510 8  22489872.82847
  19830562.703 7  19830572.156 9 104210299.926 7  81202854.204 9  19830571.39149
  23643390.820 5  23643413.348 8 124246861.529 5  96815756.279 8  23643412.91846
  23084275.922 5  23084295.996 8 121308675.295 5  94526319.164 8  23084294.84447
 23  3 10  2 54 46.0000000  0  8G04G08G09G16G26G27G28G31            
  21269906.133 6  21269915.793 9 111774108.149 6  87096743.542 9  21269914.90247
  21057946.867 6  21057960.898 9 110660256.303 6  86228825.540 9  21057959.54349
  23531643.063 4  23531657.496 8 123659631.515 4  96358172.989 8  23531656.92648
  21119257.172 6                 110982443.467 6  86479852.34348  21119264.80148
  22489956.336 5  22489971.340 9 118185510.520 5  92092660.292 9  22489971.29347
  19830266.617 7  19830276.188 9 104208743.621 7  81201641.497 9  19830275.37149
  23643601.461 5  23643623.613 9 124247966.218 5  96816617.084 9  23643623.03146
  23084409.000 5  23084428.699 8 121309373.959 5  94526863.567 8  23084427.64147
 23  3 10  2 54 47.0000000  0  8G04G08G09G16G26G27G28G31            
  21269508.203 6  21269517.770 9 111772018.319 6  87095115.097 9  21269517.04748
  21057256.750 6  21057270.262 9 110656628.344 6  86225998.557 9  21057269.13749
  23530943.414 4  23530957.754 8 123655956.381 4  96355309.254 8  23530957.46548
  21119211.945 6                 110982204.621 6  86479666.22548  21119219.94948
  22490055.305 5  22490069.801 9 118186027.676 5  92093063.256 9  22490069.94547
  19829970.141 7  19829980.094 9 104207188.290 7  81200429.548 9  19829979.20749
  23643811.438 5  23643833.785 9 124249071.476 5  96817478.336 9  23643833.20346
  23084542.320 6  23084562.141 8 121310073.149 6  94527408.387 8  23084561.31647
 23  3 10  2 54 48.0000000  0  8G04G08G09G16G26G27G28G31            
  21269110.656 6  21269120.227 9 111769929.277 6  87093487.269 9  21269119.52748
  21056566.641 6  21056580.273 9 110653001.070 6  86223172.116 9  21056578.94949
  23530244.320 4  23530258.590 8 123652281.872 4  96352446.002 8  23530258.25448
  21119166.406 6                 110981966.133 6  86479480.39048  21119174.06348
  22490153.531 5  22490168.102 9 118186545.018 5  92093466.370 9  22490168.02047
  19829674.438 7  19829684.262 9 104205633.794 7  81199218.248 9  19829683.66449
  23644021.742 4  23644043.746 9 124250177.182 4  96818339.928 9  23644043.50046
  23084675.047 6  23084695.438 8 121310772.802 6  94527953.563 8  23084694.78147
 23  3 10  2 54 49.0000000  0  8G04G08G09G16G26G27G28G31            
  21268713.414 6  21268722.859 9 111767841.122 6  87091860.133 9  21268722.31348
  21055876.133 6  21055890.184 9 110649374.506 6  86220346.221 9  21055889.17649
  23529545.453 4  23529559.578 8 123648608.049 4  96349583.290 8  23529559.02348
  21119121.313 6                 110981727.988 6  86479294.81648  21119129.16848
  22490251.625 5  22490266.969 9 118187062.550 5  92093869.629 9  22490266.81347
  19829378.789 7  19829388.754 9 104204080.229 7  81198007.679 9  19829387.95349
  23644232.313 5  23644254.988 9 124251283.441 5  96819201.954 9  23644254.46947
  23084808.391 5  23084828.734 9 121311472.949 5  94528499.122 9  23084827.98447
 23  3 10  2 54 50.0000000  0  8G04G08G09G16G26G27G28G31            
  21268316.406 6  21268325.773 9 111765753.898 6  87090233.722 9  21268325.19148
  21055186.305 6  21055199.699 9 110645748.781 6  86217520.980 9  21055198.71949
  23528846.156 4  23528860.363 9 123644935.008 4  96346721.178 9  23528860.17248
  21119076.164 6                 110981490.319 6  86479109.62348  21119083.49648
  22490350.000 5  22490365.660 9 118187580.377 5  92094273.119 9  22490365.87147
  19829083.102 7  19829093.449 9 104202527.656 7  81196797.884 9  19829092.22749
  23644442.922 5  23644465.387 9 124252390.250 5  96820064.401 9  23644464.78946
  23084941.805 6  23084962.289 9 121312173.720 6  94529045.169 9  23084961.27347
 23  3 10  2 54 51.0000000  0  8G04G08G09G16G26G27G28G31            
  21267919.188 6  21267928.957 9 111763667.455 6  87088607.912 9  21267928.36748
  21054496.078 6  21054510.258 9 110642123.706 6  86214696.248 9  21054509.07049
  23528147.211 4  23528161.230 9 123641262.549 4  96343859.524 9  23528161.19148
  21119031.195 6                 110981252.912 6  86478924.62348  21119038.38748
  22490448.383 5  22490464.230 9 118188098.356 5  92094676.728 9  22490464.21147
  19828788.234 7  19828798.031 9 104200975.887 7  81195588.714 9  19828797.14549
  23644653.500 5  23644675.758 9 124253497.523 5  96820927.212 9  23644675.39547
  23085075.039 6  23085095.051 9 121312874.874 6  94529591.508 9  23085094.33647
 23  3 10  2 54 52.0000000  0  8G04G08G09G16G26G27G28G31            
  21267522.438 6  21267531.816 9 111761581.782 6  87086982.707 9  21267531.41448
  21053806.523 6  21053819.785 9 110638499.280 6  86211872.021 9  21053818.69149
  23527448.688 4  23527462.996 9 123637590.659 4  96340998.310 9  23527462.70348
  21118985.930 6                 110981015.803 6  86478739.85448  21118993.02348
  22490547.258 5  22490561.969 9 118188616.426 5  92095080.406 9  22490562.17247
  19828493.102 7  19828502.629 9 104199424.938 7  81194380.179 9  19828502.03549
  23644864.133 5  23644886.828 9 124254605.188 5  96821790.330 9  23644886.19946
  23085208.383 6  23085228.629 9 121313576.445 6  94530138.179 9  23085227.76247
 23  3 10  2 54 53.0000000  0  8G04G08G09G16G26G27G28G31            
  21267125.523 6  21267134.586 9 111759496.674 6  87085357.941 9  21267134.47748
  21053116.883 6  21053130.813 9 110634875.338 6  86209048.167 9  21053129.53149
  23526749.609 4  23526764.254 9 123633919.179 4  96338137.417 9  23526763.89848
  21118941.039 6                 110980778.813 6  86478555.18348  21118948.39148
  22490645.922 5  22490660.672 9 118189134.426 5  92095484.040 9  22490660.65247
  19828198.148 7  19828208.215 9 104197874.643 7  81193172.162 9  19828207.41049
  23645075.781 5  23645097.664 9 124255713.126 5  96822653.661 9  23645096.82046
  23085341.703 5  23085362.344 9 121314278.228 5  94530685.015 9  23085361.33647
 23  3 10  2 54 54.0000000  0  8G04G08G09G16G26G27G28G31            
  21266728.594 6  21266738.039 9 111757412.124 6  87083733.614 9  21266737.89847
  21052427.328 6  21052440.840 9 110631251.782 6  86206224.619 9  21052439.92649
  23526051.242 5  23526065.652 9 123630248.074 5  96335276.816 9  23526065.28948
  21118895.758 6                 110980541.813 6  86478370.50348  21118903.09448
  22490744.320 5  22490759.324 9 118189652.342 5  92095887.597 9  22490759.15247
  19827903.234 7  19827912.723 9 104196324.894 7  81191964.565 9  19827912.07449
  23645286.695 5  23645308.785 9 124256821.227 5  96823517.122 9  23645307.79346
  23085475.258 6  23085495.797 9 121314980.170 6  94531231.981 9  23085494.80147
 23  3 10  2 54 55.0000000  0  8G04G08G09G16G26G27G28G31            
  21266332.164 6  21266341.207 9 111755328.175 6  87082109.753 9  21266341.09047
  21051738.227 6  21051752.031 9 110627628.741 6  86203401.473 9  21051750.57849
  23525352.531 5  23525367.027 9 123626577.396 5  96332416.552 9  23525366.65648
  21118850.461 6                 110980304.937 6  86478185.92248  21118858.09448
  22490843.172 5  22490858.301 9 118190170.180 5  92096291.099 9  22490858.09047
  19827608.453 7  19827618.156 9 104194775.842 7  81190757.512 9  19827617.33249
  23645497.742 5  23645519.211 9 124257929.573 5  96824380.777 9  23645518.44547
  23085609.703 6  23085629.414 8 121315682.396 6  94531779.161 8  23085628.54747
 23  3 10  2 54 56.0000000  0  8G04G08G09G16G26G27G28G31            
  21265935.977 6  21265944.895 9 111753245.040 6  87080486.536 9  21265944.76247
  21051048.719 6  21051062.277 9 110624006.385 6  86200578.862 9  21051060.98849
  23524654.328 5  23524668.836 8 123622907.324 5  96329556.757 8  23524668.43448
  21118805.430 6                 110980068.400 6  86478001.60748  21118812.70748
  22490941.680 5  22490956.727 8 118190688.172 5  92096694.725 8  22490956.41447
  19827314.086 7  19827323.539 9 104193227.613 7  81189551.100 9  19827322.95749
  23645708.180 5  23645730.051 8 124259038.419 5  96825244.816 8  23645729.22346
  23085743.258 6  23085763.203 8 121316385.067 6  94532326.692 8  23085762.32847
 23  3 10  2 54 57.0000000  0  8G04G08G09G16G26G27G28G31            
  21265539.703 6  21265548.473 9 111751162.844 6  87078864.042 9  21265548.37547
  21050359.398 6  21050373.367 9 110620384.835 6  86197756.879 9  21050372.25049
  23523956.469 4  23523970.645 8 123619238.038 4  96326697.585 8  23523970.22748
  21118760.625 6                 110979832.326 6  86477817.65048  21118767.85548
  22491040.164 5  22491055.609 8 118191206.497 5  92097098.609 8  22491055.36747
  19827019.375 7  19827028.730 9 104191680.404 7  81188345.484 9  19827028.26249
  23645919.789 5  23645941.457 8 124260147.819 5  96826109.294 8  23645940.73446
  23085877.039 6  23085896.664 8 121317088.335 6  94532874.683 8  23085895.84447
 23  3 10  2 54 58.0000000  0  8G04G08G09G16G26G27G28G31            
  21265143.516 6  21265152.457 9 111749081.411 6  87077242.146 9  21265152.39847
  21049670.273 6  21049683.977 9 110616763.910 6  86194935.379 9  21049682.88749
  23523257.438 5  23523272.797 9 123615569.355 5  96323838.874 9  23523272.03548
  21118716.156 6                 110979596.499 6  86477633.88148  21118722.87948
  22491138.672 5  22491153.984 9 118191724.914 5  92097502.563 9  22491153.85947
  19826725.344 7  19826734.879 9 104190133.991 7  81187140.486 9  19826734.16449
  23646131.055 5  23646152.531 9 124261257.652 5  96826974.104 9  23646151.94147
  23086010.547 5  23086030.645 8 121317791.980 5  94533422.970 8  23086029.66847
 23  3 10  2 54 59.0000000  0  8G04G08G09G16G26G27G28G31            
  21264747.781 6  21264756.867 9 111747000.891 6  87075620.955 9  21264756.69948
  21048982.016 6  21048995.289 9 110613143.796 6  86192114.512 9  21048994.25849
  23522559.102 4  23522574.449 9 123611901.416 4  96320980.737 9  23522573.96548
  21118670.813 6                 110979361.124 6  86477450.46648  21118677.89548
  22491238.289 5  22491252.805 9 118192243.596 5  92097906.731 9  22491252.55147
  19826431.367 7  19826440.699 9 104188588.541 7  81185936.236 9  19826440.00449
  23646342.492 5  23646363.996 9 124262368.074 5  96827839.372 9  23646363.18447
  23086144.992 6  23086165.070 8 121318496.194 6  94533971.697 8  23086164.18047
 23  3 10  2 55  0.0000000  0  8G04G08G09G16G26G27G28G31            
  21264351.898 6  21264360.754 9 111744920.969 6  87074000.235 9  21264360.44548
  21048292.992 6  21048306.098 9 110609524.107 6  86189293.980 9  21048305.34449
  23521861.898 4  23521876.383 9 123608233.858 4  96318122.909 9  23521875.76648
  21118626.258 6                 110979125.834 6  86477267.12148  21118633.96548
  22491336.852 5  22491351.496 9 118192762.218 5  92098310.845 9  22491351.25847
  19826137.133 7  19826146.477 9 104187043.744 7  81184732.496 9  19826145.94949
  23646553.961 5  23646575.418 9 124263478.716 5  96828704.808 9  23646574.66846
  23086279.219 6  23086298.988 8 121319200.635 6  94534520.603 8  23086298.37947
 23  3 10  2 55  1.0000000  0  8G04G08G09G16G26G27G28G31            
  21263956.453 6  21263965.406 9 111742841.703 6  87072380.030 9  21263965.03548
  21047604.320 6  21047617.867 9 110605905.009 6  86186473.905 9  21047616.69949
  23521163.352 4  23521178.941 9 123604566.800 4  96315265.449 9  23521178.13748
  21118581.578 6                 110978890.736 6  86477083.91748  21118588.91048
  22491434.938 5  22491450.074 9 118193280.856 5  92098714.968 9  22491449.48447
  19825843.250 7  19825852.758 9 104185499.649 7  81183529.303 9  19825852.36349
  23646765.172 5  23646786.406 9 124264589.674 5  96829570.485 9  23646785.65647
  23086413.008 6  23086433.414 8 121319905.383 6  94535069.746 8  23086432.82847
 23  3 10  2 55  2.0000000  0  8G04G08G09G16G26G27G28G31            
  21263560.563 6  21263569.813 9 111740763.203 6  87070760.420 9  21263569.36747
  21046915.750 6  21046929.250 9 110602286.535 6  86183654.313 9  21046928.08649
  23520465.711 4  23520481.387 9 123600900.338 4  96312408.464 9  23520480.47748
  21118536.625 6                 110978655.898 6  86476900.92247  21118544.13747
  22491534.250 5  22491548.582 9 118193799.639 5  92099119.205 9  22491547.94947
  19825549.578 6  19825559.055 9 104183956.366 6  81182326.741 9  19825558.33249
  23646976.664 5  23646998.148 9 124265701.049 5  96830436.495 9  23646997.34846
  23086546.859 5  23086567.211 9 121320610.531 5  94535619.207 9  23086566.21947
 23  3 10  2 55  3.0000000  0  8G04G08G09G16G26G27G28G31            
  21263164.906 6  21263174.441 9 111738685.428 6  87069141.376 9  21263173.78147
  21046227.039 6  21046240.977 9 110598668.724 6  86180835.234 9  21046239.69549
  23519767.969 3  23519783.988 9 123597234.400 3  96309551.880 9  23519783.19148
  21118492.344 6                 110978421.314 6  86476718.12747  21118499.39547
  22491632.258 5  22491647.695 9 118194318.480 5  92099523.487 9  22491647.27347
  19825255.977 6  19825265.441 9 104182413.872 6  81181124.792 9  19825264.91449
  23647187.984 5  23647209.715 9 124266812.823 5  96831302.813 9  23647208.80547
  23086681.758 5  23086701.348 8 121321316.063 5  94536168.970 8  23086700.45347
 23  3 10  2 55  4.0000000  0  8G04G08G09G16G26G27G28G31            
  21262769.883 6  21262779.156 9 111736608.300 6  87067522.826 9  21262778.54347
  21045538.891 6  21045552.914 9 110595051.420 6  86178016.559 9  21045551.62949
  23519070.648 3  23519086.395 9 123593568.952 3  96306695.688 9  23519085.43048
  21118447.406 6                 110978186.867 6  86476535.43147  21118455.01647
  22491732.055 5  22491746.582 9 118194837.321 5  92099927.769 9  22491745.94147
  19824962.492 6  19824972.328 9 104180872.064 6  81179923.379 9  19824971.79349
  23647399.883 5  23647420.914 9 124267924.884 5  96832169.362 9  23647419.96147
  23086815.953 5  23086836.184 8 121322021.891 5  94536718.962 8  23086835.18447
 23  3 10  2 55  5.0000000  0  8G04G08G09G16G26G27G28G31            
  21262375.008 6  21262384.281 9 111734531.953 6  87065904.892 9  21262383.56647
  21044850.492 6  21044864.027 9 110591434.764 6  86175198.389 9  21044862.98449
  23518373.750 4  23518389.160 9 123589904.111 4  96303839.968 9  23518388.10948
  21118403.219 6                 110977952.759 6  86476353.00147  21118410.38747
  22491830.758 5  22491845.301 9 118195356.303 5  92100332.160 9  22491844.66847
  19824669.328 6  19824679.203 9 104179331.077 6  81178722.606 9  19824678.38349
  23647611.367 5  23647633.242 9 124269037.373 5  96833036.239 9  23647632.32447
  23086950.180 5  23086970.555 8 121322728.136 5  94537269.269 8  23086969.53947
 23  3 10  2 55  6.0000000  0  8G04G08G09G16G26G27G28G31            
  21261979.523 6  21261988.926 9 111732456.309 6  87064287.503 9  21261988.12947
  21044162.508 6  21044175.648 9 110587818.667 6  86172380.652 9  21044174.76249
  23517675.844 3  23517692.164 9 123586239.779 3  96300984.650 9  23517691.24648
  21118358.664 6                 110977718.786 6  86476170.68447  21118365.96547
  22491929.180 5  22491944.023 9 118195875.281 5  92100736.549 9  22491943.55147
  19824376.227 6  19824386.109 9 104177790.826 6  81177522.408 9  19824385.43849
  23647823.242 5  23647845.012 9 124270150.230 5  96833903.404 9  23647843.98846
  23087084.656 5  23087104.852 8 121323434.704 5  94537819.830 8  23087103.59847
 23  3 10  2 55  7.0000000  0  8G04G08G09G16G26G27G28G31            
  21261584.773 6  21261594.457 9 111730381.438 6  87062670.717 9  21261593.49247
  21043474.555 6  21043488.121 9 110584203.219 6  86169563.422 9  21043486.90249
  23516978.664 4  23516994.535 9 123582575.996 4  96298129.755 9  23516993.76248
  21118314.047 6                 110977485.134 6  86475988.61947  21118321.61347
  22492027.688 5  22492042.750 9 118196394.419 5  92101141.062 9  22492042.15647
  19824083.313 6  19824093.176 9 104176251.395 6  81176322.850 9  19824092.56649
  23648034.273 5  23648056.758 9 124271263.465 5  96834770.862 9  23648055.91046
  23087219.203 5  23087239.746 8 121324141.680 5  94538370.717 8  23087238.23847
 23  3 10  2 55  8.0000000  0  8G04G08G09G16G26G27G28G31            
  21261190.055 6  21261199.766 9 111728307.327 6  87061054.520 9  21261198.65247
  21042787.000 6  21042800.465 9 110580588.447 6  86166746.720 9  21042799.59049
  23516282.328 4  23516297.125 9 123578912.869 4  96295275.377 9  23516296.25448
  21118269.492 6                 110977251.772 6  86475806.77148  21118277.10548
  22492126.930 5  22492141.848 8 118196913.663 5  92101545.656 8  22492141.31347
  19823790.461 6  19823799.910 9 104174712.791 6  81175123.940 9  19823799.02049
  23648246.609 5  23648268.930 9 124272377.157 5  96835638.671 9  23648268.16847
  23087353.922 5  23087374.180 8 121324849.038 5  94538921.896 8  23087373.26647
 23  3 10  2 55  9.0000000  0  8G04G08G09G16G26G27G28G31            
  21260796.063 6  21260805.930 9 111726234.028 6  87059438.955 9  21260804.80147
  21042098.781 6  21042112.750 9 110576974.348 6  86163930.540 9  21042111.79749
  23515584.453 4  23515600.340 9 123575250.340 4  96292421.464 9  23515599.46548
  21118224.906 6                 110977018.693 6  86475625.14648  21118232.94548
  22492225.531 5  22492240.414 9 118197433.088 5  92101950.393 9  22492239.92247
  19823497.680 6  19823507.711 9 104173175.044 6  81173925.692 9  19823506.85949
  23648458.742 5  23648480.578 9 124273491.308 5  96836506.849 9  23648480.11347
  23087488.117 5  23087508.535 8 121325556.923 5  94539473.493 8  23087507.49247
 23  3 10  2 55 10.0000000  0  8G04G08G09G16G26G27G28G31            
  21260401.375 6  21260410.977 9 111724161.526 6  87057824.017 9  21260410.19947
  21041411.203 6  21041424.648 9 110573360.999 6  86161114.948 9  21041423.67649
  23514887.914 4  23514903.230 9 123571588.501 4  96289568.084 9  23514902.56348
  21118180.969 6                 110976785.986 6  86475443.81248  21118188.55948
  22492324.805 5  22492339.633 9 118197952.686 5  92102355.269 9  22492339.03147
  19823205.594 6  19823215.934 9 104171638.178 6  81172728.134 9  19823214.72349
  23648670.453 5  23648692.629 9 124274605.928 5  96837375.392 9  23648692.41847
  23087623.211 5  23087643.820 8 121326265.206 5  94540025.390 8  23087642.65247
 23  3 10  2 55 11.0000000  0  8G04G08G09G16G26G27G28G31            
  21260007.500 6  21260016.676 9 111722089.964 6  87056209.815 9  21260015.72747
  21040724.031 6  21040737.734 9 110569748.433 6  86158299.961 9  21040736.60249
  23514191.445 4  23514206.836 9 123567927.362 4  96286715.252 9  23514206.33248
  21118136.516 6                 110976553.691 6  86475262.79948  21118144.48448
  22492423.539 5  22492438.527 9 118198472.548 5  92102760.348 9  22492437.86347
  19822913.297 6  19822923.125 9 104170102.277 6  81171531.331 9  19822922.18849
  23648882.844 5  23648904.215 9 124275721.106 5  96838244.362 9  23648904.13746
  23087757.664 5  23087778.340 8 121326974.096 5  94540577.765 8  23087777.28947
 23  3 10  2 55 12.0000000  0  8G04G08G09G16G26G27G28G31            
  21259612.570 6  21259622.668 9 111720019.205 6  87054596.232 9  21259621.57847
  21040036.656 6  21040050.488 9 110566136.530 6  86155485.494 9  21040049.22749
  23513494.578 4  23513509.727 9 123564266.820 4  96283862.886 9  23513509.23048
  21118093.008 6                 110976321.670 6  86475081.99348  21118100.35948
  22492522.211 5  22492537.758 9 118198992.513 5  92103165.510 9  22492536.71147
  19822620.914 6  19822630.879 9 104168567.176 6  81170335.148 9  19822630.12149
  23649095.141 5  23649117.402 9 124276836.710 5  96839113.672 9  23649117.12947
  23087893.422 5  23087913.156 8 121327683.353 5  94541130.418 8  23087911.92247
 23  3 10  2 55 13.0000000  0  8G04G08G09G16G26G27G28G31            
  21259218.867 6  21259228.898 9 111717949.014 6  87052983.091 9  21259227.67247
  21039349.711 6  21039363.160 9 110562525.127 6  86152671.415 9  21039361.98849
  23512798.492 4  23512813.320 9 123560606.721 4  96281010.854 9  23512812.85248
  21118048.219 6                 110976089.776 6  86474901.29348  21118056.07448
  22492621.359 5  22492636.313 9 118199512.451 5  92103570.647 9  22492635.59847
  19822329.320 6  19822338.953 9 104167032.744 6  81169139.487 9  19822337.96949
  23649307.555 5  23649329.559 9 124277952.586 5  96839983.190 9  23649329.36747
  23088027.883 5  23088048.539 8 121328392.877 5  94541683.289 8  23088047.31647
 23  3 10  2 55 14.0000000  0  8G04G08G09G16G26G27G28G31            
  21258825.688 6  21258835.297 9 111715879.471 6  87051370.447 9  21258834.33247
  21038662.633 6  21038676.238 9 110558914.208 6  86149857.709 9  21038675.00449
  23512102.586 4  23512117.277 9 123556947.096 4  96278159.188 9  23512116.79348
  21118004.438 6                 110975857.994 6  86474720.68248  21118011.96948
  22492720.211 5  22492735.238 9 118200032.403 5  92103975.791 9  22492734.42247
  19822037.258 6  19822046.793 9 104165498.998 6  81167944.361 9  19822046.09449
  23649519.805 5  23649541.988 9 124279068.752 5  96840852.937 9  23649541.85247
  23088163.406 5  23088183.551 8 121329102.670 5  94542236.367 8  23088182.60247
 23  3 10  2 55 15.0000000  0  8G04G08G09G16G26G27G28G31            
  21258432.141 6  21258441.313 9 111713810.643 6  87049758.370 9  21258440.66047
  21037975.313 6  21037989.109 9 110555303.931 6  86147044.502 9  21037987.61749
  23511405.711 4  23511420.418 9 123553288.002 4  96275307.954 9  23511420.03948
  21117960.438 6                 110975626.487 6  86474540.27948  21117967.75048
  22492819.211 5  22492834.363 9 118200552.375 5  92104380.952 9  22492833.46947
  19821745.781 6  19821755.402 9 104163966.026 6  81166749.840 9  19821754.39149
  23649732.508 5  23649754.191 9 124280185.261 5  96841722.943 9  23649753.80947
  23088298.617 5  23088318.348 9 121329812.853 5  94542789.753 9  23088317.38747
 23  3 10  2 55 16.0000000  0  8G04G08G09G16G26G27G28G31            
  21258038.141 6  21258047.813 9 111711742.538 6  87048146.860 9  21258046.87547
  21037288.195 6  21037302.102 9 110551694.226 6  86144231.749 9  21037300.69549
  23510710.250 4  23510724.078 9 123549629.448 4  96272457.141 9  23510723.83248
  21117916.352 6                 110975395.189 6  86474360.04848  21117924.28548
  22492917.797 5  22492933.758 9 118201072.480 5  92104786.220 9  22492932.55947
  19821454.031 6  19821464.043 9 104162433.814 6  81165555.907 9  19821463.01249
  23649945.234 5  23649966.832 9 124281302.183 5  96842593.281 9  23649966.64847
  23088433.523 5  23088453.586 9 121330523.392 5  94543343.413 9  23088452.71947
 23  3 10  2 55 17.0000000  0  8G04G08G09G16G26G27G28G31            
  21257645.164 6  21257654.277 9 111709675.311 6  87046536.033 9  21257653.71547
  21036601.695 6  21036615.637 9 110548085.267 6  86141419.577 9  21036614.42649
  23510013.523 4  23510028.051 9 123545971.555 4  96269606.838 9  23510027.85548
  21117872.578 6                 110975164.278 6  86474180.11447  21117880.00447
  22493017.195 5  22493032.469 9 118201592.759 5  92105191.620 9  22493031.49647
  19821162.586 6  19821172.418 9 104160902.506 6  81164362.676 9  19821171.69549
  23650157.820 5  23650179.434 9 124282419.593 5  96843463.996 9  23650179.09047
  23088569.508 5  23088589.172 9 121331234.423 5  94543897.456 9  23088588.08247
 23  3 10  2 55 18.0000000  0  8G04G08G09G16G26G27G28G31            
  21257251.477 6  21257260.883 9 111707608.792 6  87044925.753 9  21257260.28547
  21035914.461 6  21035928.957 9 110544476.896 6  86138607.867 9  21035927.47349
  23509317.789 4  23509331.766 8 123542314.253 4  96266756.993 8  23509331.68048
  21117828.406 6                 110974933.605 6  86474000.36648  21117836.07848
  22493116.359 5  22493131.387 9 118202113.136 5  92105597.102 9  22493130.37947
  19820871.656 6  19820880.996 9 104159371.979 6  81163170.054 9  19820880.26649
  23650370.641 5  23650392.430 9 124283537.395 5  96844335.016 9  23650391.91847
  23088704.273 5  23088724.727 8 121331945.807 5  94544451.774 8  23088723.56647
 23  3 10  2 55 19.0000000  0  8G04G08G09G16G26G27G28G31            
  21256858.234 6  21256867.625 9 111705542.713 6  87043315.820 9  21256867.29747
  21035228.250 6  21035242.031 9 110540868.823 6  86135796.382 9  21035240.73049
  23508621.742 4  23508635.762 8 123538657.183 4  96263907.319 8  23508635.79348
  21117784.641 6                 110974702.847 6  86473820.54848  21117792.27748
  22493215.203 5  22493230.336 9 118202633.235 5  92106002.359 9  22493229.53147
  19820580.438 6  19820590.004 9 104157841.932 6  81161977.810 9  19820589.32849
  23650583.188 5  23650605.578 9 124284655.267 5  96845206.088 9  23650604.94546
  23088840.086 5  23088859.988 8 121332657.267 5  94545006.151 8  23088858.86347
 23  3 10  2 55 20.0000000  0  8G04G08G09G16G26G27G28G31            
  21256465.109 6  21256474.941 9 111703477.424 6  87041706.499 9  21256474.32447
  21034542.133 6  21034555.727 9 110537261.442 6  86132985.439 9  21034554.26649
  23507925.992 4  23507940.387 8 123535000.720 4  96261058.116 8  23507940.44948
  21117740.484 6                 110974472.418 6  86473640.99247  21117747.98447
  22493313.813 5  22493329.301 9 118203153.514 5  92106407.767 9  22493328.52347
  19820289.438 6  19820299.074 9 104156312.726 6  81160786.219 9  19820298.44149
  23650796.063 5  23650817.738 9 124285773.594 5  96846077.514 9  23650817.47347
  23088975.359 5  23088995.168 8 121333369.171 5  94545560.882 8  23088994.16447
 23  3 10  2 55 21.0000000  0  8G04G08G09G16G26G27G28G31            
  21256072.672 6  21256081.680 9 111701412.954 6  87040097.813 9  21256081.34447
  21033855.508 6  21033869.289 9 110533654.793 6  86130175.071 9  21033867.98849
  23507230.883 4  23507244.402 8 123531344.938 4  96258209.452 8  23507244.27048
  21117696.805 6                 110974242.306 6  86473461.67147  21117704.55947
  22493413.078 5  22493428.688 9 118203673.957 5  92106813.298 9  22493427.72347
  19819998.336 6  19820007.844 9 104154784.395 6  81159595.311 9  19820007.26249
  23651008.664 5  23651030.633 9 124286892.404 5  96846949.312 9  23651030.82847
  23089110.906 5  23089130.605 8 121334081.512 5  94546115.956 8  23089129.53947
 23  3 10  2 55 22.0000000  0  8G04G08G09G16G26G27G28G31            
  21255680.266 6  21255689.074 9 111699349.170 6  87038489.669 9  21255688.67647
  21033169.344 6  21033183.063 9 110530048.702 6  86127365.135 9  21033181.69549
  23506535.336 4  23506548.691 8 123527689.634 4  96255361.165 8  23506548.71548
  21117653.289 6                 110974012.379 6  86473282.51248  21117660.60948
  22493511.695 5  22493527.371 9 118204194.455 5  92107218.873 9  22493526.63747
  19819707.734 7  19819717.406 9 104153256.780 7  81158404.961 9  19819716.82049
  23651221.695 5  23651243.711 9 124288011.521 5  96847821.353 9  23651243.65247
  23089246.563 5  23089266.379 8 121334794.203 5  94546671.291 8  23089265.30147
 23  3 10  2 55 23.0000000  0  8G04G08G09G16G26G27G28G31            
  21255287.227 6  21255296.258 9 111697286.236 6  87036882.197 9  21255296.06347
  21032483.258 6  21032497.203 9 110526443.319 6  86124555.742 9  21032495.75449
  23505839.477 4  23505853.598 8 123524035.021 4  96252513.414 8  23505853.64848
  21117609.688 6                 110973782.831 6  86473103.63747  21117616.93047
  22493611.430 5  22493626.000 9 118204715.165 5  92107624.613 9  22493625.77747
  19819417.297 6  19819427.027 9 104151730.083 6  81157215.328 9  19819426.39849
  23651434.828 5  23651456.215 9 124289131.155 5  96848693.799 9  23651456.64547
  23089382.813 5  23089402.281 8 121335507.387 5  94547227.015 8  23089400.89547
 23  3 10  2 55 24.0000000  0  8G04G08G09G16G26G27G28G31            
  21254894.961 6  21254904.102 9 111695224.060 6  87035275.312 9  21254903.69147
  21031797.125 6  21031810.828 9 110522838.576 6  86121746.856 9  21031809.35249
  23505144.086 4  23505158.219 8 123520380.961 4  96249666.106 8  23505158.18448
  21117565.922 6                 110973553.508 6  86472924.93948  21117573.19948
  22493710.758 5  22493725.668 9 118205235.899 5  92108030.370 9  22493725.03547
  19819126.906 7  19819135.953 9 104150204.146 7  81156026.282 9  19819135.39549
  23651648.102 5  23651669.883 9 124290251.162 5  96849566.540 9  23651670.12547
  23089517.797 5  23089538.094 8 121336220.929 5  94547783.010 8  23089536.67647
 23  3 10  2 55 25.0000000  0  8G04G08G09G16G26G27G28G31            
  21254502.906 6  21254511.691 9 111693162.594 6  87033668.973 9  21254511.49647
  21031111.141 6  21031124.930 9 110519234.408 6  86118938.410 9  21031123.59449
  23504448.930 3  23504462.742 8 123516727.456 3  96246819.228 8  23504462.57848
  21117522.094 6                 110973324.431 6  86472746.43848  21117529.80548
  22493810.086 5  22493824.656 9 118205756.758 5  92108436.223 9  22493824.08647
  19818836.594 6  19818845.684 9 104148679.004 6  81154837.861 9  19818845.34849
  23651860.516 5  23651882.723 9 124291371.586 5  96850439.604 9  23651882.97347
  23089654.422 5  23089673.750 8 121336934.854 5  94548339.311 8  23089672.65247
 23  3 10  2 55 26.0000000  0  8G04G08G09G16G26G27G28G31            
  21254110.078 6  21254119.465 9 111691101.805 6  87032063.168 9  21254119.03547
  21030425.422 6  21030439.570 9 110515630.872 6  86116130.463 9  21030438.00849
  23503753.633 4  23503767.656 8 123513074.442 4  96243972.732 8  23503767.36348
  21117478.586 6                 110973095.562 6  86472568.09248  21117486.20348
  22493908.688 5  22493923.988 9 118206277.663 5  92108842.121 9  22493923.26247
  19818546.828 7  19818556.016 9 104147154.600 7  81153650.009 9  19818555.55949
  23652073.789 5  23652096.102 9 124292492.304 5  96851312.894 9  23652096.41047
  23089790.203 6  23089809.828 8 121337649.090 6  94548895.848 8  23089808.40247
 23  3 10  2 55 27.0000000  0  8G04G08G09G16G26G27G28G31            
  21253718.508 6  21253727.250 9 111689041.611 6  87030457.818 9  21253726.82447
  21029739.664 6  21029754.070 9 110512027.747 6  86113322.837 9  21029752.54749
  23503059.469 4  23503072.668 9 123509421.853 4  96241126.560 9  23503072.30148
  21117435.680 6                 110972866.789 6  86472389.81948  21117442.62148
  22494008.164 5  22494023.098 9 118206798.483 5  92109247.940 9  22494022.47747
  19818256.484 7  19818266.082 9 104145630.807 7  81152462.638 9  19818265.77749
  23652287.477 5  23652309.371 9 124293613.294 5  96852186.398 9  23652309.31647
  23089925.984 5  23089945.785 9 121338363.563 5  94549452.573 9  23089944.44947
 23  3 10  2 55 28.0000000  0  8G04G08G09G16G26G27G28G31            
  21253326.422 6  21253335.672 9 111686981.992 6  87028852.917 9  21253335.50048
  21029054.711 6  21029068.191 9 110508425.135 6  86110515.604 9  21029066.73049
  23502363.891 4  23502377.953 9 123505769.670 4  96238280.705 9  23502377.34848
  21117391.922 6                 110972638.084 6  86472211.60048  21117399.08248
  22494107.438 5  22494122.527 9 118207319.230 5  92109653.712 9  22494121.88347
  19817966.805 7  19817976.023 9 104144107.647 7  81151275.760 9  19817975.46549
  23652501.023 5  23652522.844 9 124294734.475 5  96853060.048 9  23652522.77047
  23090061.984 5  23090082.039 9 121339078.272 5  94550009.484 9  23090080.59047
 23  3 10  2 55 29.0000000  0  8G04G08G09G16G26G27G28G31            
  21252934.672 6  21252944.328 9 111684923.229 6  87027248.685 9  21252943.96947
  21028368.945 6  21028382.551 9 110504823.248 6  86107708.940 9  21028381.39149
  23501668.648 4  23501682.832 8 123502118.139 4  96235435.372 8  23501682.28548
  21117347.961 6                 110972409.744 6  86472033.67148  21117355.49648
  22494205.711 5  22494221.414 9 118207840.173 5  92110059.630 9  22494220.96547
  19817676.922 7  19817686.578 9 104142585.376 7  81150089.569 9  19817686.09049
  23652714.156 5  23652736.258 9 124295856.184 5  96853934.115 9  23652736.04747
  23090197.852 6  23090218.031 9 121339793.442 6  94550566.749 9  23090216.82847
 23  3 10  2 55 30.0000000  0  8G04G08G09G16G26G27G28G31            
  21252543.219 6  21252552.227 9 111682865.011 6  87025644.870 9  21252551.69147
  21027683.289 6  21027697.367 9 110501221.782 6  86104902.602 9  21027695.84849
  23500974.617 4  23500988.625 9 123498467.021 4  96232590.355 9  23500988.01248
  21117304.727 6                 110972181.449 6  86471855.77148  21117311.99248
  22494305.055 5  22494320.445 9 118208361.017 5  92110465.469 9  22494319.61347
  19817387.430 6  19817396.887 9 104141063.708 6  81148903.849 9  19817396.24649
  23652927.398 5  23652949.480 9 124296978.050 5  96854808.302 9  23652949.44947
  23090334.211 5  23090353.902 8 121340508.805 5  94551124.167 8  23090352.89147
 23  3 10  2 55 31.0000000  0  8G04G08G09G16G26G27G28G31            
  21252151.477 6  21252161.285 9 111680807.687 6  87024041.764 9  21252160.59847
  21026998.438 6  21027011.871 9 110497621.131 6  86102096.904 9  21027010.59849
  23500279.180 4  23500293.969 8 123494816.615 4  96229745.897 8  23500293.34448
  21117261.172 6                 110971953.593 6  86471678.22348  21117268.41048
  22494404.297 5  22494419.965 9 118208882.132 5  92110871.525 9  22494419.10947
  19817098.125 7  19817107.801 9 104139542.998 7  81147718.884 9  19817107.14149
  23653141.852 5  23653163.348 9 124298100.512 5  96855682.946 9  23653163.20347
  23090470.344 5  23090489.988 8 121341224.727 5  94551682.018 8  23090488.91847
 23  3 10  2 55 32.0000000  0  8G04G08G09G16G26G27G28G31            
  21251760.047 6  21251769.559 9 111678750.891 6  87022439.066 9  21251769.03947
  21026313.102 6  21026326.766 9 110494020.784 6  86099291.438 9  21026325.46549
  23499585.266 4  23499599.293 8 123491166.515 4  96226901.659 8  23499598.53548
  21117218.078 6                 110971725.760 6  86471500.68848  21117225.36748
  22494503.336 5  22494518.805 9 118209403.082 5  92111277.453 9  22494518.21947
  19816808.805 7  19816818.539 9 104138022.843 7  81146534.348 9  19816817.80949
  23653355.234 5  23653376.953 8 124299223.145 5  96856557.729 8  23653376.71547
  23090606.695 5  23090626.668 8 121341940.786 5  94552239.979 8  23090625.40247
 23  3 10  2 55 33.0000000  0  8G04G08G09G16G26G27G28G31            
  21251368.570 6  21251378.660 9 111676695.026 6  87020837.092 9  21251377.71147
  21025628.680 6  21025642.566 9 110490421.294 6  86096486.644 9  21025641.12549
  23498889.734 4  23498904.730 8 123487517.233 4  96224058.069 8  23498904.04748
  21117174.984 6                 110971498.351 6  86471323.47548  21117181.97748
  22494602.805 5  22494618.262 9 118209924.350 5  92111683.623 9  22494617.57847
  19816519.688 7  19816529.441 9 104136503.677 7  81145350.577 9  19816528.59849
  23653569.156 5  23653591.191 9 124300346.358 5  96857432.958 9  23653591.08647
  23090742.813 5  23090763.082 8 121342657.412 5  94552798.386 8  23090761.53547
 23  3 10  2 55 34.0000000  0  8G04G08G09G16G26G27G28G31            
  21250977.766 6  21250987.504 9 111674639.893 6  87019235.685 9  21250986.77047
  21024943.555 6  21024957.023 9 110486822.386 6  86093682.295 9  21024955.87949
  23498196.047 4  23498210.180 8 123483868.467 4  96221214.856 8  23498209.61748
  21117131.445 6                 110971271.210 6  86471146.47748  21117138.91848
  22494701.656 5  22494717.582 9 118210445.697 5  92112089.854 9  22494717.05947
  19816231.031 6  19816240.398 9 104134985.286 6  81144167.417 9  19816239.55149
  23653782.859 5  23653804.277 9 124301469.972 5  96858308.508 9  23653804.42647
  23090879.602 5  23090898.957 8 121343374.437 5  94553357.096 8  23090897.60247
 23  3 10  2 55 35.0000000  0  8G04G08G09G16G26G27G28G31            
  21250586.852 6  21250596.859 9 111672585.362 6  87017634.746 9  21250595.91047
  21024258.578 6  21024272.551 9 110483223.977 6  86090878.342 9  21024271.14549
  23497502.211 4  23497516.633 9 123480220.132 4  96218371.996 9  23497515.75048
  21117088.359 6                 110971044.159 6  86470969.54648  21117095.78148
  22494801.008 5  22494816.617 9 118210966.983 5  92112496.036 9  22494815.94947
  19815942.250 7  19815951.887 9 104133467.558 7  81142984.771 9  19815951.20749
  23653996.906 5  23654018.395 9 124302593.819 5  96859184.240 9  23654018.46147
  23091015.984 5  23091036.035 9 121344091.701 5  94553915.995 9  23091034.62147
 23  3 10  2 55 36.0000000  0  8G04G08G09G16G26G27G28G31            
  21250196.039 6  21250206.020 9 111670531.436 6  87016034.276 9  21250204.99247
  21023574.383 6  21023587.602 9 110479626.044 6  86088074.753 9  21023586.22749
  23496808.148 5  23496822.500 9 123476572.219 5  96215529.479 9  23496821.50048
  21117045.313 6                 110970817.227 6  86470792.71948  21117052.30548
  22494900.344 5  22494915.695 9 118211488.217 5  92112902.181 9  22494915.18447
  19815653.258 7  19815662.965 9 104131950.473 7  81141802.627 9  19815662.15249
  23654210.453 5  23654232.246 9 124303717.909 5  96860060.158 9  23654232.30547
  23091152.195 5  23091172.328 9 121344809.203 5  94554475.084 9  23091171.08247
 23  3 10  2 55 37.0000000  0  8G04G08G09G16G26G27G28G31            
  21249805.719 6  21249815.168 9 111668478.365 6  87014434.479 9  21249814.23047
  21022889.320 6  21022903.168 9 110476028.805 6  86085271.701 9  21022901.93849
  23496113.078 5  23496128.480 9 123472925.005 5  96212687.506 9  23496127.44548
  21117002.172 6                 110970590.609 6  86470616.12548  21117009.52748
  22494999.156 5  22495014.996 9 118212009.656 5  92113308.487 9  22495014.36747
  19815365.094 7  19815374.500 9 104130434.286 7  81140621.181 9  19815373.77749
  23654424.289 5  23654446.270 9 124304842.513 5  96860936.476 9  23654446.34847
  23091289.156 5  23091308.848 9 121345527.196 5  94555034.551 9  23091307.42247
 23  3 10  2 55 38.0000000  0  8G04G08G09G16G26G27G28G31            
  21249414.727 6  21249424.734 9 111666426.150 6  87012835.342 9  21249423.61347
  21022205.375 6  21022218.926 9 110472432.376 6  86082469.289 9  21022217.85249
  23495420.156 5  23495434.273 9 123469278.485 5  96209846.070 9  23495433.25048
  21116958.914 6                 110970364.429 6  86470439.87948  21116966.35548
  22495098.188 5  22495114.441 9 118212531.319 5  92113714.972 9  22495113.75447
  19815076.484 7  19815086.234 9 104128919.005 7  81139440.442 9  19815085.49249
  23654638.961 5  23654660.438 9 124305967.630 5  96861813.191 9  23654660.37547
  23091425.398 5  23091445.723 9 121346245.688 5  94555594.408 9  23091444.44947
 23  3 10  2 55 39.0000000  0  8G04G08G09G16G26G27G28G31            
  21249024.602 6  21249034.051 9 111664374.645 6  87011236.757 9  21249033.23047
  21021520.742 6  21021534.789 9 110468836.471 6  86079667.281 9  21021533.44149
  23494726.164 5  23494740.172 9 123465632.463 5  96207005.006 9  23494739.29748
  21116916.242 6                 110970138.407 6  86470263.74748  21116923.14548
  22495197.867 5  22495214.102 9 118213053.002 5  92114121.469 9  22495213.23447
  19814788.555 6  19814797.520 9 104127404.465 6  81138260.279 9  19814796.91049
  23654852.531 5  23654874.645 9 124307093.072 5  96862690.157 9  23654874.33247
  23091562.219 5  23091582.488 8 121346964.497 5  94556154.514 8  23091581.39847
 23  3 10  2 55 40.0000000  0  8G04G08G09G16G26G27G28G31            
  21248634.266 6  21248643.738 9 111662323.781 6  87009638.673 9  21248643.01247
  21020836.102 6  21020850.523 9 110465241.153 6  86076865.734 9  21020849.44549
  23494032.258 4  23494046.801 9 123461986.923 4  96204164.322 9  23494045.73448
  21116873.109 6                 110969912.600 6  86470087.79248  21116880.16448
  22495297.359 5  22495313.211 9 118213574.725 5  92114527.996 9  22495312.41047
  19814500.273 7  19814509.637 9 104125890.648 7  81137080.687 9  19814508.80949
  23655067.281 5  23655088.945 9 124308218.887 5  96863567.417 9  23655088.66046
  23091699.281 5  23091719.855 9 121347683.632 5  94556714.868 9  23091718.68047
 23  3 10  2 55 41.0000000  0  8G04G08G09G16G26G27G28G31            
  21248243.977 6  21248253.207 9 111660273.586 6  87008041.116 9  21248252.60247
  21020152.516 6  21020166.512 9 110461646.335 6  86074064.582 9  21020165.46549
  23493338.484 4  23493353.602 9 123458341.881 4  96201324.021 9  23493352.37948
  21116830.016 6                 110969686.919 6  86469911.93448  21116836.95348
  22495396.625 5  22495411.988 9 118214096.425 5  92114934.506 9  22495411.37947
  19814212.422 7  19814222.152 9 104124377.503 7  81135901.610 9  19814221.36349
  23655281.664 5  23655303.234 9 124309344.933 5  96864444.855 9  23655302.84047
  23091836.109 5  23091855.965 9 121348403.060 5  94557275.458 9  23091854.96147
 23  3 10  2 55 42.0000000  0  8G04G08G09G16G26G27G28G31            
  21247854.180 6  21247863.203 9 111658224.071 6  87006444.083 9  21247862.60247
  21019468.859 6  21019482.520 9 110458052.136 6  86071263.906 9  21019481.43049
  23492644.570 4  23492659.930 9 123454697.346 4  96198484.123 9  23492658.60548
  21116787.344 6                 110969461.440 6  86469736.24048  21116794.48848
  22495496.102 5  22495511.113 9 118214618.172 5  92115341.053 9  22495510.68847
  19813924.602 7  19813934.203 9 104122865.124 7  81134723.131 9  19813933.37549
  23655495.570 5  23655517.418 9 124310471.376 5  96865322.603 9  23655516.91446
  23091972.898 5  23091992.617 9 121349122.825 5  94557836.299 9  23091991.82447
 23  3 10  2 55 43.0000000  0  8G04G08G09G16G26G27G28G31            
  21247464.227 6  21247473.719 9 111656175.464 6  87004847.764 9  21247473.30947
  21018784.547 6  21018798.875 9 110454458.702 6  86068463.827 9  21018797.57049
  23491951.477 4  23491966.449 8 123451053.534 4  96195644.799 8  23491965.20348
  21116744.945 6                 110969236.363 6  86469560.85148  21116751.63348
  22495595.422 5  22495610.379 9 118215140.198 5  92115747.813 9  22495609.96547
  19813636.813 7  19813646.160 9 104121353.671 7  81133545.373 9  19813645.54749
  23655710.094 5  23655731.523 9 124311598.313 5  96866200.738 9  23655731.05147
  23092110.063 5  23092130.203 8 121349843.116 5  94558397.549 8  23092129.30147
 23  3 10  2 55 44.0000000  0  8G04G08G09G16G26G27G28G31            
  21247074.102 6  21247084.102 9 111654127.579 6  87003252.003 9  21247083.73447
  21018100.953 6  21018114.992 9 110450865.927 6  86065664.263 9  21018113.77049
  23491258.805 4  23491273.070 8 123447410.262 4  96192805.877 8  23491271.93448
  21116701.688 6                 110969011.548 6  86469385.66448  21116708.75848
  22495694.641 5  22495710.094 9 118215662.263 5  92116154.615 9  22495709.46547
  19813349.750 7  19813359.188 9 104119843.007 7  81132368.233 9  19813358.64849
  23655924.109 5  23655946.211 9 124312725.680 5  96867079.208 9  23655945.91447
  23092247.180 5  23092267.348 8 121350563.769 5  94558959.088 8  23092266.41447
 23  3 10  2 55 45.0000000  0  8G04G08G09G16G26G27G28G31            
  21246684.906 6  21246694.059 9 111652080.283 6  87001656.704 9  21246693.70347
  21017417.367 6  21017431.535 9 110447273.597 6  86062865.047 9  21017430.29749
  23490565.656 4  23490579.527 8 123443767.407 4  96189967.290 8  23490578.57048
  21116659.172 6                 110968786.813 6  86469210.54348  21116666.05548
  22495794.102 5  22495809.012 9 118216184.265 5  92116561.359 9  22495808.37147
  19813061.938 7  19813071.723 9 104118332.953 7  81131191.563 9  19813071.25849
  23656138.422 5  23656161.035 9 124313853.245 5  96867957.835 9  23656160.72347
  23092384.313 5  23092404.824 8 121351284.646 5  94559520.802 8  23092403.71147
 23  3 10  2 55 46.0000000  0  8G04G08G09G16G26G27G28G31            
  21246295.203 6  21246304.863 9 111650033.664 6  87000061.928 9  21246304.67247
  21016733.758 6  21016747.652 9 110443681.841 6  86060066.271 9  21016746.52349
  23489872.078 4  23489886.625 9 123440125.048 4  96187129.091 9  23489885.43848
  21116616.352 6                 110968562.258 6  86469035.56448  21116623.43848
  22495893.055 5  22495908.395 9 118216706.295 5  92116968.127 9  22495908.08247
  19812774.492 7  19812784.004 9 104116823.638 7  81130015.475 9  19812783.68449
  23656353.039 5  23656375.871 9 124314981.157 5  96868836.727 9  23656375.16047
  23092521.297 5  23092542.000 8 121352005.857 5  94560082.779 8  23092541.01247
 23  3 10  2 55 47.0000000  0  8G04G08G09G16G26G27G28G31            
  21245906.031 6  21245915.320 9 111647987.807 6  86998467.754 9  21245915.07847
  21016050.547 6  21016064.762 9 110440090.740 6  86057268.018 9  21016063.61749
  23489179.633 4  23489193.805 9 123436483.284 4  96184291.361 9  23489192.65648
  21116573.453 6                 110968338.001 6  86468860.81748  21116580.40648
  22495992.875 5  22496008.199 9 118217228.475 5  92117375.012 9  22496007.57847
  19812487.727 7  19812497.457 9 104115315.134 7  81128840.012 9  19812496.80149
  23656568.055 5  23656590.934 9 124316109.494 5  96869715.953 9  23656590.25847
  23092658.602 5  23092679.508 8 121352727.452 5  94560645.059 8  23092678.16047
 23  3 10  2 55 48.0000000  0  8G04G08G09G16G26G27G28G31            
  21245516.648 6  21245525.719 9 111645942.269 6  86996873.826 9  21245525.55547
  21015367.102 6  21015381.035 9 110436499.864 6  86054469.936 9  21015380.08649
  23488486.188 4  23488500.738 9 123432841.685 4  96181453.753 9  23488499.52348
  21116530.922 6                 110968113.536 6  86468685.89848  21116538.06648
  22496091.914 5  22496107.195 9 118217750.284 5  92117781.604 9  22496106.60947
  19812200.461 7  19812209.672 9 104113807.001 7  81127664.839 9  19812209.24249
  23656782.859 5  23656805.461 9 124317237.793 5  96870595.153 9  23656804.57047
  23092796.367 5  23092816.578 8 121353449.039 5  94561207.330 8  23092815.46547
 23  3 10  2 55 49.0000000  0  8G04G08G09G16G26G27G28G31            
  21245128.008 6  21245137.008 9 111643897.588 6  86995280.570 9  21245136.78148
  21014684.211 6  21014698.059 9 110432909.650 6  86051672.367 9  21014697.03149
  23487793.445 4  23487807.246 9 123429200.733 4  96178616.643 9  23487806.43848
  21116487.914 6                 110967889.464 6  86468511.29948  21116495.35248
  22496191.203 5  22496206.750 9 118218272.295 5  92118188.354 9  22496206.11347
  19811913.820 7  19811923.809 9 104112299.749 7  81126490.358 9  19811923.17249
  23656997.602 5  23657020.078 9 124318366.577 5  96871474.730 9  23657019.21547
  23092933.813 5  23092954.359 8 121354171.057 5  94561769.933 8  23092953.08247
 23  3 10  2 55 50.0000000  0  8G04G08G09G16G26G27G28G31            
  21244739.211 6  21244747.898 9 111641853.481 6  86993687.760 9  21244747.58647
  21014001.078 6  21014014.934 9 110429319.921 6  86048875.179 9  21014014.04749
  23487100.633 5  23487114.684 9 123425560.185 5  96175779.855 9  23487113.82448
  21116445.656 6                 110967665.454 6  86468336.73848  21116452.94148
  22496290.664 5  22496306.129 9 118218794.251 5  92118595.064 9  22496305.39547
  19811627.055 7  19811636.762 9 104110793.139 7  81125316.372 9  19811636.25049
  23657212.648 5  23657234.809 9 124319495.591 5  96872354.482 9  23657234.12547
  23093071.250 5  23093091.934 9 121354893.317 5  94562332.727 9  23093090.62547
 23  3 10  2 55 51.0000000  0  8G04G08G09G16G26G27G28G31            
  21244350.250 6  21244358.672 9 111639809.977 6  86992095.419 9  21244358.50847
  21013317.484 6  21013331.973 9 110425730.683 6  86046078.370 9  21013330.80149
  23486408.344 4  23486421.762 9 123421920.124 4  96172943.439 9  23486420.87948
  21116403.273 6                 110967441.576 6  86468162.28248  21116410.38348
  22496389.547 5  22496404.949 9 118219316.177 5  92119001.745 9  22496404.40647
  19811340.781 7  19811350.344 9 104109287.189 7  81124142.904 9  19811349.80949
  23657427.313 5  23657449.258 9 124320624.915 5  96873234.477 9  23657448.80947
  23093208.273 6  23093228.883 9 121355615.862 6  94562895.740 9  23093227.78147
 23  3 10  2 55 52.0000000  0  8G04G08G09G16G26G27G28G31            
  21243962.172 6  21243970.543 9 111637767.397 6  86990503.808 9  21243969.98848
  21012634.922 6  21012649.164 9 110422142.228 6  86043282.173 9  21012648.17249
  23485715.055 5  23485729.836 9 123418280.753 5  96170107.569 9  23485728.80148
  21116360.469 6                 110967218.140 6  86467988.17548  21116367.48848
  22496489.945 5  22496504.863 9 118219838.347 5  92119408.625 9  22496504.21947
  19811054.250 7  19811063.723 9 104107782.203 7  81122970.184 9  19811063.22749
  23657641.953 5  23657664.766 9 124321754.753 5  96874114.873 9  23657664.10247
  23093346.234 5  23093366.621 9 121356338.943 5  94563459.171 9  23093365.67247
 23  3 10  2 55 53.0000000  0  8G04G08G09G16G26G27G28G31            
  21243573.453 6  21243582.141 9 111635725.614 6  86988912.809 9  21243581.54347
  21011952.297 6  21011966.270 9 110418554.472 6  86040486.526 9  21011965.23049
  23485023.117 5  23485037.262 9 123414641.992 5  96167272.179 9  23485036.41048
  21116318.156 6                 110966994.998 6  86467814.29748  21116324.82848
  22496588.938 5  22496603.789 9 118220360.658 5  92119815.611 9  22496603.28147
  19810768.383 7  19810777.301 9 104106278.059 7  81121798.119 9  19810777.11349
  23657856.531 5  23657879.672 9 124322885.030 5  96874995.612 9  23657879.00047
  23093483.984 5  23093504.191 8 121357062.457 5  94564022.944 8  23093503.03947
 23  3 10  2 55 54.0000000  0  8G04G08G09G16G26G27G28G31            
  21243184.852 6  21243193.926 9 111633684.503 6  86987322.338 9  21243193.02347
  21011269.617 6  21011284.082 9 110414967.254 6  86037691.298 9  21011282.97749
  23484330.359 5  23484344.902 9 123411003.749 5  96164437.183 9  23484344.11748
  21116275.523 6                 110966771.979 6  86467640.51248  21116282.92648
  22496687.961 5  22496703.094 9 118220882.992 5  92120222.618 9  22496702.48847
  19810482.305 7  19810491.348 9 104104774.585 7  81120626.576 9  19810490.98449
  23658072.344 5  23658095.156 9 124324015.673 5  96875876.638 9  23658094.33647
  23093621.516 5  23093642.266 8 121357786.301 5  94564586.978 8  23093641.05947
 23  3 10  2 55 55.0000000  0  8G04G08G09G16G26G27G28G31            
  21242796.211 6  21242805.184 9 111631644.018 6  86985732.346 9  21242804.44947
  21010587.094 6  21010601.313 9 110411380.558 6  86034896.472 9  21010600.29349
  23483638.406 5  23483652.477 8 123407366.005 5  96161602.574 8  23483651.69948
  21116233.094 6                 110966549.160 6  86467466.87548  21116240.16448
  22496787.281 5  22496802.355 9 118221405.320 5  92120629.617 9  22496801.80547
  19810196.195 7  19810205.898 9 104103271.845 7  81119455.604 9  19810205.27749
  23658287.781 5  23658310.500 9 124325146.558 5  96876757.854 9  23658309.72347
  23093758.977 5  23093780.039 8 121358510.393 5  94565151.198 8  23093778.91047
 23  3 10  2 55 56.0000000  0  8G04G08G09G16G26G27G28G31            
  21242408.125 6  21242417.473 9 111629604.344 6  86984142.992 9  21242416.80147
  21009904.992 6  21009919.004 9 110407794.545 6  86032102.182 9  21009917.91049
  23482946.313 4  23482960.246 8 123403728.854 4  96158768.433 8  23482959.73448
  21116190.930 6                 110966326.639 6  86467293.48348  21116197.77048
  22496886.430 5  22496901.969 9 118221927.811 5  92121036.737 9  22496901.61347
  19809910.492 7  19809919.781 9 104101769.959 7  81118285.305 9  19809919.23449
  23658503.219 5  23658525.305 9 124326277.938 5  96877639.454 9  23658524.59847
  23093897.195 5  23093917.910 8 121359234.928 5  94565715.763 8  23093916.85247
 23  3 10  2 55 57.0000000  0  8G04G08G09G16G26G27G28G31            
  21242020.078 6  21242029.395 9 111627565.614 6  86982554.369 9  21242028.57447
  21009222.578 6  21009236.379 9 110404209.353 6  86029308.531 9  21009235.35549
  23482254.484 4  23482268.453 8 123400092.463 4  96155934.883 8  23482267.70348
  21116148.922 6                 110966104.564 6  86467120.42748  21116155.86748
  22496986.367 5  22497001.539 9 118222450.577 5  92121444.080 9  22497000.97347
  19809624.820 7  19809634.438 9 104100269.040 7  81117115.757 9  19809633.74249
  23658718.422 5  23658740.910 9 124327409.872 5  96878521.481 9  23658740.28947
  23094035.141 6  23094056.117 8 121359960.071 6  94566280.800 8  23094055.07447
 23  3 10  2 55 58.0000000  0  8G04G08G09G16G26G27G28G31            
  21241632.039 6  21241641.559 9 111625527.356 6  86980966.112 9  21241640.63747
  21008540.227 6  21008554.734 9 110400624.519 6  86026515.158 9  21008553.47349
  23481562.016 4  23481576.277 8 123396456.384 4  96153101.574 8  23481575.43048
  21116106.039 6                 110965882.453 6  86466947.35548  21116113.38348
  22497085.148 5  22497100.957 9 118222973.176 5  92121851.289 9  22497100.32447
  19809339.203 7  19809348.578 9 104098768.636 7  81115946.605 9  19809347.87549
  23658933.672 5  23658956.078 9 124328541.945 5  96879403.625 9  23658955.42247
  23094172.750 5  23094193.465 8 121360685.307 5  94566845.916 8  23094192.23847
 23  3 10  2 55 59.0000000  0  8G04G08G09G16G26G27G28G31            
  21241244.250 6  21241253.832 9 111623489.703 6  86979378.331 9  21241252.98847
  21007858.453 6  21007872.457 9 110397040.146 6  86023722.143 9  21007871.32449
  23480870.188 4  23480884.680 9 123392820.727 4  96150268.598 9  23480883.84848
  21116064.188 6                 110965660.498 6  86466774.39648  21116071.32848
  22497185.422 5  22497200.359 9 118223495.713 5  92122258.457 9  22497199.73447
  19809053.609 7  19809063.199 9 104097268.899 7  81114777.981 9  19809062.45749
  23659149.445 5  23659171.664 9 124329674.283 5  96880285.974 9  23659171.05947
  23094311.352 5  23094331.559 8 121361410.792 5  94567411.225 8  23094330.58247
 23  3 10  2 56  0.0000000  0  8G04G08G09G16G26G27G28G31            
  21240856.531 6  21240866.625 9 111621452.688 6  86977791.043 9  21240865.81647
  21007176.414 6  21007190.273 9 110393456.333 6  86020929.566 9  21007188.96949
  23480178.523 4  23480192.906 9 123389185.542 4  96147435.994 9  23480192.42248
  21116022.102 6                 110965438.640 6  86466601.51948  21116029.17248
  22497284.469 5  22497299.875 9 118224018.253 5  92122665.625 9  22497299.06347
  19808768.398 7  19808778.117 9 104095769.836 7  81113609.880 9  19808777.14549
  23659365.172 5  23659387.348 9 124330806.885 5  96881168.523 9  23659386.62947
  23094449.258 5  23094470.137 8 121362136.563 5  94567976.756 8  23094468.97747
 23  3 10  2 56  1.0000000  0  8G04G08G09G16G26G27G28G31            
  21240469.023 6  21240478.480 9 111619416.567 6  86976204.452 9  21240477.68047
  21006494.617 6  21006508.465 9 110389873.264 6  86018137.570 9  21006507.46949
  23479486.922 5  23479500.652 9 123385551.077 5  96144603.949 9  23479500.44148
  21115979.727 6                 110965217.177 6  86466428.94548  21115987.03948
  22497383.992 5  22497399.336 9 118224541.021 5  92123072.969 9  22497398.65647
  19808483.242 7  19808493.098 9 104094271.705 7  81112442.509 9  19808492.25849
  23659580.336 5  23659602.938 9 124331940.061 5  96882051.523 9  23659602.41047
  23094587.039 5  23094608.262 8 121362862.867 5  94568542.697 8  23094606.89847
 23  3 10  2 56  2.0000000  0  8G04G08G09G16G26G27G28G31            
  21240082.328 6  21240091.504 9 111617381.178 6  86974618.423 9  21240090.44947
  21005812.727 6  21005826.945 9 110386290.836 6  86015346.067 9  21005825.75449
  23478795.547 4  23478809.313 9 123381917.151 4  96141772.324 9  23478809.00448
  21115937.719 6                 110964995.996 6  86466256.59048  21115944.53948
  22497483.406 5  22497499.074 9 118225063.884 5  92123480.386 9  22497498.22347
  19808198.430 7  19808208.027 9 104092774.377 7  81111275.763 9  19808207.62949
  23659797.109 5  23659818.777 9 124333073.608 5  96882934.814 9  23659817.96947
  23094725.758 5  23094746.609 8 121363589.543 5  94569108.933 8  23094745.54747
 23  3 10  2 56  3.0000000  0  8G04G08G09G16G26G27G28G31            
  21239694.789 6  21239704.156 9 111615346.204 6  86973032.721 9  21239703.28547
  21005130.930 6  21005144.727 9 110382708.669 6  86012554.771 9  21005143.61349
  23478103.523 4  23478118.207 9 123378283.476 4  96138940.894 9  23478117.48048
  21115895.547 6                 110964774.689 6  86466084.14548  21115902.64848
  22497582.906 5  22497597.969 9 118225586.488 5  92123887.596 9  22497597.25847
  19807913.461 7  19807923.391 9 104091277.466 7  81110109.338 9  19807922.68849
  23660012.578 5  23660034.453 9 124334207.194 5  96883818.128 9  23660033.50847
  23094864.195 5  23094884.344 8 121364316.244 5  94569675.183 8  23094883.55147
 23  3 10  2 56  4.0000000  0  8G04G08G09G16G26G27G28G31            
  21239308.000 6  21239316.922 9 111613312.065 6  86971447.674 9  21239316.20347
  21004449.742 6  21004463.824 9 110379127.247 6  86009764.058 9  21004462.59449
  23477412.438 4  23477426.797 9 123374650.482 4  96136109.997 9  23477426.13348
  21115853.484 6                 110964553.733 6  86465911.96848  21115860.23848
  22497682.203 5  22497697.055 9 118226109.301 5  92124294.970 9  22497696.48847
  19807629.180 7  19807639.031 9 104089781.465 7  81108943.628 9  19807638.20349
  23660228.094 5  23660250.230 9 124335341.286 5  96884701.848 9  23660249.44547
  23095003.047 5  23095022.430 8 121365043.437 5  94570241.826 8  23095022.21147
 23  3 10  2 56  5.0000000  0  8G04G08G09G16G26G27G28G31            
  21238920.891 6  21238930.699 9 111611278.665 6  86969863.201 9  21238929.36347
  21003767.656 6  21003782.012 9 110375546.452 6  86006973.829 9  21003780.75049
  23476721.477 4  23476735.344 9 123371018.031 4  96133279.516 9  23476734.85248
  21115811.602 6                 110964333.030 6  86465739.99148  21115819.04748
  22497781.914 5  22497797.348 9 118226632.196 5  92124702.410 9  22497796.47347
  19807344.406 7  19807353.848 9 104088286.260 7  81107778.535 9  19807353.22349
  23660444.156 5  23660466.074 9 124336475.743 5  96885585.846 9  23660465.41847
  23095141.023 5  23095161.746 8 121365771.010 5  94570808.758 8  23095160.72347
 23  3 10  2 56  6.0000000  0  8G04G08G09G16G26G27G28G31            
  21238534.305 6  21238543.359 9 111609245.809 6  86968279.146 9  21238542.53547
  21003086.414 6  21003100.566 9 110371966.072 6  86004183.920 9  21003099.71949
  23476030.727 4  23476044.555 9 123367385.929 4  96130449.309 9  23476043.98848
  21115769.289 6                 110964112.387 6  86465568.06048  21115776.28948
  22497880.938 5  22497896.496 9 118227154.979 5  92125109.762 9  22497895.66847
  19807059.938 7  19807069.500 9 104086791.628 7  81106613.883 9  19807068.70349
  23660659.797 5  23660681.875 9 124337610.442 5  96886470.031 9  23660681.45747
  23095279.445 5  23095299.668 8 121366498.764 5  94571375.828 8  23095298.73447
 23  3 10  2 56  7.0000000  0  8G04G08G09G16G26G27G28G31            
  21238147.523 6  21238156.578 9 111607213.778 6  86966695.738 9  21238155.66447
  21002405.742 6  21002419.383 9 110368386.438 6  86001394.592 9  21002418.21549
  23475339.438 4  23475353.871 8 123363754.522 4  96127619.646 8  23475353.31348
  21115727.688 6                 110963892.056 6  86465396.36648  21115734.55548
  22497980.875 5  22497996.344 9 118227677.926 5  92125517.247 9  22497995.18847
  19806775.602 7  19806785.207 9 104085297.850 7  81105449.903 9  19806784.33249
  23660876.445 5  23660898.254 9 124338745.563 5  96887354.540 9  23660897.71947
  23095418.313 5  23095438.867 8 121367226.983 5  94571943.272 8  23095438.01647
 23  3 10  2 56  8.0000000  0  8G04G08G09G16G26G27G28G31            
  21237760.906 6  21237770.008 9 111605182.525 6  86965112.943 9  21237769.15647
  21001724.891 6  21001738.551 9 110364807.476 6  85998605.793 9  21001737.35949
  23474647.859 4  23474662.898 8 123360123.725 4  96124790.455 8  23474661.89848
  21115686.141 6                 110963672.017 6  86465224.90548  21115692.94148
  22498080.125 5  22498095.691 8 118228201.024 5  92125924.847 8  22498094.73847
  19806491.633 7  19806500.629 9 104083804.923 7  81104286.583 9  19806500.02049
  23661091.641 5  23661114.293 9 124339881.152 5  96888239.418 9  23661113.59447
  23095556.977 5  23095576.965 8 121367955.614 5  94572511.030 8  23095576.16847
 23  3 10  2 56  9.0000000  0  8G04G08G09G16G26G27G28G31            
  21237374.742 6  21237383.414 9 111603151.770 6  86963530.526 9  21237382.69947
  21001043.977 6  21001057.395 9 110361228.877 6  85995817.270 9  21001056.33649
  23473957.313 4  23473972.418 8 123356493.208 4  96121961.482 8  23473971.47748
  21115643.672 6                 110963451.998 6  86465053.45848  21115650.78548
  22498179.906 5  22498195.406 8 118228723.939 5  92126332.301 8  22498194.32447
  19806207.781 7  19806217.480 9 104082312.534 7  81103123.681 9  19806216.88349
  23661308.281 5  23661330.039 9 124341016.876 5  96889124.407 9  23661329.45747
  23095695.859 5  23095715.824 8 121368684.413 5  94573078.917 8  23095715.11347
 23  3 10  2 56 10.0000000  0  8G04G08G09G16G26G27G28G31            
  21236988.180 6  21236997.168 9 111601121.632 6  86961948.595 9  21236996.51648
  21000362.781 6  21000376.527 9 110357650.786 6  85993029.142 9  21000375.39849
  23473267.367 4  23473281.672 9 123352863.131 4  96119132.854 9  23473280.82048
  21115601.906 6                 110963232.063 6  86464882.07848  21115609.30548
  22498279.172 5  22498295.066 9 118229246.834 5  92126739.749 9  22498293.86747
  19805924.078 7  19805933.379 9 104080820.808 7  81101961.300 9  19805932.62949
  23661524.195 5  23661546.223 9 124342152.850 5  96890009.587 9  23661545.44147
  23095834.516 5  23095854.664 8 121369413.418 5  94573646.962 8  23095853.69547
 23  3 10  2 56 11.0000000  0  8G04G08G09G16G26G27G28G31            
  21236601.891 6  21236610.527 9 111599092.143 6  86960367.176 9  21236609.99647
  20999681.797 6  20999696.035 9 110354073.216 6  85990241.423 9  20999694.89549
  23472576.203 4  23472590.613 9 123349233.572 4  96116304.623 9  23472589.49248
  21115560.156 6                 110963012.284 6  86464710.81848  21115567.19148
  22498378.883 5  22498394.277 9 118229769.727 5  92127147.188 9  22498393.44947
  19805640.055 7  19805649.359 9 104079329.777 7  81100799.452 9  19805648.52749
  23661740.414 5  23661762.465 9 124343289.106 5  96890894.987 9  23661761.71947
  23095972.758 5  23095993.641 8 121370142.727 5  94574215.249 8  23095992.91847
 23  3 10  2 56 12.0000000  0  8G04G08G09G16G26G27G28G31            
  21236215.945 6  21236224.738 9 111597063.384 6  86958786.324 9  21236224.38347
  20999001.086 6  20999014.969 9 110350496.286 6  85987454.203 9  20999013.73449
  23471885.617 4  23471899.789 9 123345604.560 4  96113476.824 9  23471898.90248
  21115518.227 6                 110962792.796 6  86464539.78148  21115525.12148
  22498478.273 5  22498494.047 9 118230292.716 5  92127554.706 9  22498493.08647
  19805356.641 7  19805365.953 9 104077839.526 7  81099638.218 9  19805365.11749
  23661956.773 5  23661978.492 9 124344425.799 5  96891780.726 9  23661978.00447
  23096112.109 5  23096132.605 9 121370872.417 5  94574783.828 9  23096131.71947
 23  3 10  2 56 13.0000000  0  8G04G08G09G16G26G27G28G31            
  21235830.070 6  21235838.617 9 111595035.399 6  86957206.075 9  21235838.34448
  20998320.422 6  20998334.582 9 110346919.982 6  85984667.476 9  20998333.40649
  23471194.859 4  23471209.402 9 123341976.142 4  96110649.489 9  23471208.39548
  21115476.898 6                 110962573.531 6  86464368.91648  21115483.83648
  22498578.234 5  22498593.434 9 118230815.816 5  92127962.311 9  22498592.20747
  19805073.086 7  19805082.051 9 104076350.090 7  81098477.613 9  19805081.41049
  23662173.313 5  23662195.313 9 124345562.904 5  96892666.780 9  23662194.64147
  23096250.180 5  23096271.492 9 121371602.557 5  94575352.760 9  23096270.63747
 23  3 10  2 56 14.0000000  0  8G04G08G09G16G26G27G28G31            
  21235444.477 6  21235453.016 9 111593008.138 6  86955626.394 9  21235452.52047
  20997640.242 6  20997654.090 9 110343344.275 6  85981881.202 9  20997652.93449
  23470505.211 4  23470518.938 9 123338348.263 4  96107822.570 9  23470518.13748
  21115434.891 6                 110962354.518 6  86464198.25748  21115441.91848
  22498677.563 5  22498693.223 9 118231338.952 5  92128369.939 9  22498692.22747
  19804789.742 7  19804799.117 9 104074861.427 7  81097317.609 9  19804798.42249
  23662389.727 5  23662411.754 9 124346700.354 5  96893553.111 9  23662411.22747
  23096389.414 5  23096410.230 9 121372333.004 5  94575921.933 9  23096409.34847
 23  3 10  2 56 15.0000000  0  8G04G08G09G16G26G27G28G31            
  21235058.305 6  21235066.988 9 111590981.428 6  86954047.136 9  21235066.80547
  20996960.180 6  20996973.879 9 110339769.060 6  85979095.316 9  20996972.59849
  23469814.609 4  23469828.688 9 123334720.805 4  96104995.979 9  23469828.00048
  21115393.367 6                 110962135.610 6  86464027.67448  21115400.23048
  22498776.859 5  22498792.234 9 118231862.078 5  92128777.560 9  22498791.34447
  19804506.891 7  19804515.879 9 104073373.369 7  81096158.084 9  19804515.41449
  23662605.453 5  23662628.336 9 124347838.040 5  96894439.628 9  23662627.52047
  23096528.711 5  23096549.469 9 121373063.688 5  94576491.288 9  23096548.60947
 23  3 10  2 56 16.0000000  0  8G04G08G09G16G26G27G28G31            
  21234673.297 6  21234682.293 9 111588955.493 6  86952468.490 9  21234681.59047
  20996279.250 6  20996293.641 9 110336194.471 6  85976309.923 9  20996292.30949
  23469124.234 4  23469138.523 9 123331093.853 4  96102169.786 9  23469137.93448
  21115351.914 6                 110961916.928 6  86463857.26448  21115358.96548
  22498876.508 5  22498892.301 9 118232385.246 5  92129185.215 9  22498891.32047
  19804223.664 7  19804232.762 9 104071886.112 7  81094999.182 9  19804232.28949
  23662823.172 5  23662844.570 9 124348976.129 5  96895326.454 9  23662843.91447
  23096668.063 5  23096688.602 9 121373794.739 5  94577060.935 9  23096687.75847
 23  3 10  2 56 17.0000000  0  8G04G08G09G16G26G27G28G31            
  21234287.680 6  21234296.719 9 111586929.977 6  86950890.164 9  21234295.98047
  20995599.063 6  20995613.691 9 110332620.163 6  85973524.744 9  20995612.39849
  23468434.281 4  23468448.695 9 123327467.244 4  96099343.861 9  23468448.10548
  21115310.234 6                 110961698.153 6  86463686.78548  21115317.22348
  22498976.523 5  22498992.348 9 118232908.173 5  92129592.680 9  22498991.18047
  19803940.758 7  19803949.898 9 104070399.342 7  81093840.654 9  19803949.33649
  23663039.109 5  23663061.211 9 124350114.274 5  96896213.321 9  23663060.44947
  23096807.344 5  23096827.523 9 121374525.890 5  94577630.656 9  23096826.66047
 23  3 10  2 56 18.0000000  0  8G04G08G09G16G26G27G28G31            
  21233902.031 6  21233911.238 9 111584905.249 6  86949312.450 9  21233910.53947
  20994919.211 6  20994933.883 9 110329046.527 6  85970740.096 9  20994932.56649
  23467743.711 4  23467758.555 9 123323841.224 4  96096518.388 9  23467757.58248
  21115268.961 6                 110961479.723 6  86463516.57548  21115275.61348
  22499076.578 5  22499092.012 9 118233431.284 5  92130000.292 9  22499090.88347
  19803657.953 7  19803667.508 9 104068913.397 7  81092682.772 9  19803666.80549
  23663255.695 5  23663277.910 9 124351252.855 5  96897100.531 9  23663277.03547
  23096946.211 5  23096966.547 8 121375257.465 5  94578200.708 8  23096965.87147
 23  3 10  2 56 19.0000000  0  8G04G08G09G16G26G27G28G31            
  21233517.078 6  21233526.180 9 111582881.146 6  86947735.227 9  21233525.17247
  20994239.375 6  20994253.676 9 110325473.436 6  85967955.871 9  20994252.28549
  23467054.680 4  23467068.582 9 123320215.609 4  96093693.238 9  23467067.82848
  21115227.156 6                 110961261.389 6  86463346.44648  21115234.07848
  22499175.789 5  22499191.094 9 118233954.314 5  92130407.842 9  22499190.20347
  19803375.242 7  19803384.723 9 104067428.116 7  81091525.406 9  19803384.03149
  23663472.344 5  23663494.313 9 124352391.701 5  96897987.950 9  23663493.60947
  23097085.055 5  23097105.609 8 121375989.252 5  94578770.925 8  23097104.71947
 23  3 10  2 56 20.0000000  0  8G04G08G09G16G26G27G28G31            
  21233131.875 6  21233140.996 9 111580857.596 6  86946158.436 9  21233140.21547
  20993559.359 6  20993573.789 9 110321900.761 6  85965171.967 9  20993572.59849
  23466364.305 4  23466378.742 8 123316590.432 4  96090868.424 8  23466377.98048
  21115185.445 6                 110961043.108 6  86463176.35048  21115192.66048
  22499275.391 5  22499290.203 9 118234477.324 5  92130815.370 9  22499289.30547
  19803092.664 7  19803102.324 9 104065943.440 7  81090368.512 9  19803101.63349
  23663689.609 5  23663711.375 9 124353530.796 5  96898875.559 9  23663710.47346
  23097224.422 5  23097244.984 8 121376721.296 5  94579341.344 8  23097244.13347
 23  3 10  2 56 21.0000000  0  8G04G08G09G16G26G27G28G31            
  21232747.094 6  21232756.406 9 111578834.618 6  86944582.084 9  21232755.50847
  20992879.906 6  20992893.930 9 110318328.555 6  85962388.429 9  20992892.80549
  23465674.773 4  23465688.855 8 123312965.638 4  96088043.908 8  23465688.02348
  21115143.938 6                 110960824.937 6  86463006.34748  21115151.10948
  22499374.820 5  22499389.980 9 118235000.194 5  92131222.789 9  22499389.14847
  19802810.117 7  19802820.035 9 104064459.374 7  81089212.100 9  19802819.35949
  23663906.039 5  23663928.160 9 124354670.078 5  96899763.316 9  23663927.18446
  23097363.555 5  23097384.738 8 121377453.505 5  94579911.890 8  23097383.78547
 23  3 10  2 56 22.0000000  0  8G04G08G09G16G26G27G28G31            
  21232362.289 6  21232371.516 9 111576812.333 6  86943006.275 9  21232370.30947
  20992200.469 6  20992213.906 9 110314756.894 6  85959605.314 9  20992212.98049
  23464985.430 4  23464999.461 9 123309341.367 4  96085219.801 9  23464998.40648
  21115102.453 6                 110960606.908 6  86462836.44948  21115109.32048
  22499474.500 5  22499489.160 9 118235523.132 5  92131630.265 9  22499488.37947
  19802528.125 7  19802537.605 9 104062976.030 7  81088056.246 9  19802537.05949
  23664122.781 5  23664145.055 9 124355809.698 5  96900651.331 9  23664144.01247
  23097503.313 5  23097524.145 8 121378186.044 5  94580482.692 8  23097523.09047
 23  3 10  2 56 23.0000000  0  8G04G08G09G16G26G27G28G31            
  21231977.203 6  21231986.816 9 111574790.593 6  86941430.893 9  21231985.75848
  20991520.406 6  20991534.691 9 110311185.693 6  85956822.565 9  20991533.59449
  23464295.789 4  23464309.855 9 123305717.444 4  96082395.963 9  23464308.93848
  21115061.383 6                 110960388.992 6  86462666.64248  21115068.09448
  22499573.930 5  22499588.754 9 118236045.944 5  92132037.646 9  22499587.94547
  19802246.180 7  19802255.512 9 104061493.299 7  81086900.870 9  19802254.58649
  23664339.492 5  23664361.582 9 124356949.523 5  96901539.506 9  23664360.90247
  23097643.039 5  23097663.324 8 121378918.820 5  94581053.683 8  23097662.48047
 23  3 10  2 56 24.0000000  0  8G04G08G09G16G26G27G28G31            
  21231592.867 6  21231602.324 9 111572769.642 6  86939856.121 9  21231601.09447
  20990841.469 6  20990855.910 9 110307615.120 6  85954040.301 9  20990854.58249
  23463606.359 4  23463620.094 9 123302094.186 4  96079572.639 9  23463619.56348
  21115019.531 6                 110960171.329 6  86462497.02748  21115026.32448
  22499673.453 5  22499687.895 9 118236568.864 5  92132445.109 9  22499686.98447
  19801963.766 7  19801973.332 9 104060011.371 7  81085746.120 9  19801972.47749
  23664556.547 5  23664578.727 9 124358089.773 5  96902428.020 9  23664578.24247
  23097781.750 5  23097803.113 8 121379651.952 5  94581624.951 8  23097802.10247
 23  3 10  2 56 25.0000000  0  8G04G08G09G16G26G27G28G31            
  21231208.719 6  21231218.367 9 111570749.393 6  86938281.899 9  21231217.05548
  20990161.742 6  20990175.852 9 110304045.156 6  85951258.520 9  20990174.98849
  23462916.664 4  23462930.461 9 123298471.397 4  96076749.690 9  23462930.01648
  21114978.125 6                 110959953.889 6  86462327.59248  21114985.41048
  22499773.266 6  22499787.863 9 118237091.906 6  92132852.662 9  22499786.85247
  19801682.141 7  19801691.746 9 104058530.239 7  81084591.986 9  19801690.79749
  23664773.305 5  23664795.738 9 124359230.399 5  96903316.824 9  23664794.88347
  23097921.641 5  23097942.922 8 121380385.479 5  94582196.524 8  23097941.75847
 23  3 10  2 56 26.0000000  0  8G04G08G09G16G26G27G28G31            
  21230824.391 6  21230833.504 9 111568729.812 6  86936708.192 9  21230832.37947
  20989482.547 6  20989496.531 9 110300475.708 6  85948477.134 9  20989495.71549
  23462228.289 4  23462241.523 9 123294849.103 4  96073927.125 9  23462241.01648
  21114937.484 6                 110959736.606 6  86462158.27648  21114943.73848
  22499872.234 5  22499887.453 9 118237614.912 5  92133260.192 9  22499886.85247
  19801400.336 7  19801410.012 9 104057049.766 7  81083438.370 9  19801409.12949
  23664990.422 5  23665013.109 9 124360371.302 5  96904205.844 9  23665012.35247
  23098061.563 5  23098082.813 8 121381119.257 5  94582768.298 8  23098081.42647
 23  3 10  2 56 27.0000000  0  8G04G08G09G16G26G27G28G31            
  21230440.336 6  21230448.754 9 111566710.821 6  86935134.941 9  21230447.83248
  20988803.344 6  20988817.473 9 110296906.773 6  85945696.145 9  20988816.45349
  23461538.055 4  23461551.973 9 123291227.288 4  96071104.938 9  23461551.64848
  21114895.789 6                 110959519.449 6  86461989.06448  21114902.74648
  22499971.789 5  22499986.871 9 118238137.895 5  92133667.698 9  22499986.13747
  19801118.508 7  19801128.055 9 104055569.977 7  81082285.288 9  19801127.31349
  23665208.227 5  23665230.078 9 124361512.494 5  96905095.088 9  23665229.18447
  23098201.242 5  23098221.867 8 121381853.300 5  94583340.269 8  23098220.60247
 23  3 10  2 56 28.0000000  0  8G04G08G09G16G26G27G28G31            
  21230055.836 6  21230065.406 9 111564692.375 6  86933562.122 9  21230064.37548
  20988124.227 6  20988138.379 9 110293338.256 6  85942915.488 9  20988137.62949
  23460849.070 4  23460862.895 9 123287605.787 4  96068282.992 9  23460862.62948
  21114854.672 6                 110959302.322 6  86461819.86748  21114861.27748
  22500071.000 5  22500086.020 9 118238660.770 5  92134075.127 9  22500085.50847
  19800837.148 7  19800846.574 9 104054090.769 7  81081132.661 9  19800845.82849
  23665424.930 5  23665447.414 9 124362653.861 5  96905984.463 9  23665446.44147
  23098341.047 5  23098362.258 9 121382587.527 5  94583912.395 9  23098360.79347
 23  3 10  2 56 29.0000000  0  8G04G08G09G16G26G27G28G31            
  21229671.914 6  21229681.070 9 111562674.485 6  86931989.733 9  21229680.08647
  20987445.633 6  20987459.637 9 110289770.147 6  85940135.146 9  20987458.58249
  23460160.445 4  23460173.668 9 123283984.684 4  96065461.355 9  23460173.48448
  21114813.375 6                 110959085.240 6  86461650.71548  21114820.14848
  22500170.742 5  22500185.984 9 118239183.522 5  92134482.456 9  22500185.34447
  19800555.727 7  19800565.344 9 104052612.149 7  81079980.490 9  19800564.56349
  23665642.086 5  23665664.742 9 124363795.400 5  96906873.982 9  23665663.59847
  23098480.727 6  23098501.879 9 121383321.975 6  94584484.687 9  23098500.49247
 23  3 10  2 56 30.0000000  0  8G04G08G09G16G26G27G28G31            
  21229288.117 6  21229297.414 9 111560657.476 6  86930418.030 9  21229296.41047
  20986766.695 6  20986780.293 9 110286202.792 6  85937355.398 9  20986779.35249
  23459471.086 4  23459484.699 9 123280364.312 4  96062640.292 9  23459484.52048
  21114771.609 6                 110958868.567 6  86461481.87648  21114778.73048
  22500269.609 5  22500285.012 9 118239706.512 5  92134889.969 9  22500284.29747
  19800274.641 7  19800283.742 9 104051134.432 7  81078829.024 9  19800283.17649
  23665859.695 5  23665881.660 9 124364937.514 5  96907763.945 9  23665880.56647
  23098620.516 5  23098641.363 8 121384056.896 5  94585057.354 8  23098640.71147
 23  3 10  2 56 31.0000000  0  8G04G08G09G16G26G27G28G31            
  21228904.445 6  21228913.441 9 111558641.227 6  86928846.925 9  21228912.21547
  20986088.016 6  20986101.887 9 110282636.115 6  85934576.174 9  20986100.75849
  23458782.438 4  23458795.797 8 123276744.514 4  96059819.666 8  23458795.40248
  21114731.000 6                 110958652.148 6  86461313.23048  21114737.58248
  22500370.406 5  22500384.945 9 118240229.570 5  92135297.537 9  22500384.25847
  19799993.539 7  19800003.082 9 104049657.547 7  81077678.200 9  19800002.44549
  23666076.805 5  23666099.148 9 124366079.979 5  96908654.180 9  23666098.11346
  23098760.688 5  23098781.063 8 121384792.182 5  94585630.299 8  23098780.32447
 23  3 10  2 56 32.0000000  0  8G04G08G09G16G26G27G28G31            
  21228520.945 6  21228529.953 9 111556625.566 6  86927276.273 9  21228528.96947
  20985409.391 6  20985422.867 9 110279069.907 6  85931797.314 9  20985422.06649
  23458093.125 4  23458107.195 8 123273125.109 4  96056999.351 8  23458106.90248
  21114689.508 6                 110958435.827 6  86461144.66748  21114696.10948
  22500469.594 5  22500484.602 8 118240752.610 5  92135705.095 8  22500483.63747
  19799712.727 7  19799721.883 9 104048181.297 7  81076527.875 9  19799721.62549
  23666294.734 5  23666316.969 9 124367222.729 5  96909544.639 9  23666316.21946
  23098900.773 5  23098921.082 8 121385527.738 5  94586203.455 8  23098920.32847
 23  3 10  2 56 33.0000000  0  8G04G08G09G16G26G27G28G31            
  21228137.383 6  21228146.656 9 111554610.643 6  86925706.201 9  21228145.77347
  20984730.703 6  20984744.750 9 110275504.317 6  85929018.938 9  20984743.85249
  23457404.023 4  23457418.645 8 123269506.266 4  96054179.472 8  23457418.32848
  21114648.445 6                 110958219.743 6  86460976.28248  21114655.41448
  22500569.094 5  22500584.172 8 118241275.745 5  92136112.721 8  22500583.39547
  19799432.273 7  19799441.352 9 104046705.821 7  81075378.154 9  19799440.67649
  23666512.313 5  23666534.191 9 124368365.874 5  96910435.402 9  23666533.46546
  23099040.672 5  23099061.363 8 121386263.690 5  94586776.921 8  23099060.16047
 23  3 10  2 56 34.0000000  0  8G04G08G09G16G26G27G28G31            
  21227754.000 6  21227763.375 9 111552596.441 6  86924136.689 9  21227762.44547
  20984052.438 6  20984066.332 9 110271939.340 6  85926241.040 9  20984065.45349
  23456716.297 4  23456729.750 8 123265888.015 4  96051360.064 8  23456729.61348
  21114607.727 6                 110958003.876 6  86460808.06848  21114614.02348
  22500668.398 5  22500683.613 9 118241798.934 5  92136520.396 9  22500682.66447
  19799151.188 7  19799160.793 9 104045231.114 7  81074229.022 9  19799160.26649
  23666730.195 5  23666751.988 9 124369509.343 5  96911326.419 9  23666751.00846
  23099181.195 5  23099201.348 8 121386999.962 5  94587350.641 8  23099200.29747
 23  3 10  2 56 35.0000000  0  8G04G08G09G16G26G27G28G31            
  21227371.102 6  21227380.105 9 111550583.203 6  86922567.931 9  21227379.35247
  20983374.570 6  20983387.840 9 110268375.232 6  85923463.812 9  20983386.99649
  23456027.664 4  23456041.500 8 123262270.532 4  96048541.247 8  23456041.39148
  21114566.375 6                 110957788.507 6  86460640.24248  21114573.25448
  22500768.453 5  22500783.414 9 118242322.422 5  92136928.297 9  22500782.53947
  19798871.133 7  19798880.250 9 104043757.419 7  81073080.688 9  19798879.59049
  23666947.625 5  23666969.500 9 124370653.463 5  96912217.943 9  23666968.63347
  23099321.367 5  23099341.750 8 121387736.898 5  94587924.872 8  23099340.54347
 23  3 10  2 56 36.0000000  0  8G04G08G09G16G26G27G28G31            
  21226988.023 6  21226996.695 9 111548570.374 6  86920999.491 9  21226995.97747
  20982695.914 6  20982709.652 9 110264811.432 6  85920686.829 9  20982708.81649
  23455340.125 4  23455352.777 8 123258653.315 4  96045722.640 8  23455352.68848
  21114525.750 6                 110957573.027 6  86460472.33548  21114532.10948
  22500867.867 5  22500882.711 9 118242845.664 5  92137336.011 9  22500881.86747
  19798590.453 7  19798599.719 9 104042284.179 7  81071932.709 9  19798599.19949
  23667164.453 5  23667187.012 9 124371797.650 5  96913109.522 9  23667185.95746
  23099461.352 5  23099482.047 8 121388473.832 5  94588499.103 8  23099481.02047
 23  3 10  2 56 37.0000000  0  8G04G08G09G16G26G27G28G31            
  21226604.852 6  21226613.613 9 111546558.200 6  86919431.560 9  21226613.23848
  20982018.203 6  20982031.277 9 110261248.166 6  85917910.265 9  20982030.44149
  23454650.781 4  23454664.805 9 123255036.541 4  96042904.378 9  23454664.91848
  21114485.273 6                 110957357.739 6  86460304.57548  21114491.23848
  22500967.867 5  22500982.734 9 118243368.946 5  92137743.749 9  22500981.84447
  19798310.344 7  19798319.660 9 104040811.640 7  81070785.274 9  19798319.23849
  23667382.703 5  23667404.645 9 124372942.103 5  96914001.308 9  23667403.82046
  23099601.820 5  23099622.008 8 121389211.076 5  94589073.574 8  23099620.82047
 23  3 10  2 56 38.0000000  0  8G04G08G09G16G26G27G28G31            
  21226222.266 6  21226230.957 9 111544546.495 6  86917863.999 9  21226230.73448
  20981339.977 6  20981353.465 9 110257685.252 6  85915133.968 9  20981352.82449
  23453962.570 4  23453976.445 9 123251420.091 4  96040086.369 9  23453976.50848
  21114444.117 6                 110957142.371 6  86460136.74948  21114450.17648
  22501067.117 5  22501081.840 9 118243892.032 5  92138151.337 9  22501081.03147
  19798029.875 7  19798039.395 9 104039339.612 7  81069638.235 9  19798038.88749
  23667600.711 5  23667622.613 9 124374086.686 5  96914893.188 9  23667621.82046
  23099741.969 5  23099762.738 9 121389948.436 5  94589648.131 9  23099761.28547
 23  3 10  2 56 39.0000000  0  8G04G08G09G16G26G27G28G31            
  21225839.945 6  21225848.383 9 111542535.552 6  86916297.028 9  21225847.99647
  20980662.258 6  20980675.379 9 110254123.021 6  85912358.206 9  20980674.66049
  23453275.000 4  23453288.434 9 123247804.208 4  96037268.801 9  23453288.24648
  21114402.625 6                 110956927.314 6  86459969.16948  21114409.34848
  22501166.313 5  22501181.512 9 118244415.216 5  92138559.007 9  22501180.65647
  19797749.781 7  19797759.480 9 104037868.392 7  81068491.829 9  19797758.82449
  23667818.445 5  23667840.570 9 124375231.686 5  96915785.402 9  23667839.70347
  23099882.500 5  23099902.961 9 121390686.185 5  94590222.999 9  23099901.59047
 23  3 10  2 56 40.0000000  0  8G04G08G09G16G26G27G28G31            
  21225456.750 6  21225465.699 9 111540525.084 6  86914730.430 9  21225465.45347
  20979984.195 6  20979998.191 9 110250561.174 6  85909582.737 9  20979997.43449
  23452586.828 4  23452600.781 9 123244188.659 4  96034451.497 9  23452600.54348
  21114361.891 6                 110956712.237 6  86459801.57448  21114368.41448
  22501265.531 5  22501281.289 9 118244938.222 5  92138966.536 9  22501280.40647
  19797470.141 7  19797479.426 9 104036397.699 7  81067345.833 9  19797478.51249
  23668036.492 5  23668058.660 9 124376376.819 5  96916677.716 9  23668057.78547
  23100022.469 5  23100043.230 9 121391424.065 5  94590797.963 9  23100042.14547
 23  3 10  2 56 41.0000000  0  8G04G08G09G16G26G27G28G31            
  21225074.703 6  21225083.480 9 111538515.338 6  86913164.390 9  21225083.13348
  20979306.164 6  20979320.461 9 110246999.853 6  85906807.677 9  20979319.47349
  23451898.242 4  23451912.996 9 123240573.572 4  96031634.545 9  23451912.61748
  21114320.773 6                 110956497.331 6  86459634.10548  21114327.57448
  22501365.445 5  22501380.688 9 118245461.276 5  92139374.100 9  22501379.71147
  19797190.367 7  19797200.344 9 104034927.725 7  81066200.397 9  19797199.44949
  23668254.430 5  23668276.277 9 124377522.258 5  96917570.271 9  23668275.60246
  23100163.406 5  23100183.621 9 121392162.254 5  94591373.166 9  23100182.94147
 23  3 10  2 56 42.0000000  0  8G04G08G09G16G26G27G28G31            
  21224692.391 6  21224700.965 9 111536506.301 6  86911598.908 9  21224700.53947
  20978628.773 6  20978642.594 9 110243439.137 6  85904033.095 9  20978641.71149
  23451211.203 4  23451225.227 9 123236959.135 4  96028818.100 9  23451224.90648
  21114279.852 6                 110956282.671 6  86459466.83248  21114286.71548
  22501465.227 5  22501480.223 9 118245984.405 5  92139781.729 9  22501479.48047
  19796910.664 7  19796920.453 9 104033458.550 7  81065055.577 9  19796919.59449
  23668472.836 5  23668494.781 9 124378668.104 5  96918463.144 9  23668493.98447
  23100303.898 5  23100324.336 8 121392900.844 5  94591948.685 8  23100323.44147
 23  3 10  2 56 43.0000000  0  8G04G08G09G16G26G27G28G31            
  21224310.242 6  21224318.832 9 111534497.742 6  86910033.793 9  21224318.16447
  20977951.422 6  20977965.695 9 110239878.771 6  85901258.779 9  20977964.39549
  23450523.547 4  23450537.457 8 123233344.931 4  96026001.838 8  23450537.08648
  21114239.063 6                 110956068.002 6  86459299.55748  21114245.85948
  22501564.555 5  22501579.836 9 118246507.333 5  92140189.202 9  22501579.14847
  19796631.242 7  19796641.082 9 104031989.875 7  81063911.159 9  19796639.85249
  23668690.695 5  23668712.738 9 124379814.083 5  96919356.124 9  23668711.98446
  23100444.391 5  23100464.902 8 121393639.529 5  94592524.277 8  23100463.84047
 23  3 10  2 56 44.0000000  0  8G04G08G09G16G26G27G28G31            
  21223928.375 6  21223936.980 9 111532489.784 6  86908469.153 9  21223936.27347
  20977274.086 6  20977287.730 9 110236318.918 6  85898484.867 9  20977286.63749
  23449834.758 4  23449850.016 8 123229731.186 4  96023185.931 8  23449849.44548
  21114198.242 6                 110955853.409 6  86459132.34248  21114204.84048
  22501664.047 5  22501679.707 9 118247030.254 5  92140596.668 9  22501678.77747
  19796352.156 7  19796362.051 9 104030521.866 7  81062767.251 9  19796360.82449
  23668908.734 5  23668931.180 9 124380960.287 5  96920249.272 9  23668930.10247
  23100584.898 5  23100605.797 8 121394378.445 5  94593100.048 8  23100604.50847
 23  3 10  2 56 45.0000000  0  8G04G08G09G16G26G27G28G31            
  21223546.320 6  21223555.160 9 111530482.320 6  86906904.894 9  21223554.10948
  20976596.477 6  20976610.422 9 110232759.445 6  85895711.252 9  20976609.41849
  23449148.008 4  23449162.359 9 123226117.787 4  96020370.292 9  23449161.60948
  21114157.508 6                 110955638.859 6  86458965.15648  21114163.93448
  22501763.516 5  22501778.992 9 118247553.007 5  92141004.000 9  22501778.07047
  19796073.070 7  19796082.551 9 104029054.385 7  81061623.764 9  19796081.49649
  23669126.898 5  23669148.992 9 124382106.672 5  96921142.558 9  23669148.27047
  23100725.164 5  23100746.434 8 121395117.524 5  94593675.948 8  23100745.10947
 23  3 10  2 56 46.0000000  0  8G04G08G09G16G26G27G28G31            
  21223164.203 6  21223172.676 9 111528475.726 6  86905341.313 9  21223172.14847
  20975919.055 6  20975933.262 9 110229200.732 6  85892938.233 9  20975932.19549
  23448459.742 4  23448474.563 9 123222505.062 4  96017555.178 9  23448474.12548
  21114116.453 6                 110955424.640 6  86458798.22548  21114123.23448
  22501863.711 5  22501878.539 9 118248075.959 5  92141411.483 9  22501877.78547
  19795793.539 7  19795803.676 9 104027587.828 7  81060480.987 9  19795802.42649
  23669345.516 5  23669367.379 9 124383253.538 5  96922036.220 9  23669366.37547
  23100866.148 5  23100887.102 8 121395857.087 5  94594252.224 8  23100885.82847
 23  3 10  2 56 47.0000000  0  8G04G08G09G16G26G27G28G31            
  21222782.648 6  21222791.746 9 111526469.908 6  86903778.335 9  21222790.75448
  20975242.477 6  20975256.039 9 110225642.684 6  85890165.722 9  20975254.85549
  23447772.578 4  23447787.367 9 123218892.930 4  96014740.530 9  23447786.48848
  21114076.203 6                 110955210.753 6  86458631.56148  21114082.97348
  22501963.008 5  22501977.770 9 118248599.083 5  92141819.101 9  22501977.26247
  19795515.070 7  19795524.523 9 104026122.092 7  81059338.852 9  19795523.55949
  23669563.680 5  23669585.547 9 124384400.847 5  96922930.232 9  23669584.42247
  23101007.211 6  23101028.063 9 121396597.078 6  94594828.831 9  23101027.05947
 23  3 10  2 56 48.0000000  0  8G04G08G09G16G26G27G28G31            
  21222400.906 6  21222410.109 9 111524464.655 6  86902215.797 9  21222409.50047
  20974565.516 6  20974579.301 9 110222085.051 6  85887393.545 9  20974577.96949
  23447085.672 4  23447100.414 9 123215281.204 4  96011926.199 9  23447099.18448
  21114035.273 6                 110954996.896 6  86458464.91948  21114042.10548
  22502062.539 5  22502077.512 9 118249122.063 5  92142226.613 9  22502076.87947
  19795236.031 7  19795245.539 9 104024656.949 7  81058197.184 9  19795244.64549
  23669782.078 5  23669803.887 9 124385548.354 5  96923824.397 9  23669802.89846
  23101148.070 5  23101168.688 8 121397337.259 5  94595405.591 8  23101167.83647
 23  3 10  2 56 49.0000000  0  8G04G08G09G16G26G27G28G31            
  21222019.586 6  21222028.184 9 111522460.186 6  86900653.869 9  21222027.32048
  20973888.578 6  20973902.313 9 110218528.045 6  85884621.853 9  20973901.17649
  23446398.539 4  23446413.094 9 123211670.081 4  96009112.341 9  23446412.20748
  21113994.781 6                 110954783.310 6  86458298.47948  21114001.61348
  22502161.859 5  22502176.797 9 118249645.188 5  92142634.230 9  22502176.07047
  19794957.406 7  19794967.047 9 104023192.628 7  81057056.151 9  19794966.12549
  23670000.727 5  23670022.465 9 124386696.297 5  96924718.901 9  23670021.51647
  23101288.906 5  23101309.809 9 121398077.854 5  94595982.668 9  23101308.76247
 23  3 10  2 56 50.0000000  0  8G04G08G09G16G26G27G28G31            
  21221638.266 6  21221647.102 9 111520456.639 6  86899092.657 9  21221646.30147
  20973211.469 6  20973225.781 9 110214971.857 6  85881850.800 9  20973224.77049
  23445711.734 4  23445726.246 9 123208059.703 4  96006299.057 9  23445724.89548
  21113953.953 6                 110954570.168 6  86458132.38948  21113960.80148
  22502261.508 5  22502276.727 9 118250168.594 5  92143042.074 9  22502275.91847
  19794679.164 7  19794688.328 9 104021729.282 7  81055915.884 9  19794687.43849
  23670218.953 5  23670240.977 9 124387844.798 5  96925613.849 9  23670239.84446
  23101430.016 5  23101450.727 9 121398819.032 5  94596560.203 9  23101449.88347
 23  3 10  2 56 51.0000000  0  8G04G08G09G16G26G27G28G31            
  21221257.258 6  21221266.547 9 111518453.742 6  86897531.960 9  21221265.43447
  20972535.141 6  20972549.297 9 110211416.252 6  85879080.196 9  20972547.97749
  23445024.625 4  23445039.449 9 123204449.836 4  96003486.174 9  23445038.42248
  21113913.656 6                 110954357.206 6  86457966.44048  21113920.88748
  22502360.953 5  22502376.289 9 118250692.021 5  92143449.933 9  22502375.45747
  19794400.953 7  19794410.492 9 104020266.667 7  81054776.183 9  19794409.51649
  23670437.938 5  23670459.809 9 124388993.639 5  96926509.053 9  23670458.81646
  23101570.977 6  23101592.426 9 121399560.520 6  94597137.979 9  23101591.08247
 23  3 10  2 56 52.0000000  0  8G04G08G09G16G26G27G28G31            
  21220876.094 6  21220885.387 9 111516451.336 6  86895971.635 9  21220884.18447
  20971858.391 6  20971872.551 9 110207860.975 6  85876309.853 9  20971871.51249
  23444337.492 3  23444352.246 9 123200840.255 3  96000673.515 9  23444351.40248
  21113873.125 6                 110954144.223 6  86457800.47148  21113879.91848
  22502460.641 5  22502476.008 9 118251215.221 5  92143857.611 9  22502475.24247
  19794122.531 7  19794132.207 9 104018804.534 7  81053636.855 9  19794131.36349
  23670655.641 5  23670678.047 9 124390142.583 5  96927404.340 9  23670677.27346
  23101712.523 5  23101732.875 9 121400302.069 5  94597715.803 9  23101731.97747
 23  3 10  2 56 53.0000000  0  8G04G08G09G16G26G27G28G31            
  21220494.664 6  21220503.871 9 111514449.645 6  86894411.868 9  21220502.67647
  20971181.906 6  20971196.082 9 110204306.345 6  85873540.008 9  20971194.89549
  23443650.297 3  23443665.891 9 123197231.259 3  95997861.303 9  23443665.00048
  21113832.633 6                 110953931.439 6  86457634.66448  21113839.40648
  22502559.945 5  22502575.234 9 118251738.540 5  92144265.388 9  22502574.48447
  19793844.500 7  19793854.090 9 104017343.186 7  81052498.146 9  19793853.05149
  23670874.828 5  23670897.027 9 124391291.920 5  96928299.924 9  23670896.10946
  23101853.430 5  23101874.258 9 121401044.037 5  94598293.947 9  23101873.39847
 23  3 10  2 56 54.0000000  0  8G04G08G09G16G26G27G28G31            
  21220114.266 6  21220123.172 9 111512448.274 6  86892852.354 9  21220122.29747
  20970505.969 6  20970519.992 9 110200751.872 6  85870770.297 9  20970518.57449
  23442964.063 4  23442979.004 9 123193622.331 4  95995049.144 9  23442977.87948
  21113791.883 6                 110953718.470 6  86457468.70748  21113798.66848
  22502660.031 5  22502674.664 9 118252261.482 5  92144672.866 9  22502673.75447
  19793566.750 7  19793576.121 9 104015882.186 7  81051359.704 9  19793575.05949
  23671093.078 5  23671115.309 9 124392441.181 5  96929195.460 9  23671114.41047
  23101995.211 5  23102016.176 9 121401785.888 5  94598872.008 9  23102015.25447
 23  3 10  2 56 55.0000000  0  8G04G08G09G16G26G27G28G31            
  21219733.391 6  21219742.473 9 111510447.492 6  86891293.296 9  21219741.68847
  20969829.375 6  20969843.391 9 110197197.950 6  85868001.012 9  20969842.23449
  23442277.352 4  23442292.453 9 123190013.898 4  95992237.375 9  23442291.36348
  21113751.438 6                 110953505.641 6  86457302.86348  21113757.96948
  22502759.391 5  22502774.426 9 118252784.406 5  92145080.332 9  22502773.71147
  19793288.500 7  19793298.043 9 104014421.843 7  81050221.771 9  19793297.05949
  23671312.172 5  23671334.328 9 124393590.722 5  96930091.208 9  23671333.48846
  23102135.781 5  23102157.281 8 121402528.034 5  94599450.298 8  23102156.09847
 23  3 10  2 56 56.0000000  0  8G04G08G09G16G26G27G28G31            
  21219352.703 6  21219361.477 9 111508447.567 6  86889734.907 9  21219360.80947
  20969153.383 6  20969167.328 9 110193644.729 6  85865232.270 9  20969166.17649
  23441591.039 4  23441605.648 9 123186406.170 4  95989426.159 9  23441604.71148
  21113710.930 6                 110953293.143 6  86457137.28048  21113718.19548
  22502858.859 5  22502874.063 9 118253307.520 5  92145487.946 9  22502873.53547
  19793010.859 7  19793020.012 9 104012962.403 7  81049084.544 9  19793019.34049
  23671531.570 5  23671553.566 8 124394740.721 5  96930987.317 8  23671552.88747
  23102276.992 5  23102297.879 8 121403270.641 5  94600028.943 8  23102296.95747
 23  3 10  2 56 57.0000000  0  8G04G08G09G16G26G27G28G31            
  21218972.242 6  21218981.516 9 111506448.165 6  86888176.923 9  21218980.81347
  20968477.164 6  20968491.047 9 110190091.888 6  85862463.818 9  20968490.01649
  23440904.695 3  23440919.137 9 123182798.708 3  95986615.150 9  23440918.14548
  21113670.406 6                 110953080.656 6  86456971.70348  21113677.52748
  22502958.000 5  22502973.180 9 118253830.467 5  92145895.425 9  22502972.75847
  19792733.234 7  19792742.813 9 104011503.479 7  81047947.719 9  19792741.88749
  23671749.750 5  23671771.840 9 124395890.917 5  96931883.576 9  23671771.23446
  23102418.680 5  23102439.465 8 121404013.426 5  94600607.729 8  23102438.50847
 23  3 10  2 56 58.0000000  0  8G04G08G09G16G26G27G28G31            
  21218592.055 6  21218601.121 9 111504449.386 6  86886619.428 9  21218600.13347
  20967801.109 6  20967815.207 9 110186539.529 6  85859695.754 9  20967814.20749
  23440218.516 3  23440232.691 9 123179191.710 3  95983804.503 9  23440232.11348
  21113630.148 6                 110952868.290 6  86456806.21648  21113637.54348
  22503058.156 5  22503072.297 9 118254353.424 5  92146302.921 9  22503071.89147
  19792455.469 7  19792464.965 9 104010045.255 7  81046811.439 9  19792464.43049
  23671968.773 5  23671990.492 9 124397041.375 5  96932780.044 9  23671989.86346
  23102559.742 5  23102580.855 9 121404756.440 5  94601186.697 9  23102579.93047
 23  3 10  2 56 59.0000000  0  8G04G08G09G16G26G27G28G31            
  21218211.695 6  21218220.605 9 111502451.034 6  86885062.262 9  21218219.76247
  20967125.805 6  20967139.328 9 110182987.531 6  85856927.966 9  20967138.26649
  23439531.711 3  23439545.871 9 123175585.023 3  95980994.098 9  23439545.39848
  21113589.930 6                 110952655.902 6  86456640.71648  21113596.52748
  22503157.773 5  22503172.234 9 118254876.138 5  92146710.217 9  22503171.80147
  19792178.328 7  19792187.480 9 104008587.518 7  81045675.539 9  19792186.80549
  23672187.641 5  23672209.648 9 124398191.925 5  96933676.582 9  23672208.82446
  23102701.172 5  23102721.922 9 121405499.553 5  94601765.737 9  23102721.12947
 23  3 10  2 57  0.0000000  0  8G04G08G09G16G26G27G28G31            
  21217831.352 6  21217840.277 9 111500453.328 6  86883505.609 9  21217839.36747
  20966449.984 6  20966463.309 9 110179436.046 6  85854160.580 9  20966462.06349
  23438845.703 3  23438860.031 9 123171978.755 3  95978184.021 9  23438859.41448
  21113549.570 6                 110952443.611 6  86456475.28948  21113556.19948
  22503257.070 5  22503271.711 9 118255398.866 5  92147117.534 9  22503271.25047
  19791900.906 7  19791910.176 9 104007130.438 7  81044540.151 9  19791909.73849
  23672406.820 5  23672428.371 9 124399342.740 5  96934573.325 9  23672427.46546
  23102842.852 5  23102864.352 9 121406242.947 5  94602344.999 9  23102863.35947
 23  3 10  2 57  1.0000000  0  8G04G08G09G16G26G27G28G31            
  21217451.164 6  21217460.219 9 111498456.214 6  86881949.412 9  21217459.45347
  20965774.078 6  20965787.738 9 110175885.074 6  85851393.589 9  20965786.35249
  23438159.438 4  23438173.715 9 123168372.949 4  95975374.299 9  23438173.12948
  21113508.773 6                 110952231.425 6  86456309.94448  21113516.35948
  22503356.438 5  22503370.988 9 118255921.537 5  92147524.804 9  22503370.56647
  19791624.109 7  19791633.590 9 104005674.021 7  81043405.279 9  19791632.83249
  23672625.172 5  23672647.590 9 124400493.849 5  96935470.295 9  23672646.66446
  23102984.188 5  23103005.586 9 121406986.576 5  94602924.444 9  23103004.60247
 23  3 10  2 57  2.0000000  0  8G04G08G09G16G26G27G28G31            
  21217071.203 6  21217080.582 9 111496459.559 6  86880393.571 9  21217079.66848
  20965098.492 6  20965112.199 9 110172334.453 6  85848626.874 9  20965110.89849
  23437473.461 3  23437487.688 9 123164767.453 3  95972564.827 9  23437487.25448
  21113468.313 6                 110952019.230 6  86456144.59248  21113475.67248
  22503456.539 5  22503470.770 9 118256444.000 5  92147931.904 9  22503470.44147
  19791346.648 7  19791356.520 9 104004218.110 7  81042270.802 9  19791355.83649
  23672844.344 5  23672866.781 9 124401645.029 5  96936367.313 9  23672865.81646
  23103126.109 5  23103146.895 9 121407730.288 5  94603503.953 9  23103146.23847
 23  3 10  2 57  3.0000000  0  8G04G08G09G16G26G27G28G31            
  21216691.320 6  21216700.645 9 111494463.709 6  86878838.358 9  21216699.94947
  20964422.836 6  20964436.625 9 110168784.510 6  85845860.688 9  20964435.23449
  23436787.820 4  23436801.605 9 123161162.522 4  95969755.794 9  23436800.93048
  21113427.992 6                 110951807.318 6  86455979.46348  21113435.30548
  22503555.352 5  22503569.891 9 118256966.614 5  92148339.129 9  22503569.49247
  19791069.805 7  19791079.137 9 104002763.035 7  81041136.974 9  19791078.49249
  23673064.102 5  23673085.828 9 124402796.652 5  96937264.687 9  23673084.63746
  23103267.727 5  23103288.758 9 121408474.439 5  94604083.804 9  23103287.85947
 23  3 10  2 57  4.0000000  0  8G04G08G09G16G26G27G28G31            
  21216312.008 6  21216321.410 9 111492468.337 6  86877283.523 9  21216320.64147
  20963746.813 6  20963761.418 9 110165234.917 6  85843094.770 9  20963760.06349
  23436101.250 4  23436115.535 9 123157557.949 4  95966947.040 9  23436115.16848
  21113387.766 6                 110951595.371 6  86455814.30548  21113394.96948
  22503655.156 5  22503669.680 9 118257489.024 5  92148746.190 9  22503669.20747
  19790793.133 7  19790802.680 9 104001308.474 7  81040003.553 9  19790802.00449
  23673282.602 5  23673305.465 9 124403948.417 5  96938162.167 9  23673304.44946
  23103409.047 5  23103429.895 9 121409218.740 5  94604663.771 9  23103429.10947
 23  3 10  2 57  5.0000000  0  8G04G08G09G16G26G27G28G31            
  21215932.516 6  21215941.809 9 111490473.895 6  86875729.411 9  21215941.10247
  20963071.781 6  20963085.859 9 110161686.173 6  85840329.514 9  20963084.66049
  23435415.539 4  23435429.715 9 123153954.121 4  95964138.855 9  23435429.23448
  21113347.648 6                 110951383.860 6  86455649.48848  21113354.16848
  22503754.398 5  22503769.148 9 118258011.736 5  92149153.487 9  22503768.83247
  19790516.352 7  19790526.039 9 103999854.887 7  81038870.885 9  19790525.43449
  23673501.891 5  23673524.828 9 124405100.715 5  96939060.057 9  23673523.66847
  23103550.492 5  23103571.590 8 121409963.573 5  94605244.155 8  23103571.01647
 23  3 10  2 57  6.0000000  0  8G04G08G09G16G26G27G28G31            
  21215553.039 6  21215562.305 9 111488480.116 6  86874175.814 9  21215561.37947
  20962396.836 6  20962410.547 9 110158137.958 6  85837564.676 9  20962409.50449
  23434730.109 3  23434744.598 9 123150350.784 3  95961331.058 9  23434743.74248
  21113307.703 6                 110951172.522 6  86455484.80748  21113314.02048
  22503853.430 5  22503868.891 9 118258534.470 5  92149560.804 9  22503868.55147
  19790240.227 7  19790249.320 9 103998402.018 7  81037738.778 9  19790248.74249
  23673721.047 5  23673743.824 9 124406253.396 5  96939958.249 9  23673743.00046
  23103692.500 5  23103713.984 9 121410708.736 5  94605824.799 9  23103712.86347
 23  3 10  2 57  7.0000000  0  8G04G08G09G16G26G27G28G31            
  21215173.727 6  21215183.371 9 111486486.979 6  86872622.724 9  21215182.31347
  20961721.156 6  20961735.516 9 110154590.280 6  85834800.249 9  20961734.43049
  23434044.555 3  23434058.523 8 123146747.938 3  95958523.647 8  23434057.85548
  21113267.391 6                 110950961.335 6  86455320.24448  21113274.04348
  22503952.742 5  22503967.680 9 118259057.188 5  92149968.104 9  22503967.60247
  19789963.758 7  19789973.305 9 103996949.847 7  81036607.214 9  19789972.50049
  23673940.430 5  23673963.438 9 124407406.327 5  96940856.639 9  23673962.41846
  23103834.414 5  23103855.578 8 121411454.152 5  94606405.642 8  23103854.62547
 23  3 10  2 57  8.0000000  0  8G04G08G09G16G26G27G28G31            
  21214794.766 6  21214803.477 9 111484494.661 6  86871070.267 9  21214802.78147
  20961046.609 6  20961060.629 9 110151043.265 6  85832036.342 9  20961059.66049
  23433359.297 4  23433373.566 8 123143145.704 4  95955716.719 8  23433372.52048
  21113227.664 6                 110950750.473 6  86455155.93548  21113234.08248
  22504052.469 5  22504067.465 8 118259580.056 5  92150375.520 8  22504067.34047
  19789687.547 7  19789697.098 9 103995498.505 7  81035476.299 9  19789696.18049
  23674160.508 5  23674183.180 8 124408559.724 5  96941755.394 8  23674181.91846
  23103976.438 5  23103997.219 8 121412200.075 5  94606986.875 8  23103996.41447
 23  3 10  2 57  9.0000000  0  8G04G08G09G16G26G27G28G31            
  21214415.555 6  21214425.125 9 111482503.133 6  86869518.427 9  21214423.91447
  20960371.805 6  20960385.582 9 110147496.936 6  85829272.972 9  20960384.52349
  23432673.922 4  23432688.000 8 123139544.088 4  95952910.266 8  23432687.05548
  21113187.430 6                 110950539.881 6  86454991.84148  21113193.55148
  22504152.531 5  22504166.883 9 118260103.069 5  92150783.042 9  22504166.61347
  19789411.563 7  19789421.211 9 103994048.019 7  81034346.046 9  19789420.41849
  23674379.516 5  23674402.148 9 124409713.560 5  96942654.487 9  23674401.03146
  23104118.625 5  23104139.781 8 121412946.351 5  94607568.388 8  23104138.72747
 23  3 10  2 57 10.0000000  0  8G04G08G09G16G26G27G28G31            
  21214036.609 6  21214046.496 9 111480512.119 6  86867966.990 9  21214045.15247
  20959696.766 6  20959710.527 9 110143951.000 6  85826509.899 9  20959709.29749
  23431989.164 4  23432002.484 8 123135942.853 4  95950104.112 8  23432001.69948
  21113146.844 6                 110950329.310 6  86454827.75548  21113153.72348
  22504251.422 5  22504266.918 9 118260625.949 5  92151190.476 9  22504266.26247
  19789135.328 7  19789145.027 9 103992598.083 7  81033216.225 9  19789144.21149
  23674598.398 5  23674622.109 9 124410867.541 5  96943553.696 9  23674620.76247
  23104260.398 5  23104281.539 8 121413692.842 5  94608150.061 8  23104280.32847
 23  3 10  2 57 11.0000000  0  8G04G08G09G16G26G27G28G31            
  21213658.313 6  21213667.516 9 111478521.738 6  86866416.045 9  21213666.37948
  20959022.250 6  20959036.184 9 110140405.640 6  85823747.282 9  20959034.92249
  23431302.961 4  23431317.160 8 123132342.079 4  95947298.315 8  23431316.41048
  21113107.086 6                 110950118.919 6  86454663.81248  21113113.80148
  22504351.156 5  22504366.297 9 118261148.822 5  92151597.895 9  22504365.53147
  19788859.758 7  19788869.621 9 103991148.848 7  81032086.954 9  19788868.70749
  23674818.594 5  23674841.570 9 124412021.847 5  96944453.162 9  23674840.27746
  23104402.633 5  23104423.773 8 121414439.574 5  94608731.925 8  23104422.56347
 23  3 10  2 57 12.0000000  0  8G04G08G09G16G26G27G28G31            
  21213279.758 6  21213289.355 9 111476532.095 6  86864865.674 9  21213288.14847
  20958347.445 6  20958361.344 9 110136860.838 6  85820985.097 9  20958360.28549
  23430618.023 4  23430631.996 8 123128741.834 4  95944492.933 8  23430631.22348
  21113067.125 6                 110949908.691 6  86454499.99448  21113073.79348
  22504450.836 5  22504465.598 9 118261671.747 5  92152005.357 9  22504464.96947
  19788583.852 7  19788594.078 9 103989700.351 7  81030958.251 9  19788593.44549
  23675037.766 5  23675061.816 9 124413176.473 5  96945352.874 9  23675060.22346
  23104544.672 5  23104565.746 9 121415186.669 5  94609314.071 9  23104564.70747
 23  3 10  2 57 13.0000000  0  8G04G08G09G16G26G27G28G31            
  21212901.109 6  21212910.586 9 111474542.713 6  86863315.504 9  21212909.30547
  20957673.133 6  20957687.480 9 110133316.251 6  85818223.083 9  20957686.41049
  23429932.938 4  23429946.684 8 123125141.720 4  95941687.653 8  23429945.96548
  21113027.016 6                 110949698.278 6  86454336.03548  21113034.04748
  22504549.906 5  22504565.121 9 118262194.326 5  92152412.556 9  22504564.26247
  19788308.508 7  19788318.801 9 103988252.182 7  81029829.808 9  19788317.87949
  23675258.383 4  23675281.508 9 124414331.079 4  96946252.571 9  23675280.09847
  23104686.945 5  23104707.789 9 121415933.678 5  94609896.149 9  23104707.01247
 23  3 10  2 57 14.0000000  0  8G04G08G09G16G26G27G28G31            
  21212522.625 6  21212532.398 9 111472553.830 6  86861765.715 9  21212531.28547
  20956998.594 6  20957012.574 9 110129772.022 6  85815461.345 9  20957011.44549
  23429247.523 5  23429262.051 8 123121541.907 5  95938882.609 8  23429261.19948
  21112986.727 6                 110949487.842 6  86454172.05448  21112993.89848
  22504649.422 5  22504664.406 9 118262716.685 5  92152819.574 9  22504663.62147
  19788033.172 7  19788042.984 9 103986804.570 7  81028701.797 9  19788042.19949
  23675478.516 4  23675500.895 9 124415485.762 4  96947152.328 9  23675499.79346
  23104828.836 5  23104849.855 8 121416680.829 5  94610478.337 8  23104848.93447
 23  3 10  2 57 15.0000000  0  8G04G08G09G16G26G27G28G31            
  21212144.211 6  21212153.504 9 111470565.832 6  86860216.623 9  21212152.37547
  20956324.273 6  20956338.180 9 110126228.531 6  85812700.187 9  20956337.03549
  23428562.797 5  23428577.320 8 123117942.817 5  95936078.124 8  23428576.32048
  21112946.945 6                 110949277.784 6  86454008.36948  21112953.71948
  22504748.680 5  22504763.895 9 118263239.297 5  92153226.792 9  22504763.10547
  19787757.766 7  19787767.660 9 103985357.826 7  81027574.466 9  19787766.84449
  23675697.906 5  23675720.953 9 124416640.987 5  96948052.509 9  23675719.62546
  23104971.086 5  23104992.094 8 121417428.493 5  94611060.934 8  23104991.00047
 23  3 10  2 57 16.0000000  0  8G04G08G09G16G26G27G28G31            
  21211765.789 6  21211775.508 9 111468578.515 6  86858668.057 9  21211774.26647
  20955650.047 6  20955664.250 9 110122685.622 6  85809939.477 9  20955663.13349
  23427877.844 5  23427892.641 8 123114344.268 5  95933274.060 8  23427891.72748
  21112906.930 6                 110949067.944 6  86453844.85148  21112913.82448
  22504848.586 5  22504863.668 9 118263761.968 5  92153634.061 9  22504862.90247
  19787482.406 7  19787492.738 9 103983911.870 7  81026447.745 9  19787491.71149
  23675918.375 5  23675941.027 9 124417796.585 5  96948952.985 9  23675939.74247
  23105113.219 5  23105134.332 8 121418176.486 5  94611643.778 8  23105133.27747
 23  3 10  2 57 17.0000000  0  8G04G08G09G16G26G27G28G31            
  21211388.539 6  21211397.871 9 111466592.082 6  86857120.188 9  21211396.80147
  20954976.031 6  20954990.109 9 110119143.494 6  85807179.370 9  20954988.96949
  23427193.570 5  23427207.641 8 123110746.407 5  95930470.535 8  23427206.96148
  21112867.516 6                 110948858.471 6  86453681.62248  21112874.20748
  22504948.063 5  22504962.570 9 118264284.857 5  92154041.497 9  22504962.21547
  19787207.773 7  19787217.359 9 103982466.822 7  81025321.730 9  19787216.63349
  23676137.695 5  23676160.664 9 124418952.683 5  96949853.841 9  23676159.68847
  23105256.109 5  23105277.070 8 121418924.995 5  94612227.029 8  23105275.83247
 23  3 10  2 57 18.0000000  0  8G04G08G09G16G26G27G28G31            
  21211009.844 6  21211019.461 9 111464606.342 6  86855572.848 9  21211018.27047
  20954302.227 6  20954316.227 9 110115601.940 6  85804419.718 9  20954315.28149
  23426508.727 5  23426523.387 8 123107149.061 5  95927667.413 8  23426522.53148
  21112827.430 6                 110948649.195 6  86453518.54948  21112834.35548
  22505047.133 5  22505062.211 9 118264807.775 5  92154448.961 9  22505061.78147
  19786932.797 7  19786942.066 9 103981022.515 7  81024196.299 9  19786941.45349
  23676357.820 5  23676380.797 9 124420109.142 5  96950754.987 9  23676379.81346
  23105399.219 5  23105419.414 8 121419673.849 5  94612810.547 8  23105418.06347
 23  3 10  2 57 19.0000000  0  8G04G08G09G16G26G27G28G31            
  21210632.578 6  21210641.859 9 111462621.155 6  86854025.942 9  21210640.85547
  20953628.188 6  20953642.348 9 110112060.819 6  85801660.408 9  20953640.99649
  23425824.266 5  23425838.918 8 123103552.097 5  95924864.593 8  23425837.93448
  21112787.516 6                 110948439.937 6  86453355.48348  21112794.52348
  22505146.969 5  22505161.871 9 118265330.580 5  92154856.327 9  22505161.34847
  19786657.961 7  19786667.359 9 103979578.800 7  81023071.321 9  19786666.53149
  23676578.391 5  23676600.984 9 124421265.764 5  96951656.252 9  23676599.91446
  23105541.313 5  23105561.758 8 121420422.862 5  94613394.190 8  23105560.43847
 23  3 10  2 57 20.0000000  0  8G04G08G09G16G26G27G28G31            
  21210254.625 6  21210264.266 9 111460636.646 6  86852479.564 9  21210263.28947
  20952954.383 6  20952968.707 9 110108520.271 6  85798901.538 9  20952967.80549
  23425140.391 5  23425154.680 8 123099955.663 5  95922062.183 8  23425153.56648
  21112747.750 6                 110948230.923 6  86453192.61147  21112754.53147
  22505246.336 5  22505261.543 8 118265853.447 5  92155263.746 8  22505260.84447
  19786383.320 7  19786393.043 9 103978135.809 7  81021946.909 9  19786392.04749
  23676798.313 5  23676820.949 8 124422422.729 5  96952557.793 8  23676819.77746
  23105684.031 5  23105704.453 8 121421172.202 5  94613978.088 8  23105703.18847
 23  3 10  2 57 21.0000000  0  8G04G08G09G16G26G27G28G31            
  21209877.328 6  21209886.777 9 111458652.672 6  86850933.604 9  21209885.85247
  20952280.867 6  20952294.863 9 110104980.104 6  85796142.967 9  20952293.73049
  23424455.891 5  23424470.641 8 123096359.568 5  95919260.033 8  23424469.43448
  21112708.336 6                 110948021.874 6  86453029.71148  21112714.94148
  22505345.695 5  22505360.672 8 118266376.141 5  92155671.029 8  22505359.87947
  19786109.406 7  19786118.348 9 103976693.368 7  81020822.930 9  19786117.85949
  23677017.938 5  23677041.172 9 124423579.858 5  96953459.450 9  23677039.98047
  23105826.648 5  23105846.820 8 121421921.722 5  94614562.130 8  23105845.56347
 23  3 10  2 57 22.0000000  0  8G04G08G09G16G26G27G28G31            
  21209499.969 6  21209509.426 9 111456669.525 6  86849388.290 9  21209508.66447
  20951607.602 6  20951621.281 9 110101440.665 6  85793384.968 9  20951620.59049
  23423771.328 5  23423786.438 8 123092764.077 5  95916458.356 8  23423785.10248
  21112668.922 6                 110947813.158 6  86452867.07148  21112675.57848
  22505445.008 5  22505460.293 9 118266899.046 5  92156078.483 9  22505459.73447
  19785834.656 7  19785844.016 9 103975251.810 7  81019699.636 9  19785843.33249
  23677238.813 5  23677261.703 9 124424737.487 5  96954361.502 9  23677260.77346
  23105969.531 5  23105989.773 8 121422671.696 5  94615146.520 8  23105988.62147
 23  3 10  2 57 23.0000000  0  8G04G08G09G16G26G27G28G31            
  21209122.742 6  21209131.863 9 111454687.026 6  86847843.477 9  21209131.43447
  20950933.844 6  20950947.750 9 110097901.785 6  85790627.401 9  20950946.55549
  23423087.391 5  23423102.031 8 123089169.175 5  95913657.131 8  23423100.78148
  21112628.539 6                 110947604.636 6  86452704.58648  21112635.85948
  22505545.164 5  22505559.961 9 118267421.946 5  92156485.930 9  22505559.23447
  19785560.656 7  19785569.770 9 103973810.948 7  81018576.885 9  19785569.18049
  23677458.945 5  23677481.418 9 124425895.406 5  96955263.784 9  23677480.33246
  23106112.766 5  23106132.848 8 121423421.984 5  94615731.151 8  23106131.53147
 23  3 10  2 57 24.0000000  0  8G04G08G09G16G26G27G28G31            
  21208745.508 6  21208754.367 9 111452705.356 6  86846299.313 9  21208754.05947
  20950260.578 6  20950274.215 9 110094363.614 6  85787870.388 9  20950273.36349
  23422403.500 5  23422418.371 9 123085574.868 5  95910856.378 9  23422417.03548
  21112588.977 6                 110947396.413 6  86452542.33448  21112595.89848
  22505644.023 5  22505659.383 9 118267945.010 5  92156893.502 9  22505658.50047
  19785286.688 7  19785295.824 9 103972370.961 7  81017454.813 9  19785295.40249
  23677679.664 5  23677702.043 9 124427053.798 5  96956166.428 9  23677700.99646
  23106255.039 5  23106275.668 8 121424172.729 5  94616316.140 8  23106274.10947
 23  3 10  2 57 25.0000000  0  8G04G08G09G16G26G27G28G31            
  21208368.883 6  21208377.430 9 111450724.287 6  86844755.615 9  21208376.89147
  20949587.672 6  20949600.910 9 110090825.920 6  85785113.745 9  20949599.84449
  23421720.023 5  23421734.398 9 123081980.982 5  95908055.950 9  23421733.00848
  21112549.578 6                 110947188.286 6  86452380.15548  21112556.27048
  22505744.242 5  22505759.129 9 118268468.039 5  92157301.047 9  22505758.50447
  19785012.664 7  19785021.977 9 103970931.606 7  81016333.241 9  19785021.36749
  23677900.648 5  23677922.445 9 124428212.402 5  96957069.243 9  23677921.62546
  23106398.414 5  23106418.664 8 121424923.683 5  94616901.292 8  23106417.11747
 23  3 10  2 57 26.0000000  0  8G04G08G09G16G26G27G28G31            
  21207991.297 6  21208001.129 9 111448743.817 6  86843212.391 9  21208000.73847
  20948914.508 6  20948928.457 9 110087288.762 6  85782357.527 9  20948927.27749
  23421036.203 5  23421050.809 9 123078387.603 5  95905255.916 9  23421049.21948
  21112510.320 6                 110946980.316 6  86452218.09748  21112516.72748
  22505843.430 5  22505858.547 9 118268991.008 5  92157708.548 9  22505857.77347
  19784738.641 7  19784748.578 9 103969492.943 7  81015212.203 9  19784747.86749
  23678120.094 4  23678143.020 9 124429371.364 4  96957972.334 9  23678142.10246
  23106541.227 5  23106561.605 8 121425674.920 5  94617486.672 8  23106559.83647
 23  3 10  2 57 27.0000000  0  8G04G08G09G16G26G27G28G31            
  21207614.922 6  21207624.094 9 111446763.935 6  86841669.626 9  21207623.74247
  20948241.180 6  20948255.563 9 110083752.036 6  85779601.639 9  20948254.24649
  23420352.336 5  23420366.527 9 123074794.577 5  95902456.158 9  23420365.04348
  21112470.352 6                 110946772.377 6  86452056.05948  21112476.81348
  22505942.984 5  22505958.016 9 118269513.915 5  92158116.006 9  22505957.14847
  19784465.242 7  19784474.465 9 103968054.849 7  81014091.607 9  19784473.83249
  23678341.219 5  23678363.844 9 124430530.446 5  96958875.521 9  23678362.91446
  23106683.773 5  23106704.180 8 121426426.349 5  94618072.198 8  23106702.70747
 23  3 10  2 57 28.0000000  0  8G04G08G09G16G26G27G28G31            
  21207238.539 6  21207247.281 9 111444784.735 6  86840127.391 9  21207247.35548
  20947568.758 6  20947582.301 9 110080215.840 6  85776846.166 9  20947580.86349
  23419668.305 5  23419683.109 9 123071202.080 5  95899656.813 9  23419681.86748
  21112431.063 6                 110946564.615 6  86451894.16348  21112437.56348
  22506042.891 5  22506057.645 9 118270036.803 5  92158523.441 9  22506056.79347
  19784191.742 7  19784201.145 9 103966617.490 7  81012971.585 9  19784200.41049
  23678561.469 4  23678584.391 9 124431689.889 4  96959778.984 9  23678583.38346
  23106827.039 5  23106847.176 8 121427178.092 5  94618657.969 8  23106845.44547
 23  3 10  2 57 29.0000000  0  8G04G08G09G16G26G27G28G31            
  21206861.984 6  21206870.438 9 111442805.995 6  86838585.515 9  21206870.62147
  20946895.820 6  20946909.551 9 110076680.030 6  85774090.991 9  20946908.43449
  23418984.695 5  23418999.676 9 123067609.931 5  95896857.733 9  23418998.62548
  21112391.250 6                 110946356.884 6  86451732.29148  21112397.62948
  22506141.922 5  22506157.289 9 118270559.586 5  92158930.799 9  22506156.40647
  19783918.188 7  19783927.996 9 103965180.682 7  81011851.991 9  19783927.18049
  23678782.883 4  23678804.859 9 124432849.473 4  96960682.567 9  23678803.91446
  23106969.867 5  23106990.617 8 121427930.003 5  94619243.871 8  23106988.92647
 23  3 10  2 57 30.0000000  0  8G04G08G09G16G26G27G28G31            
  21206485.914 6  21206494.125 9 111440828.019 6  86837044.232 9  21206494.18047
  20946223.094 6  20946237.273 9 110073144.832 6  85771336.294 9  20946235.68849
  23418301.242 4  23418316.094 9 123064018.258 4  95894059.025 9  23418314.90648
  21112351.859 6                 110946149.346 6  86451570.56748  21112358.52348
  22506241.570 5  22506256.406 9 118271082.406 5  92159338.182 9  22506255.62147
  19783644.945 7  19783654.723 9 103963744.604 7  81010732.967 9  19783653.82049
  23679002.789 5  23679025.887 9 124434009.403 5  96961586.407 9  23679024.89146
  23107112.609 5  23107133.723 8 121428682.234 5  94619830.017 8  23107131.83647
 23  3 10  2 57 31.0000000  0  8G04G08G09G16G26G27G28G31            
  21206109.109 6  21206118.070 9 111438850.512 6  86835503.322 9  21206118.09847
  20945550.469 6  20945563.875 9 110069610.021 6  85768581.901 9  20945562.59849
  23417617.688 4  23417632.543 8 123060426.987 4  95891260.631 8  23417631.37948
  21112312.047 6                 110945941.846 6  86451408.87348  21112318.91848
  22506341.453 5  22506356.188 8 118271605.088 5  92159745.462 8  22506355.44147
  19783372.078 7  19783381.813 9 103962309.108 7  81009614.396 9  19783380.72349
  23679224.383 5  23679246.805 9 124435169.490 5  96962490.373 9  23679245.57846
  23107256.297 5  23107276.918 8 121429434.604 5  94620416.276 8  23107275.08247
 23  3 10  2 57 32.0000000  0  8G04G08G09G16G26G27G28G31            
  21205733.102 6  21205741.961 9 111436873.609 6  86833962.883 9  21205741.86347
  20944877.680 6  20944891.633 9 110066075.701 6  85765827.890 9  20944890.37549
  23416934.461 4  23416949.172 8 123056836.098 4  95888462.531 8  23416947.92648
  21112272.680 6                 110945734.375 6  86451247.20148  21112279.52748
  22506440.344 5  22506455.398 9 118272127.669 5  92160152.664 9  22506454.82447
  19783098.430 7  19783108.105 9 103960874.210 7  81008496.296 9  19783107.38749
  23679444.828 5  23679467.477 8 124436329.786 5  96963394.507 8  23679466.35946
  23107399.023 5  23107419.781 8 121430187.206 5  94621002.708 8  23107418.03947
 23  3 10  2 57 33.0000000  0  8G04G08G09G16G26G27G28G31            
  21205356.898 6  21205365.629 9 111434897.348 6  86832422.936 9  21205365.46947
  20944205.320 6  20944218.836 9 110062541.896 6  85763074.273 9  20944217.55149
  23416251.297 4  23416266.242 8 123053245.698 4  95885664.814 8  23416265.08248
  21112233.289 6                 110945527.097 6  86451085.68648  21112240.04748
  22506539.758 5  22506554.746 8 118272650.262 5  92160559.869 8  22506554.38347
  19782825.828 7  19782835.871 9 103959440.031 7  81007378.759 9  19782835.17249
  23679665.586 5  23679688.238 9 124437490.418 5  96964298.898 9  23679687.30146
  23107542.906 5  23107563.348 8 121430940.106 5  94621589.379 8  23107561.96547
 23  3 10  2 57 34.0000000  0  8G04G08G09G16G26G27G28G31            
  21204981.039 6  21204990.051 9 111432921.830 6  86830883.575 9  21204990.05947
  20943532.992 6  20943546.949 9 110059008.739 6  85760321.169 9  20943545.63749
  23415568.234 4  23415582.988 9 123049655.851 4  95882867.534 9  23415581.74248
  21112193.906 6                 110945320.043 6  86450924.33548  21112200.77748
  22506639.531 5  22506654.230 9 118273172.963 5  92160967.161 9  22506653.78147
  19782552.688 7  19782562.516 9 103958006.624 7  81006261.815 9  19782561.83649
  23679886.680 5  23679909.543 9 124438651.439 5  96965203.591 9  23679908.50846
  23107686.000 5  23107706.723 8 121431693.374 5  94622176.331 8  23107705.29747
 23  3 10  2 57 35.0000000  0  8G04G08G09G16G26G27G28G31            
  21204605.039 6  21204613.766 9 111430946.888 6  86829344.657 9  21204613.46548
  20942860.555 6  20942874.637 9 110055476.037 6  85757568.417 9  20942873.16849
  23414885.344 4  23414899.918 9 123046066.445 4  95880070.592 9  23414898.93848
  21112154.734 6                 110945113.064 6  86450763.05148  21112161.23048
  22506738.789 5  22506753.797 9 118273695.554 5  92161374.371 9  22506753.12147
  19782280.375 7  19782290.473 9 103956573.823 7  81005145.351 9  19782289.72749
  23680107.539 5  23680129.859 9 124439812.645 5  96966108.433 9  23680129.19546
  23107828.977 5  23107850.469 8 121432446.824 5  94622763.433 8  23107848.93447
 23  3 10  2 57 36.0000000  0  8G04G08G09G16G26G27G28G31            
  21204229.469 6  21204238.090 9 111428972.511 6  86827806.184 9  21204237.80547
  20942188.547 6  20942202.418 9 110051943.797 6  85754816.021 9  20942200.89549
  23414202.102 4  23414216.813 9 123042477.418 4  95877273.944 9  23414215.91448
  21112115.242 6                 110944906.152 6  86450601.81848  21112121.74648
  22506838.414 5  22506853.469 9 118274218.086 5  92161781.531 9  22506852.79347
  19782007.969 7  19782017.754 9 103955141.658 7  81004029.382 9  19782016.97349
  23680328.844 5  23680351.270 9 124440974.095 5  96967013.461 9  23680350.48846
  23107973.203 5  23107993.586 8 121433200.534 5  94623350.733 8  23107992.02047
 23  3 10  2 57 37.0000000  0  8G04G08G09G16G26G27G28G31            
  21203853.758 6  21203862.840 9 111426998.611 6  86826268.084 9  21203862.54347
  20941516.547 6  20941530.090 9 110048411.906 6  85752063.895 9  20941528.75049
  23413519.602 4  23413533.855 9 123038888.710 4  95874477.547 9  23413532.87548
  21112076.008 6                 110944699.226 6  86450440.57148  21112082.62148
  22506937.828 5  22506953.031 9 118274740.428 5  92162188.540 9  22506952.25047
  19781735.133 7  19781745.305 9 103953709.984 7  81002913.790 9  19781744.55549
  23680549.813 5  23680572.215 9 124442135.653 5  96967918.574 9  23680571.41847
  23108115.859 5  23108136.969 8 121433954.353 5  94623938.121 8  23108135.51247
 23  3 10  2 57 38.0000000  0  8G04G08G09G16G26G27G28G31            
  21203478.211 6  21203487.566 9 111425025.433 6  86824730.534 9  21203487.18848
  20940844.430 6  20940857.598 9 110044880.619 6  85749312.251 9  20940856.36749
  23412836.063 4  23412851.047 9 123035300.528 4  95871681.556 9  23412849.99648
  21112036.813 6                 110944492.507 6  86450279.48848  21112043.20748
  22507037.016 6  22507052.340 9 118275262.806 6  92162595.577 9  22507051.76647
  19781463.422 7  19781473.184 9 103952279.073 7  81001798.797 9  19781472.30949
  23680770.953 5  23680793.289 9 124443297.585 5  96968823.975 9  23680792.74646
  23108259.813 5  23108281.027 8 121434708.484 5  94624525.756 8  23108279.37147
 23  3 10  2 57 39.0000000  0  8G04G08G09G16G26G27G28G31            
  21203102.609 6  21203112.195 9 111423052.935 6  86823193.516 9  21203111.81347
  20940172.969 6  20940186.379 9 110041349.898 6  85746561.033 9  20940184.92249
  23412153.727 4  23412168.223 9 123031712.871 4  95868885.980 9  23412167.23448
  21111997.063 6                 110944285.953 6  86450118.53148  21112003.80148
  22507136.625 5  22507151.684 9 118275785.251 5  92163002.664 9  22507151.01647
  19781191.227 7  19781200.949 9 103950848.895 7  81000684.369 9  19781200.07849
  23680992.375 5  23681014.336 9 124444459.833 5  96969729.625 9  23681013.43446
  23108402.695 5  23108423.578 8 121435462.955 5  94625113.646 8  23108422.25847
 23  3 10  2 57 40.0000000  0  8G04G08G09G16G26G27G28G31            
  21202727.500 6  21202737.285 9 111421080.971 6  86821656.920 9  21202736.52348
  20939500.531 6  20939514.980 9 110037819.604 6  85743810.158 9  20939513.32849
  23411471.508 4  23411486.215 9 123028125.586 4  95866090.693 9  23411485.07848
  21111957.594 6                 110944079.474 6  86449957.63548  21111964.51248
  22507236.102 5  22507251.023 9 118276307.550 5  92163409.642 9  22507250.78547
  19780919.055 7  19780928.914 9 103949419.302 7  80999570.403 9  19780928.23849
  23681213.617 5  23681236.094 9 124445622.274 5  96970635.432 9  23681235.00047
  23108546.672 5  23108567.477 8 121436217.606 5  94625701.681 8  23108566.23447
 23  3 10  2 57 41.0000000  0  8G04G08G09G16G26G27G28G31            
  21202352.672 6  21202362.180 9 111419109.619 6  86820120.794 9  21202361.54748
  20938829.359 6  20938842.879 9 110034289.784 6  85741059.647 9  20938841.30949
  23410788.734 4  23410803.527 9 123024538.719 4  95863295.732 9  23410802.56648
  21111918.438 6                 110943873.067 6  86449796.79048  21111925.27048
  22507335.250 5  22507350.043 9 118276829.796 5  92163816.575 9  22507349.76247
  19780647.063 7  19780656.418 9 103947990.332 7  80998456.914 9  19780655.93849
  23681434.305 5  23681456.926 9 124446784.954 5  96971541.417 9  23681456.21546
  23108689.852 5  23108711.461 8 121436972.479 5  94626289.888 8  23108710.19147
 23  3 10  2 57 42.0000000  0  8G04G08G09G16G26G27G28G31            
  21201977.578 6  21201986.984 9 111417138.692 6  86818585.004 9  21201986.21947
  20938157.531 6  20938171.199 9 110030760.308 6  85738309.405 9  20938169.69949
  23410106.141 4  23410120.461 8 123020952.197 4  95860501.041 8  23410119.65248
  21111879.430 6                 110943666.625 6  86449635.93048  21111886.08648
  22507434.586 5  22507449.504 9 118277351.874 5  92164223.378 9  22507449.50047
  19780375.219 7  19780384.457 9 103946561.886 7  80997343.843 9  19780383.87549
  23681655.594 5  23681678.359 9 124447947.765 5  96972447.511 9  23681677.42246
  23108833.195 5  23108854.922 8 121437727.443 5  94626878.168 8  23108853.74647
 23  3 10  2 57 43.0000000  0  8G04G08G09G16G26G27G28G31            
  21201602.219 6  21201611.723 9 111415168.562 6  86817049.832 9  21201611.08247
  20937486.055 6  20937499.723 9 110027231.479 6  85735559.670 9  20937498.09849
  23409423.906 4  23409437.781 8 123017366.221 4  95857706.778 8  23409437.45348
  21111840.336 6                 110943460.443 6  86449475.26448  21111847.25048
  22507534.375 5  22507549.613 8 118277874.051 5  92164630.266 8  22507549.09447
  19780103.672 7  19780113.102 9 103945134.234 7  80996231.381 9  19780112.73449
  23681877.109 5  23681899.414 9 124449110.939 5  96973353.887 9  23681898.73046
  23108977.633 5  23108998.719 8 121438482.831 5  94627466.781 8  23108997.36347
 23  3 10  2 57 44.0000000  0  8G04G08G09G16G26G27G28G31            
  21201227.750 6  21201237.297 9 111413199.177 6  86815515.240 9  21201236.66847
  20936814.938 6  20936827.852 9 110023703.321 6  85732810.456 9  20936826.43849
  23408741.570 4  23408755.734 8 123013780.855 4  95854912.992 8  23408755.25448
  21111801.297 6                 110943254.529 6  86449314.80748  21111807.73448
  22507634.273 5  22507648.852 8 118278396.320 5  92165037.222 8  22507648.40247
  19779832.164 7  19779841.488 9 103943707.389 7  80995119.554 9  19779841.29349
  23682097.906 5  23682120.895 8 124450274.544 5  96974260.595 8  23682120.05946
  23109121.109 5  23109142.625 8 121439238.616 5  94628055.696 8  23109141.31647
 23  3 10  2 57 45.0000000  0  8G04G08G09G16G26G27G28G31            
  21200853.023 6  21200862.398 9 111411230.298 6  86813981.044 9  21200861.96147
  20936143.477 6  20936156.844 9 110020175.537 6  85730061.525 9  20936155.49249
  23408058.969 4  23408073.223 8 123010195.769 4  95852119.418 8  23408072.72748
  21111761.758 6                 110943048.607 6  86449154.34248  21111768.32048
  22507732.445 5  22507748.063 9 118278918.453 5  92165444.067 9  22507747.70347
  19779560.594 7  19779569.953 9 103942281.080 7  80994008.137 9  19779569.61349
  23682319.625 5  23682342.301 9 124451438.285 5  96975167.407 9  23682341.41446
  23109264.836 5  23109286.629 8 121439994.538 5  94628644.726 8  23109285.17647
 23  3 10  2 57 46.0000000  0  8G04G08G09G16G26G27G28G31            
  21200478.656 6  21200487.922 9 111409261.934 6  86812447.250 9  21200487.41448
  20935471.859 6  20935485.266 9 110016648.154 6  85727312.915 9  20935483.88749
  23407376.883 4  23407391.547 9 123006611.073 4  95849326.153 9  23407390.89148
  21111722.547 6                 110942842.694 6  86448993.89248  21111729.34048
  22507832.445 5  22507847.227 9 118279440.443 5  92165850.803 9  22507847.17247
  19779289.359 7  19779298.648 9 103940855.321 7  80992897.157 9  19779298.52049
  23682541.023 5  23682563.438 9 124452602.169 5  96976074.335 9  23682562.71947
  23109408.680 5  23109430.609 8 121440750.599 5  94629233.864 8  23109429.21147
 23  3 10  2 57 47.0000000  0  8G04G08G09G16G26G27G28G31            
  21200104.445 6  21200113.230 9 111407294.440 6  86810914.134 9  21200112.92248
  20934801.016 6  20934814.859 9 110013121.568 6  85724564.930 9  20934813.22349
  23406695.422 4  23406709.547 9 123003027.081 4  95846533.439 9  23406709.02348
  21111683.594 6                 110942637.175 6  86448833.74048  21111690.12148
  22507931.211 5  22507946.254 9 118279962.646 5  92166257.707 9  22507946.34047
  19779018.164 7  19779027.246 9 103939430.489 7  80991786.895 9  19779026.91449
  23682762.859 5  23682784.965 9 124453766.610 5  96976981.695 9  23682784.33246
  23109553.328 5  23109574.203 8 121441507.169 5  94629823.396 8  23109573.10947
 23  3 10  2 57 48.0000000  0  8G04G08G09G16G26G27G28G31            
  21199729.641 6  21199739.305 9 111405327.522 6  86809381.466 9  21199738.87148
  20934130.258 6  20934143.895 9 110009595.393 6  85721817.259 9  20934142.36349
  23406013.430 4  23406027.008 9 122999443.492 4  95843741.035 9  23406026.91048
  21111644.531 6                 110942431.701 6  86448673.63248  21111651.27348
  22508030.594 5  22508045.855 9 118280484.793 5  92166664.564 9  22508045.99247
  19778746.914 7  19778756.531 9 103938006.302 7  80990677.130 9  19778756.38349
  23682984.547 5  23683007.016 9 124454931.258 5  96977889.216 9  23683006.23446
  23109697.055 5  23109718.121 8 121442263.973 5  94630413.116 8  23109717.25047
 23  3 10  2 57 49.0000000  0  8G04G08G09G16G26G27G28G31            
  21199355.750 6  21199365.141 9 111403361.512 6  86807849.504 9  21199364.62948
  20933459.078 6  20933473.141 9 110006070.014 6  85719070.205 9  20933471.91449
  23405331.242 4  23405345.262 9 122995860.615 4  95840949.188 9  23405345.15648
  21111605.500 6                 110942226.615 6  86448513.81648  21111612.53148
  22508129.766 5  22508144.934 9 118281007.142 5  92167071.578 9  22508144.80147
  19778476.391 7  19778485.883 9 103936582.998 7  80989568.061 9  19778485.41449
  23683206.336 5  23683228.441 9 124456096.444 5  96978797.160 9  23683227.75047
  23109841.359 5  23109862.895 8 121443021.300 5  94631003.238 8  23109861.59447
 23  3 10  2 57 50.0000000  0  8G04G08G09G16G26G27G28G31            
  21198981.570 6  21198990.234 9 111401396.253 6  86806318.131 9  21198990.29748
  20932788.508 6  20932802.012 9 110002545.298 6  85716323.673 9  20932800.79349
  23404649.664 4  23404664.066 9 122992278.335 4  95838157.800 9  23404663.57448
  21111566.398 6                 110942021.818 6  86448354.23048  21111573.14148
  22508229.852 5  22508245.145 9 118281529.627 5  92167478.699 9  22508244.80147
  19778205.375 7  19778215.043 9 103935160.517 7  80988459.630 9  19778214.57449
  23683428.094 5  23683450.426 9 124457262.045 5  96979705.430 9  23683449.56346
  23109985.969 5  23110007.387 8 121443779.015 5  94631593.661 8  23110005.96547
 23  3 10  2 57 51.0000000  0  8G04G08G09G16G26G27G28G31            
  21198608.109 6  21198616.961 9 111399431.333 6  86804787.015 9  21198616.68848
  20932118.148 6  20932131.910 9 109999020.837 6  85713577.343 9  20932130.46549
  23403968.195 5  23403982.418 9 122988696.278 5  95835366.594 9  23403981.97348
  21111527.844 6                 110941816.874 6  86448194.53448  21111534.25048
  22508329.172 5  22508344.082 9 118282051.796 5  92167885.571 9  22508343.98447
  19777934.773 7  19777944.680 9 103933738.439 7  80987351.520 9  19777944.32849
  23683649.375 5  23683672.156 9 124458427.638 5  96980613.688 9  23683671.31347
  23110130.391 5  23110151.098 9 121444536.751 5  94632184.103 9  23110149.86747
 23  3 10  2 57 52.0000000  0  8G04G08G09G16G26G27G28G31            
  21198233.875 6  21198242.945 9 111397467.036 6  86803256.394 9  21198242.76248
  20931447.258 6  20931460.523 9 109995496.881 6  85710831.407 9  20931459.53149
  23403286.938 5  23403300.805 9 122985114.635 5  95832575.703 9  23403300.49648
  21111488.297 6                 110941612.011 6  86448034.88848  21111495.28148
  22508428.297 5  22508443.395 9 118282573.922 5  92168292.416 9  22508443.31347
  19777664.383 7  19777674.270 9 103932316.996 7  80986243.896 9  19777673.50849
  23683871.766 5  23683893.746 9 124459593.466 5  96981522.131 9  23683893.00846
  23110274.352 5  23110295.004 9 121445294.712 5  94632774.717 9  23110293.87947
 23  3 10  2 57 53.0000000  0  8G04G08G09G16G26G27G28G31            
  21197860.258 6  21197869.387 9 111395503.410 6  86801726.295 9  21197869.21147
  20930776.789 6  20930790.516 9 109991973.462 6  85708085.882 9  20930789.48849
  23402605.508 5  23402619.520 9 122981533.468 5  95829785.184 9  23402619.22348
  21111448.977 6                 110941407.319 6  86447875.38548  21111456.14548
  22508528.258 5  22508542.984 9 118283096.058 5  92168699.269 9  22508542.84847
  19777393.797 7  19777403.973 9 103930896.274 7  80985136.842 9  19777403.38749
  23684093.273 5  23684115.637 9 124460759.596 5  96982430.807 9  23684114.87546
  23110418.297 5  23110439.297 9 121446052.960 5  94633365.558 9  23110438.23447
 23  3 10  2 57 54.0000000  0  8G04G08G09G16G26G27G28G31            
  21197486.742 6  21197495.789 9 111393540.425 6  86800196.695 9  21197495.84048
  20930106.273 6  20930120.184 9 109988450.579 6  85705340.780 9  20930119.00449
  23401923.594 4  23401938.238 9 122977952.784 4  95826995.045 9  23401937.77048
  21111410.750 6                 110941202.769 6  86447715.99348  21111417.27048
  22508627.156 5  22508642.008 9 118283618.206 5  92169106.126 9  22508641.99247
  19777123.617 7  19777133.816 9 103929476.218 7  80984030.298 9  19777132.85549
  23684315.508 5  23684338.031 9 124461926.061 5  96983339.742 9  23684337.36746
  23110562.563 5  23110583.570 8 121446811.504 5  94633956.623 8  23110582.49647
 23  3 10  2 57 55.0000000  0  8G04G08G09G16G26G27G28G31            
  21197113.047 6  21197122.387 9 111391578.104 6  86798667.610 9  21197122.27047
  20929435.875 6  20929449.625 9 109984928.264 6  85702596.119 9  20929448.46549
  23401242.703 5  23401257.129 8 122974372.638 5  95824205.326 8  23401256.72348
  21111371.656 6                 110940998.396 6  86447556.74248  21111378.47348
  22508726.320 5  22508741.484 8 118284140.358 5  92169512.988 8  22508741.28947
  19776853.898 7  19776863.430 9 103928056.920 7  80982924.349 9  19776862.73449
  23684537.836 5  23684559.965 9 124463092.853 5  96984248.938 9  23684559.02746
  23110706.945 5  23110728.051 8 121447570.348 5  94634547.923 8  23110727.16847
 23  3 10  2 57 56.0000000  0  8G04G08G09G16G26G27G28G31            
  21196739.953 6  21196749.320 9 111389616.394 6  86797139.004 9  21196749.22347
  20928765.813 6  20928779.527 9 109981406.454 6  85699851.853 9  20928778.35249
  23400561.672 5  23400576.105 8 122970792.918 5  95821415.935 8  23400575.76248
  21111332.711 6                 110940794.153 6  86447397.58948  21111339.67248
  22508826.117 5  22508840.824 8 118284662.453 5  92169919.801 8  22508840.92247
  19776583.477 7  19776593.516 9 103926638.224 7  80981818.875 9  19776592.94549
  23684759.742 5  23684782.184 9 124464259.832 5  96985158.276 9  23684781.07046
  23110851.555 5  23110872.543 8 121448329.456 5  94635139.434 8  23110871.57847
 23  3 10  2 57 57.0000000  0  8G04G08G09G16G26G27G28G31            
  21196367.063 6  21196376.367 9 111387655.255 6  86795610.849 9  21196375.92648
  20928095.969 6  20928109.223 9 109977885.054 6  85697107.906 9  20928108.20349
  23399880.000 5  23399895.004 9 122967213.554 5  95818626.816 9  23399894.25448
  21111293.914 6                 110940589.916 6  86447238.44248  21111300.78548
  22508924.914 5  22508940.234 9 118285184.434 5  92170326.528 9  22508940.33647
  19776313.984 7  19776323.746 9 103925220.154 7  80980713.886 9  19776322.92249
  23684981.680 5  23685004.301 9 124465427.046 5  96986067.798 9  23685003.27747
  23110996.164 5  23111016.734 8 121449088.753 5  94635731.086 8  23111015.91047
 23  3 10  2 57 58.0000000  0  8G04G08G09G16G26G27G28G31            
  21195993.164 6  21196003.164 9 111385694.662 6  86794083.112 9  21196002.87548
  20927425.750 6  20927439.512 9 109974364.115 6  85694364.324 9  20927438.22749
  23399199.656 5  23399213.770 9 122963634.614 5  95815838.033 9  23399213.05548
  21111254.930 6                 110940385.760 6  86447079.34948  21111262.12548
  22509024.484 5  22509039.281 9 118285706.348 5  92170733.205 9  22509039.26247
  19776044.148 7  19776054.195 9 103923802.673 7  80979609.352 9  19776053.29349
  23685204.477 5  23685226.164 9 124466594.464 5  96986977.482 9  23685225.39846
  23111140.625 5  23111161.805 8 121449848.239 5  94636322.890 8  23111160.66047
 23  3 10  2 57 59.0000000  0  8G04G08G09G16G26G27G28G31            
  21195620.750 6  21195630.141 9 111383734.644 6  86792555.824 9  21195629.82848
  20926755.969 6  20926769.457 9 109970843.646 6  85691621.108 9  20926768.40249
  23398518.359 5  23398533.539 9 122960056.095 5  95813049.578 9  23398532.60948
  21111215.961 6                 110940181.672 6  86446920.31448  21111223.41448
  22509123.391 5  22509138.816 9 118286228.192 5  92171139.829 9  22509138.81347
  19775774.602 7  19775784.383 9 103922385.814 7  80978505.305 9  19775783.82849
  23685426.125 5  23685448.621 9 124467762.132 5  96987887.360 9  23685447.82047
  23111284.977 5  23111305.758 8 121450607.943 5  94636914.862 8  23111304.74647
 23  3 10  2 58  0.0000000  0  8G04G08G09G16G26G27G28G31            
  21195248.008 6  21195257.504 9 111381775.724 6  86791029.390 9  21195257.24648
  20926086.063 6  20926099.879 9 109967324.146 6  85688878.645 9  20926098.85249
  23397836.992 5  23397852.113 9 122956478.467 5  95810261.815 9  23397851.37148
  21111176.961 6                 110939978.187 6  86446761.75048  21111184.47748
  22509222.727 5  22509238.184 9 118286750.424 5  92171546.756 9  22509238.27747
  19775505.547 6  19775515.270 9 103920970.093 6  80977402.148 9  19775514.37149
  23685648.398 5  23685670.750 9 124468930.489 5  96988797.771 9  23685670.37946
  23111429.664 5  23111450.684 8 121451368.364 5  94637507.392 8  23111449.98447
 23  3 10  2 58  1.0000000  0  8G04G08G09G16G26G27G28G31            
  21194875.438 6  21194884.742 9 111379817.464 6  86789503.472 9  21194884.61748
  20925416.320 6  20925430.746 9 109963805.198 6  85686136.612 9  20925429.42249
  23397156.383 5  23397171.230 9 122952901.341 5  95807474.440 9  23397170.64148
  21111138.445 6                 110939774.873 6  86446603.31848  21111145.75848
  22509322.242 5  22509337.574 9 118287272.729 5  92171953.740 9  22509337.18847
  19775235.977 6  19775245.574 9 103919555.086 6  80976299.546 9  19775244.71949
  23685870.836 5  23685892.836 9 124470099.163 5  96989708.429 9  23685892.21547
  23111574.406 5  23111595.602 9 121452129.107 5  94638100.174 9  23111594.60247
 23  3 10  2 58  2.0000000  0  8G04G08G09G16G26G27G28G31            
  21194502.469 6  21194512.793 9 111377859.710 6  86787977.948 9  21194512.46948
  20924746.883 6  20924760.988 9 109960286.652 6  85683394.887 9  20924759.97749
  23396475.695 5  23396490.855 9 122949324.588 5  95804687.356 9  23396490.38748
  21111099.641 6                 110939571.545 6  86446444.88148  21111107.48448
  22509422.078 5  22509437.059 9 118287794.838 5  92172360.574 9  22509436.78947
  19774967.039 6  19774976.988 9 103918140.601 6  80975197.352 9  19774976.21949
  23686093.359 5  23686115.707 9 124471268.005 5  96990619.220 9  23686114.98447
  23111719.711 5  23111740.402 9 121452889.977 5  94638693.055 9  23111739.37147
 23  3 10  2 58  3.0000000  0  8G04G08G09G16G26G27G28G31            
  21194130.391 6  21194139.938 9 111375902.461 6  86786452.813 9  21194139.42648
  20924077.797 6  20924091.395 9 109956768.508 6  85680653.481 9  20924090.07849
  23395795.023 5  23395810.145 9 122945748.171 5  95801900.535 9  23395809.39148
  21111060.938 6                 110939368.217 6  86446286.44148  21111068.22348
  22509521.023 5  22509536.176 9 118288316.799 5  92172767.290 9  22509535.96547
  19774697.844 6  19774707.109 9 103916726.674 6  80974095.590 9  19774706.52749
  23686315.867 4  23686338.203 9 124472437.018 4  96991530.145 9  23686337.17646
  23111864.242 5  23111885.852 9 121453650.990 5  94639286.047 9  23111884.41847
 23  3 10  2 58  4.0000000  0  8G04G08G09G16G26G27G28G31            
  21193758.516 6  21193768.004 9 111373945.861 6  86784928.184 9  21193767.54748
  20923408.258 6  20923421.754 9 109953250.886 6  85677912.485 9  20923420.35949
  23395114.750 5  23395129.684 9 122942172.199 5  95799114.063 9  23395129.20748
  21111022.219 6                 110939165.067 6  86446128.13848  21111029.42248
  22509620.664 5  22509635.879 9 118288838.797 5  92173174.033 9  22509635.58647
  19774428.914 6  19774438.621 9 103915313.470 6  80972994.393 9  19774437.85949
  23686539.000 5  23686560.730 9 124473606.249 5  96992441.240 9  23686559.80546
  23112008.914 5  23112030.383 9 121454412.313 5  94639879.276 9  23112029.05547
 23  3 10  2 58  5.0000000  0  8G04G08G09G16G26G27G28G31            
  21193385.789 6  21193395.680 9 111371989.976 6  86783404.111 9  21193395.17247
  20922738.703 6  20922752.461 9 109949733.844 6  85675171.936 9  20922751.17649
  23394434.523 5  23394449.430 9 122938596.772 5  95796328.014 9  23394449.00048
  21110983.898 6                 110938962.073 6  86445969.95248  21110990.99248
  22509719.602 5  22509734.895 9 118289360.786 5  92173580.771 9  22509734.78547
  19774160.117 6  19774169.785 9 103913900.954 6  80971893.728 9  19774169.00049
  23686761.250 5  23686783.336 9 124474775.915 5  96993352.677 9  23686782.33646
  23112153.898 5  23112175.906 8 121455173.934 5  94640472.748 8  23112174.29747
 23  3 10  2 58  6.0000000  0  8G04G08G09G16G26G27G28G31            
  21193014.422 6  21193023.641 9 111370034.919 6  86781880.689 9  21193022.94947
  20922069.453 6  20922083.707 9 109946217.518 6  85672431.946 9  20922082.19149
  23393754.594 5  23393768.879 9 122935022.009 5  95793542.479 9  23393768.37548
  21110945.133 6                 110938759.438 6  86445812.05848  21110952.66848
  22509819.570 5  22509833.977 8 118289883.015 5  92173987.695 8  22509833.67247
  19773891.289 7  19773901.008 9 103912489.357 7  80970793.782 9  19773900.29749
  23686984.047 5  23687006.109 9 124475946.023 5  96994264.458 9  23687005.10246
  23112299.156 5  23112320.523 8 121455936.032 5  94641066.583 8  23112319.09847
 23  3 10  2 58  7.0000000  0  8G04G08G09G16G26G27G28G31            
  21192642.000 6  21192651.551 9 111368080.227 6  86780357.543 9  21192651.24647
  20921400.648 6  20921414.465 9 109942701.468 6  85669692.172 9  20921413.10249
  23393073.922 5  23393088.871 8 122931447.483 5  95790757.130 8  23393088.11348
  21110906.742 6                 110938556.669 6  86445654.04647  21110913.92247
  22509918.930 5  22509933.789 8 118290404.924 5  92174394.372 8  22509933.28947
  19773623.133 7  19773632.297 9 103911078.152 7  80969694.138 9  19773632.03549
  23687206.906 5  23687228.727 8 124477116.146 5  96995176.248 8  23687227.99246
  23112444.336 5  23112465.551 8 121456698.182 5  94641660.462 8  23112464.06647
 23  3 10  2 58  8.0000000  0  8G04G08G09G16G26G27G28G31            
  21192270.023 6  21192279.824 9 111366126.279 6  86778834.984 9  21192279.47347
  20920731.570 6  20920745.340 9 109939186.035 6  85666952.875 9  20920743.94149
  23392393.609 5  23392409.258 8 122927873.505 5  95787972.210 8  23392408.19948
  21110867.945 6                 110938354.138 6  86445496.22647  21110875.05547
  22510017.914 5  22510032.688 8 118290926.935 5  92174801.125 8  22510032.18047
  19773354.438 7  19773364.238 9 103909667.728 7  80968595.103 9  19773363.73049
  23687428.648 5  23687451.461 8 124478286.665 5  96996088.350 8  23687450.50846
  23112589.008 5  23112610.527 8 121457460.674 5  94642254.604 8  23112609.05147
 23  3 10  2 58  9.0000000  0  8G04G08G09G16G26G27G28G31            
  21191898.883 6  21191908.184 9 111364173.010 6  86777312.948 9  21191907.97348
  20920062.641 6  20920076.277 9 109935671.199 6  85664214.047 9  20920074.82849
  23391714.352 5  23391728.906 8 122924300.063 5  95785187.707 8  23391728.25848
  21110829.586 6                 110938151.792 6  86445338.54747  21110836.59447
  22510117.469 5  22510132.367 8 118291448.955 5  92175207.883 8  22510131.93847
  19773086.555 7  19773096.039 9 103908258.057 7  80967496.656 9  19773095.62949
  23687651.828 4  23687673.891 8 124479457.503 4  96997000.698 8  23687673.26246
  23112734.336 5  23112755.504 8 121458223.498 5  94642849.013 8  23112754.20747
 23  3 10  2 58 10.0000000  0  8G04G08G09G16G26G27G28G31            
  21191527.000 6  21191536.781 9 111362220.478 6  86775791.492 9  21191536.77748
  20919394.125 6  20919407.461 9 109932157.004 6  85661475.719 9  20919406.32849
  23391034.453 5  23391048.547 9 122920727.193 5  95782403.648 9  23391047.94548
  21110791.336 6                 110937949.680 6  86445181.05648  21110798.30948
  22510217.070 5  22510231.586 9 118291971.080 5  92175614.726 9  22510231.10247
  19772817.977 7  19772827.359 9 103906849.152 7  80966398.806 9  19772826.98049
  23687874.602 4  23687897.039 9 124480628.736 4  96997913.359 9  23687896.43046
  23112879.219 5  23112900.508 8 121458986.760 5  94643443.762 8  23112899.21947
 23  3 10  2 58 11.0000000  0  8G04G08G09G16G26G27G28G31            
  21191155.711 6  21191165.223 9 111360268.675 6  86774270.609 9  21191164.97748
  20918725.633 6  20918739.023 9 109928643.382 6  85658737.829 9  20918737.83649
  23390354.406 5  23390368.957 9 122917154.840 5  95779619.994 9  23390368.24648
  21110753.180 6                 110937747.773 6  86445023.72748  21110760.08648
  22510315.984 5  22510331.066 9 118292493.255 5  92176021.610 9  22510330.32847
  19772550.125 7  19772559.410 9 103905440.977 7  80965301.521 9  19772558.97749
  23688098.563 5  23688120.172 9 124481800.290 5  96998826.259 9  23688119.49246
  23113024.461 5  23113045.977 8 121459750.285 5  94644038.709 8  23113044.50847
 23  3 10  2 58 12.0000000  0  8G04G08G09G16G26G27G28G31            
  21190784.367 6  21190794.023 9 111358317.410 6  86772750.137 9  21190793.77048
  20918057.047 6  20918070.297 9 109925130.207 6  85656000.298 9  20918068.93849
  23389674.445 5  23389689.473 9 122913582.906 5  95776836.665 9  23389688.82448
  21110714.367 6                 110937545.927 6  86444866.44248  21110721.50448
  22510415.414 5  22510430.727 9 118293015.320 5  92176428.403 9  22510430.19547
  19772282.234 7  19772291.773 9 103904033.408 7  80964204.709 9  19772291.39149
  23688321.063 5  23688342.848 9 124482972.119 5  96999739.382 9  23688342.32846
  23113170.422 5  23113191.605 8 121460514.022 5  94644633.826 8  23113190.25847
 23  3 10  2 58 13.0000000  0  8G04G08G09G16G26G27G28G31            
  21190413.414 6  21190422.742 9 111356366.795 6  86771230.173 9  21190422.59048
  20917388.172 6  20917401.664 9 109921617.540 6  85653263.154 9  20917400.24649
  23388995.133 5  23389009.664 9 122910011.406 5  95774053.674 9  23389009.31648
  21110675.750 6                 110937344.217 6  86444709.25748  21110683.21948
  22510515.117 5  22510529.945 9 118293537.378 5  92176835.198 9  22510529.67647
  19772014.633 7  19772024.504 9 103902626.535 7  80963108.443 9  19772024.06649
  23688544.516 5  23688565.785 9 124484144.172 5  97000652.680 9  23688565.50446
  23113315.914 5  23113336.777 8 121461278.023 5  94645229.146 8  23113335.58247
 23  3 10  2 58 14.0000000  0  8G04G08G09G16G26G27G28G31            
  21190041.641 6  21190051.688 9 111354416.631 6  86769710.557 9  21190051.60248
  20916719.883 6  20916733.602 9 109918105.223 6  85650526.286 9  20916732.22749
  23388315.320 5  23388329.457 9 122906440.203 5  95771270.918 9  23388329.00848
  21110637.430 6                 110937142.430 6  86444552.01848  21110645.02748
  22510613.852 5  22510629.102 9 118294059.220 5  92177241.819 9  22510628.95747
  19771746.633 6  19771756.625 9 103901220.120 6  80962012.530 9  19771756.16849
  23688767.133 5  23688788.918 9 124485316.311 5  97001566.038 9  23688788.55946
  23113460.789 5  23113482.258 8 121462042.134 5  94645824.553 8  23113481.07047
 23  3 10  2 58 15.0000000  0  8G04G08G09G16G26G27G28G31            
  21189670.836 6  21189680.168 9 111352466.850 6  86768191.241 9  21189680.40648
  20916051.813 6  20916065.082 9 109914593.166 6  85647789.619 9  20916063.93849
  23387635.453 5  23387650.332 9 122902869.225 5  95768488.338 9  23387649.86348
  21110599.180 6                 110936940.563 6  86444394.71348  21110606.34848
  22510713.594 5  22510728.332 9 118294580.835 5  92177648.262 9  22510728.05147
  19771479.320 6  19771488.926 9 103899814.156 6  80960916.974 9  19771488.38349
  23688990.320 5  23689012.121 9 124486488.530 5  97002479.459 9  23689011.71946
  23113606.492 5  23113627.207 8 121462806.272 5  94646419.980 8  23113626.28947
 23  3 10  2 58 16.0000000  0  8G04G08G09G16G26G27G28G31            
  21189300.000 6  21189309.133 9 111350517.975 6  86766672.638 9  21189309.53547
  20915383.492 6  20915396.895 9 109911081.906 6  85645053.570 9  20915395.48449
  23386956.406 5  23386971.367 9 122899299.010 5  95765706.354 9  23386970.87148
  21110561.211 6                 110936739.090 6  86444237.71348  21110567.95348
  22510813.055 5  22510828.000 9 118295102.667 5  92178054.878 9  22510827.34047
  19771211.641 6  19771221.883 9 103898409.157 6  80959822.165 9  19771221.42249
  23689213.125 5  23689234.848 9 124487661.276 5  97003393.293 9  23689234.66046
  23113752.453 5  23113773.055 9 121463570.961 5  94647015.832 9  23113772.14847
 23  3 10  2 58 17.0000000  0  8G04G08G09G16G26G27G28G31            
  21188929.055 6  21188938.363 9 111348569.794 6  86765154.572 9  21188938.73847
  20914715.703 6  20914728.883 9 109907571.220 6  85642317.969 9  20914727.43449
  23386276.922 5  23386291.363 9 122895729.305 5  95762924.768 9  23386290.94948
  21110522.398 6                 110936537.802 6  86444080.86848  21110529.76248
  22510912.313 5  22510927.395 9 118295624.544 5  92178461.524 9  22510926.73847
  19770944.367 6  19770954.355 9 103897004.851 6  80958727.897 9  19770953.77749
  23689437.094 5  23689458.188 9 124488834.339 5  97004307.366 9  23689457.94946
  23113897.969 5  23113918.727 8 121464335.950 5  94647611.927 8  23113917.56347
 23  3 10  2 58 18.0000000  0  8G04G08G09G16G26G27G28G31            
  21188558.445 6  21188567.691 9 111346622.068 6  86763636.856 9  21188568.17647
  20914047.063 6  20914061.035 9 109904060.862 6  85639582.628 9  20914059.54749
  23385598.125 5  23385611.813 8 122892159.865 5  95760143.387 8  23385611.79348
  21110484.242 6                 110936336.448 6  86443923.96547  21110491.71147
  22511011.914 5  22511026.832 8 118296146.197 5  92178867.999 8  22511026.19147
  19770677.625 6  19770687.434 9 103895601.063 6  80957634.032 9  19770686.85949
  23689659.414 5  23689681.383 9 124490007.521 5  97005221.536 9  23689681.32446
  23114043.461 5  23114063.863 8 121465101.002 5  94648208.064 8  23114062.88347
 23  3 10  2 58 19.0000000  0  8G04G08G09G16G26G27G28G31            
  21188188.039 6  21188196.961 9 111344675.050 6  86762119.700 9  21188197.55147
  20913379.461 6  20913392.887 9 109900551.093 6  85636847.741 9  20913391.44949
  23384918.555 5  23384932.598 8 122888590.987 5  95757362.445 8  23384932.57048
  21110445.828 6                 110936135.332 6  86443767.24747  21110452.92247
  22511110.453 5  22511125.922 8 118296667.938 5  92179274.539 8  22511125.36747
  19770410.680 6  19770420.074 9 103894198.022 6  80956540.750 9  19770419.30149
  23689882.547 5  23689904.824 8 124491181.056 5  97006135.981 8  23689904.42246
  23114189.297 5  23114209.680 8 121465866.463 5  94648804.520 8  23114208.58247
 23  3 10  2 58 20.0000000  0  8G04G08G09G16G26G27G28G31            
  21187817.602 6  21187826.633 9 111342728.738 6  86760603.095 9  21187827.21547
  20912711.766 6  20912725.113 9 109897041.927 6  85634113.324 9  20912723.71949
  23384239.906 5  23384253.344 8 122885022.638 5  95754581.916 8  23384253.47748
  21110407.813 6                 110935934.403 6  86443610.68048  21110414.84848
  22511210.250 5  22511225.398 8 118297189.757 5  92179681.140 8  22511224.75047
  19770143.586 6  19770153.453 9 103892795.743 6  80955448.070 9  19770152.95749
  23690106.203 5  23690127.859 8 124492354.896 5  97007050.669 8  23690127.59046
  23114334.484 5  23114355.582 8 121466632.236 5  94649401.225 8  23114354.28947
 23  3 10  2 58 21.0000000  0  8G04G08G09G16G26G27G28G31            
  21187447.344 6  21187456.477 9 111340783.092 6  86759087.004 9  21187456.66447
  20912044.086 6  20912057.691 9 109893533.334 6  85631379.354 9  20912056.13349
  23383560.633 5  23383574.633 8 122881454.787 5  95751801.776 8  23383574.59848
  21110369.656 6                 110935733.608 6  86443454.20848  21110376.95348
  22511309.430 5  22511324.492 8 118297711.497 5  92180087.678 8  22511323.93047
  19769876.852 6  19769887.168 9 103891394.132 6  80954355.904 9  19769886.35249
  23690329.398 5  23690351.387 8 124493529.125 5  97007965.647 8  23690351.02346
  23114480.641 5  23114501.402 8 121467398.326 5  94649998.172 8  23114500.14547
 23  3 10  2 58 22.0000000  0  8G04G08G09G16G26G27G28G31            
  21187077.289 6  21187086.238 9 111338838.183 6  86757571.487 9  21187086.72348
  20911376.203 6  20911390.547 9 109890025.368 6  85628645.869 9  20911389.07449
  23382882.422 5  23382896.004 8 122877887.541 5  95749022.104 8  23382895.94548
  21110331.367 6                 110935533.097 6  86443297.96848  21110338.73448
  22511409.070 5  22511423.594 9 118298233.400 5  92180494.348 9  22511423.02047
  19769610.609 6  19769620.395 9 103889993.325 6  80953264.363 9  19769619.84049
  23690553.039 5  23690575.164 8 124494703.718 5  97008880.916 8  23690574.57046
  23114626.531 5  23114647.379 8 121468164.787 5  94650595.415 8  23114646.05147
 23  3 10  2 58 23.0000000  0  8G04G08G09G16G26G27G28G31            
  21186707.430 6  21186716.535 9 111336893.771 6  86756056.364 9  21186716.73847
  20910709.203 6  20910722.906 9 109886517.796 6  85625912.688 9  20910721.32849
  23382203.172 5  23382217.059 8 122874320.581 5  95746242.661 8  23382217.03948
  21110292.953 6                 110935332.540 6  86443141.68448  21110300.55548
  22511507.508 5  22511523.281 9 118298755.101 5  92180900.855 9  22511522.40647
  19769344.148 6  19769354.152 9 103888593.062 6  80952173.248 9  19769353.50049
  23690775.922 5  23690798.539 8 124495878.401 5  97009796.260 8  23690797.91846
  23114772.164 5  23114793.254 8 121468931.381 5  94651192.755 8  23114792.01647
 23  3 10  2 58 24.0000000  0  8G04G08G09G16G26G27G28G31            
  21186337.227 6  21186346.555 9 111334949.965 6  86754541.711 9  21186346.61348
  20910041.805 6  20910055.348 9 109883010.731 6  85623179.910 9  20910053.94949
  23381524.828 5  23381538.633 8 122870754.093 5  95743463.578 8  23381538.69548
  21110255.102 6                 110935132.125 6  86442985.51048  21110262.53148
  22511607.211 5  22511622.285 9 118299276.771 5  92181307.341 9  22511621.48047
  19769077.898 6  19769087.633 9 103887193.421 6  80951082.620 9  19769086.96949
  23690999.992 5  23691022.273 9 124497053.382 5  97010711.830 9  23691021.74646
  23114918.578 5  23114939.074 8 121469698.223 5  94651790.290 8  23114937.95347
 23  3 10  2 58 25.0000000  0  8G04G08G09G16G26G27G28G31            
  21185967.727 6  21185976.934 9 111333006.709 6  86753027.489 9  21185976.79747
  20909374.320 6  20909387.988 9 109879504.105 6  85620447.475 9  20909386.68049
  23380846.266 5  23380859.699 9 122867187.986 5  95740684.798 9  23380859.77048
  21110216.844 6                 110934931.726 6  86442829.34548  21110224.46948
  22511706.102 5  22511721.852 9 118299798.320 5  92181713.733 9  22511720.97747
  19768811.430 6  19768821.297 9 103885794.383 6  80949992.466 9  19768820.70749
  23691223.664 5  23691245.793 9 124498228.549 5  97011627.550 9  23691245.18446
  23115064.250 5  23115084.953 8 121470465.240 5  94652387.967 8  23115083.82847
 23  3 10  2 58 26.0000000  0  8G04G08G09G16G26G27G28G31            
  21185597.961 6  21185606.891 9 111331064.131 6  86751513.790 9  21185606.96147
  20908707.609 6  20908720.711 9 109875998.047 6  85617715.479 9  20908719.70749
  23380167.398 5  23380181.113 9 122863622.394 5  95737906.419 9  23380181.16048
  21110178.836 6                 110934731.511 6  86442673.32848  21110186.41448
  22511805.445 5  22511820.813 9 118300319.901 5  92182120.151 9  22511819.90247
  19768545.602 6  19768555.336 9 103884396.071 6  80948902.869 9  19768554.85549
  23691447.023 5  23691469.910 9 124499404.014 5  97012543.497 9  23691469.10546
  23115210.375 5  23115231.047 8 121471232.544 5  94652985.859 8  23115229.71947
 23  3 10  2 58 27.0000000  0  8G04G08G09G16G26G27G28G31            
  21185228.516 6  21185238.094 9 111329122.172 6  86750000.576 9  21185237.88748
  20908040.008 6  20908053.430 9 109872492.479 6  85614983.872 9  20908052.55149
  23379488.516 5  23379502.996 8 122860057.241 5  95735128.387 8  23379502.68848
  21110140.617 6                 110934531.416 6  86442517.40748  21110148.37948
  22511904.547 5  22511919.867 9 118300841.457 5  92182526.551 9  22511919.14847
  19768279.625 6  19768289.277 9 103882998.425 6  80947813.796 9  19768288.63349
  23691671.648 5  23691693.164 9 124500579.763 5  97013459.667 9  23691692.89546
  23115356.281 5  23115377.195 8 121472000.172 5  94653584.009 8  23115376.11747
 23  3 10  2 58 28.0000000  0  8G04G08G09G16G26G27G28G31            
  21184859.172 6  21184868.535 9 111327180.928 6  86748487.919 9  21184868.28148
  20907372.891 6  20907386.746 9 109868987.493 6  85612252.711 9  20907385.50849
  23378810.148 5  23378824.730 9 122856492.618 5  95732350.765 9  23378824.32048
  21110102.531 6                 110934331.522 6  86442361.65148  21110110.12548
  22512003.805 5  22512019.020 9 118301363.041 5  92182932.964 9  22512018.48847
  19768013.477 6  19768023.805 9 103881601.507 6  80946725.287 9  19768023.12549
  23691894.898 4  23691916.820 9 124501755.816 4  97014376.079 9  23691916.12546
  23115502.258 5  23115523.488 9 121472768.117 5  94654182.401 9  23115521.97347
 23  3 10  2 58 29.0000000  0  8G04G08G09G16G26G27G28G31            
  21184489.883 6  21184498.949 9 111325240.316 6  86746975.746 9  21184498.56647
  20906706.258 6  20906719.871 9 109865483.044 6  85609521.975 9  20906718.83649
  23378132.383 5  23378146.625 8 122852928.490 5  95729573.526 8  23378146.18048
  21110064.492 6                 110934131.763 6  86442205.98448  21110071.80548
  22512103.141 5  22512118.301 9 118301884.627 5  92183339.387 9  22512117.52047
  19767747.945 6  19767757.742 9 103880205.291 6  80945637.324 9  19767757.16449
  23692119.016 4  23692140.797 9 124502932.220 4  97015292.764 9  23692140.16046
  23115648.813 5  23115669.992 8 121473536.303 5  94654780.982 8  23115668.75847
 23  3 10  2 58 30.0000000  0  8G04G08G09G16G26G27G28G31            
  21184120.828 6  21184130.219 9 111323300.093 6  86745463.887 9  21184129.73847
  20906039.883 6  20906053.332 9 109861978.914 6  85606791.483 9  20906052.13749
  23377454.836 5  23377468.238 8 122849364.570 5  95726796.440 8  23377467.81648
  21110026.828 6                 110933931.885 6  86442050.22948  21110033.91048
  22512202.008 5  22512218.031 9 118302405.947 5  92183745.596 9  22512217.14147
  19767482.305 7  19767491.633 9 103878809.499 7  80944549.689 9  19767491.15649
  23692342.945 4  23692364.441 8 124504108.635 4  97016209.452 8  23692363.64546
  23115794.438 5  23115816.074 8 121474304.521 5  94655379.588 8  23115814.73447
 23  3 10  2 58 31.0000000  0  8G04G08G09G16G26G27G28G31            
  21183751.430 6  21183761.000 9 111321360.695 6  86743952.660 9  21183760.51247
  20905372.734 6  20905386.340 9 109858475.462 6  85604061.521 9  20905385.25049
  23376776.367 5  23376789.883 8 122845801.314 5  95724019.877 8  23376789.77748
  21109988.758 6                 110933732.333 6  86441894.73347  21109995.94547
  22512301.578 5  22512316.715 8 118302927.446 5  92184151.949 8  22512316.01247
  19767216.969 7  19767226.641 9 103877414.566 7  80943462.732 9  19767226.15649
  23692565.977 4  23692588.844 8 124505285.497 4  97017126.490 8  23692587.78146
  23115940.594 5  23115962.160 8 121475073.256 5  94655978.603 8  23115960.91447
 23  3 10  2 58 32.0000000  0  8G04G08G09G16G26G27G28G31            
  21183382.508 6  21183392.215 9 111319422.172 6  86742442.121 9  21183391.50447
  20904706.203 6  20904720.109 9 109854972.786 6  85601332.164 9  20904718.82849
  23376098.500 5  23376112.496 8 122842238.807 5  95721243.901 8  23376112.03548
  21109950.875 6                 110933533.162 6  86441739.52848  21109958.30148
  22512400.586 5  22512416.660 8 118303449.151 5  92184558.466 8  22512415.83647
  19766951.617 7  19766960.969 9 103876020.547 7  80942376.482 9  19766960.45349
  23692790.836 4  23692812.664 8 124506462.922 4  97018043.968 8  23692811.66846
  23116087.383 5  23116108.195 8 121475842.440 5  94656577.971 8  23116106.84447
 23  3 10  2 58 33.0000000  0  8G04G08G09G16G26G27G28G31            
  21183013.938 6  21183024.004 9 111317484.399 6  86740932.162 9  21183023.26648
  20904039.906 6  20904053.648 9 109851470.742 6  85598603.305 9  20904052.50849
  23375420.398 5  23375434.559 8 122838676.803 5  95718468.313 8  23375434.25448
  21109913.148 6                 110933334.229 6  86441584.51048  21109920.39848
  22512500.266 5  22512515.918 9 118303970.939 5  92184965.040 9  22512515.17247
  19766686.438 7  19766695.906 9 103874627.319 7  80941290.851 9  19766695.39149
  23693014.992 4  23693036.648 8 124507640.708 4  97018961.726 8  23693035.64546
  23116233.938 5  23116254.301 8 121476612.015 5  94657177.630 8  23116253.05547
 23  3 10  2 58 34.0000000  0  8G04G08G09G16G26G27G28G31            
  21182644.984 6  21182654.844 9 111315547.335 6  86739422.754 9  21182654.05948
  20903373.602 6  20903387.273 9 109847969.303 6  85595874.907 9  20903386.02749
  23374742.930 5  23374756.555 8 122835115.394 5  95715693.189 8  23374756.19148
  21109874.930 6                 110933135.460 6  86441429.62548  21109882.73048
  22512599.242 5  22512614.934 9 118304492.781 5  92185371.667 9  22512614.27747
  19766421.344 7  19766430.996 9 103873234.815 7  80940205.780 9  19766430.64849
  23693238.883 4  23693261.121 8 124508818.833 4  97019879.747 8  23693259.90246
  23116380.586 5  23116401.180 8 121477381.935 5  94657777.569 8  23116399.99647
 23  3 10  2 58 35.0000000  0  8G04G08G09G16G26G27G28G31            
  21182277.148 6  21182286.238 9 111313610.792 6  86737913.748 9  21182285.61748
  20902707.320 6  20902721.418 9 109844468.258 6  85593146.824 9  20902720.05549
  23374064.773 5  23374078.793 8 122831554.320 5  95712918.324 8  23374078.48848
  21109837.258 6                 110932936.752 6  86441274.77848  21109844.68448
  22512698.977 5  22512714.254 9 118305014.483 5  92185778.182 9  22512713.46147
  19766156.758 7  19766166.551 9 103871842.902 7  80939121.167 9  19766165.94949
  23693463.688 4  23693484.715 8 124509997.147 4  97020797.922 8  23693483.69146
  23116527.031 5  23116547.797 8 121478152.023 5  94658377.633 8  23116546.72747
 23  3 10  2 58 36.0000000  0  8G04G08G09G16G26G27G28G31            
  21181908.180 6  21181917.582 9 111311674.645 6  86736405.055 9  21181917.19947
  20902041.188 6  20902055.102 9 109840967.525 6  85590418.985 9  20902053.92649
  23373387.539 5  23373401.297 9 122827993.512 5  95710143.671 9  23373400.69148
  21109798.945 6                 110932737.938 6  86441119.85748  21109806.84848
  22512797.938 5  22512813.551 9 118305535.936 5  92186184.495 9  22512812.70347
  19765892.227 7  19765901.543 9 103870451.418 7  80938036.898 9  19765900.94549
  23693687.984 4  23693709.121 9 124511175.463 4  97021716.100 9  23693708.38346
  23116673.836 5  23116694.328 8 121478922.144 5  94658977.724 8  23116693.41047
 23  3 10  2 58 37.0000000  0  8G04G08G09G16G26G27G28G31            
  21181540.141 6  21181549.641 9 111309739.293 6  86734896.979 9  21181549.01648
  20901375.297 6  20901389.504 9 109837467.479 6  85587691.677 9  20901388.21549
  23372709.781 5  23372724.078 9 122824433.320 5  95707369.494 9  23372723.46948
  21109761.328 6                 110932539.416 6  86440965.15948  21109768.94148
  22512897.773 5  22512912.684 9 118306057.536 5  92186590.930 9  22512911.88347
  19765627.320 7  19765636.570 9 103869060.768 7  80936953.272 9  19765636.14149
  23693911.922 4  23693934.066 9 124512354.277 4  97022634.662 9  23693932.97746
  23116820.008 5  23116840.801 8 121479692.694 5  94659578.147 8  23116839.93047
 23  3 10  2 58 38.0000000  0  8G04G08G09G16G26G27G28G31            
  21181171.828 6  21181181.629 9 111307804.673 6  86733389.474 9  21181180.99648
  20900709.063 6  20900723.051 9 109833968.014 6  85584964.829 9  20900722.03949
  23372033.016 5  23372046.977 9 122820873.693 5  95704595.755 9  23372046.09448
  21109723.594 6                 110932341.131 6  86440810.64748  21109730.93048
  22512996.961 5  22513012.215 9 118306579.229 5  92186997.438 9  22513011.33247
  19765363.070 7  19765372.430 9 103867670.899 7  80935870.249 9  19765371.87549
  23694136.234 4  23694158.160 9 124513533.438 4  97023553.488 9  23694157.13346
  23116966.938 5  23116987.914 8 121480463.646 5  94660178.887 8  23116986.87947
 23  3 10  2 58 39.0000000  0  8G04G08G09G16G26G27G28G31            
  21180803.695 6  21180813.371 9 111305870.611 6  86731882.411 9  21180812.94547
  20900043.703 6  20900056.629 9 109830469.033 6  85582238.354 9  20900055.60549
  23371355.156 5  23371369.449 9 122817314.452 5  95701822.323 9  23371368.43048
  21109686.078 6                 110932142.893 6  86440656.17448  21109693.87148
  22513095.953 5  22513111.367 9 118307100.745 5  92187403.800 9  22513110.68447
  19765098.586 7  19765107.758 9 103866281.611 7  80934787.686 9  19765107.09049
  23694360.664 4  23694382.848 9 124514712.759 4  97024472.445 9  23694381.85946
  23117114.023 5  23117134.145 8 121481234.746 5  94660779.741 8  23117133.37947
 23  3 10  2 58 40.0000000  0  8G04G08G09G16G26G27G28G31            
  21180435.703 6  21180445.172 9 111303936.848 6  86730375.574 9  21180444.84848
  20899377.508 6  20899391.012 9 109826970.216 6  85579512.007 9  20899389.84449
  23370677.844 5  23370692.590 9 122813755.318 5  95699048.973 9  23370691.47348
  21109648.156 6                 110931944.437 6  86440501.53448  21109655.86348
  22513195.164 5  22513210.426 9 118307622.003 5  92187809.967 9  22513209.66047
  19764833.914 7  19764843.441 9 103864892.674 7  80933705.392 9  19764842.85249
  23694585.891 4  23694606.867 9 124515892.094 4  97025391.417 9  23694605.96946
  23117260.320 5  23117280.688 8 121482005.804 5  94661380.565 8  23117279.95747
 23  3 10  2 58 41.0000000  0  8G04G08G09G16G26G27G28G31            
  21180068.430 6  21180077.781 9 111302003.681 6  86728869.207 9  21180077.46948
  20898711.859 6  20898726.012 9 109823471.883 6  85576786.031 9  20898724.84049
  23370000.875 5  23370015.398 9 122810196.651 5  95696275.980 9  23370014.41448
  21109610.469 6                 110931746.071 6  86440346.96448  21109618.06648
  22513294.234 5  22513309.652 9 118308143.150 5  92188216.047 9  22513308.98847
  19764569.766 7  19764579.656 9 103863504.362 7  80932623.591 9  19764578.96149
  23694809.969 4  23694831.258 9 124517071.635 4  97026310.545 9  23694830.20746
  23117407.055 5  23117427.711 8 121482777.083 5  94661981.558 8  23117426.75847
 23  3 10  2 58 42.0000000  0  8G04G08G09G16G26G27G28G31            
  21179699.914 6  21179709.371 9 111300071.004 6  86727363.219 9  21179709.24647
  20898046.461 6  20898060.051 9 109819973.968 6  85574060.391 9  20898058.91449
  23369323.336 5  23369337.715 8 122806638.290 5  95693503.228 8  23369337.11748
  21109573.094 6                 110931547.690 6  86440192.37847  21109580.29347
  22513393.922 5  22513408.875 9 118308664.162 5  92188622.022 9  22513408.23047
  19764305.602 7  19764315.172 9 103862116.602 7  80931542.213 9  19764314.65649
  23695034.570 4  23695055.496 8 124518251.328 4  97027229.789 8  23695054.52746
  23117553.969 5  23117574.852 8 121483548.482 5  94662582.641 8  23117573.59047
 23  3 10  2 58 43.0000000  0  8G04G08G09G16G26G27G28G31            
  21179332.805 6  21179342.152 9 111298139.215 6  86725857.931 9  21179342.12547
  20897380.273 6  20897394.766 9 109816476.812 6  85571335.332 9  20897393.33249
  23368646.492 5  23368660.957 8 122803080.680 5  95690731.067 8  23368660.00048
  21109535.828 6                 110931349.703 6  86440038.10447  21109542.82847
  22513492.703 5  22513508.250 8 118309185.363 5  92189028.149 8  22513507.63347
  19764041.891 7  19764051.820 9 103860729.746 7  80930461.546 9  19764051.00049
  23695259.172 4  23695280.313 8 124519431.506 4  97028149.409 8  23695279.39546
  23117700.727 5  23117721.184 8 121484320.413 5  94663184.140 8  23117720.09447
 23  3 10  2 58 44.0000000  0  8G04G08G09G16G26G27G28G31            
  21178965.156 6  21178974.238 9 111296208.096 6  86724353.164 9  21178974.18047
  20896715.000 6  20896729.414 9 109812980.207 6  85568610.705 9  20896727.99649
  23367969.500 5  23367983.875 8 122799523.562 5  95687959.286 8  23367982.75448
  21109497.625 6                 110931151.888 6  86439883.96448  21109505.16848
  22513591.492 5  22513607.223 8 118309706.597 5  92189434.300 8  22513606.53147
  19763778.234 7  19763787.941 9 103859343.618 7  80929381.449 9  19763787.14549
  23695483.938 4  23695505.004 8 124520612.093 4  97029069.350 8  23695504.04346
  23117847.805 5  23117868.410 8 121485092.624 5  94663785.851 8  23117867.26647
 23  3 10  2 58 45.0000000  0  8G04G08G09G16G26G27G28G31            
  21178598.109 6  21178607.207 9 111294277.588 6  86722848.874 9  21178607.25448
  20896049.586 6  20896063.730 9 109809484.072 6  85565886.450 9  20896062.57049
  23367293.258 5  23367307.234 8 122795966.865 5  95685187.837 8  23367306.18048
  21109459.898 6                 110930954.148 6  86439729.87048  21109467.60548
  22513691.094 5  22513706.074 9 118310227.777 5  92189840.406 9  22513705.52747
  19763514.383 7  19763524.336 9 103857958.115 7  80928301.830 9  19763523.28149
  23695708.719 4  23695730.301 8 124521792.833 4  97029989.409 8  23695729.02346
  23117995.250 5  23118015.922 8 121485865.124 5  94664387.797 8  23118014.63347
 23  3 10  2 58 46.0000000  0  8G04G08G09G16G26G27G28G31            
  21178230.773 6  21178239.465 9 111292347.966 6  86721345.271 9  21178239.75848
  20895384.633 6  20895398.422 9 109805988.757 6  85563162.829 9  20895397.34049
  23366616.148 5  23366630.352 8 122792410.919 5  95682416.969 8  23366629.44148
  21109422.156 6                 110930756.794 6  86439576.08048  21109430.03948
  22513790.445 5  22513805.082 9 118310749.226 5  92190246.723 9  22513804.35547
  19763251.078 7  19763260.855 9 103856573.575 7  80927222.966 9  19763260.00049
  23695933.750 4  23695954.648 8 124522974.162 4  97030909.927 8  23695953.40246
  23118142.367 5  23118162.824 8 121486638.093 5  94664990.109 8  23118161.43847
 23  3 10  2 58 47.0000000  0  8G04G08G09G16G26G27G28G31            
  21177863.813 6  21177872.301 9 111290419.104 6  86719842.262 9  21177872.42248
  20894719.813 6  20894733.320 9 109802494.090 6  85560439.715 9  20894732.15649
  23365939.852 5  23365953.996 9 122788855.533 5  95679646.532 9  23365953.02348
  21109384.836 6                 110930559.709 6  86439422.50048  21109392.27048
  22513889.383 5  22513904.777 9 118311270.752 5  92190653.101 9  22513903.96947
  19762987.469 7  19762997.641 9 103855189.802 7  80926144.702 9  19762996.69949
  23696158.633 4  23696179.504 9 124524155.893 4  97031830.761 9  23696178.30546
  23118289.141 5  23118310.180 9 121487411.515 5  94665592.779 9  23118308.82847
 23  3 10  2 58 48.0000000  0  8G04G08G09G16G26G27G28G31            
  21177497.125 6  21177505.551 9 111288490.861 6  86718339.738 9  21177505.91448
  20894055.039 6  20894068.488 9 109798999.943 6  85557717.003 9  20894067.21149
  23365263.391 5  23365277.301 9 122785300.633 5  95676876.483 9  23365276.44948
  21109347.594 6                 110930362.729 6  86439269.00948  21109354.87948
  22513988.891 5  22514003.836 9 118311792.229 5  92191059.444 9  22514003.09047
  19762724.672 7  19762734.594 9 103853806.699 7  80925066.961 9  19762733.55549
  23696383.219 4  23696404.328 9 124525337.840 4  97032751.759 9  23696403.34446
  23118436.266 5  23118457.258 8 121488185.156 5  94666195.613 8  23118455.75047
 23  3 10  2 58 49.0000000  0  8G04G08G09G16G26G27G28G31            
  21177129.820 6  21177138.266 9 111286563.297 6  86716837.743 9  21177138.53148
  20893390.117 6  20893403.395 9 109795506.356 6  85554994.729 9  20893402.23049
  23364587.211 5  23364600.863 9 122781746.258 5  95674106.838 9  23364599.99648
  21109310.250 6                 110930165.914 6  86439115.64648  21109317.58648
  22514088.133 5  22514103.309 9 118312313.747 5  92191465.814 9  22514102.51647
  19762461.453 7  19762471.477 9 103852424.318 7  80923989.779 9  19762470.57849
  23696607.820 4  23696629.273 9 124526520.167 4  97033673.060 9  23696628.22746
  23118583.469 5  23118604.527 9 121488959.123 5  94666798.705 9  23118602.96947
 23  3 10  2 58 50.0000000  0  8G04G08G09G16G26G27G28G31            
  21176763.820 6  21176772.527 9 111284636.580 6  86715336.404 9  21176772.56348
  20892725.250 6  20892739.203 9 109792013.515 6  85552273.038 9  20892737.94149
  23363910.500 5  23363924.926 9 122778192.561 5  95671337.724 9  23363923.99648
  21109272.898 6                 110929969.483 6  86438962.57848  21109280.21148
  22514186.992 5  22514202.711 9 118312835.463 5  92191872.337 9  22514201.82447
  19762198.625 7  19762208.367 9 103851042.833 7  80922913.298 9  19762207.57049
  23696833.383 4  23696854.746 9 124527702.941 4  97034594.702 9  23696853.85546
  23118730.859 5  23118751.883 9 121489733.577 5  94667402.175 9  23118750.31347
 23  3 10  2 58 51.0000000  0  8G04G08G09G16G26G27G28G31            
  21176396.852 6  21176406.059 9 111282710.357 6  86713835.453 9  21176406.01648
  20892060.742 6  20892074.395 9 109788521.053 6  85549551.638 9  20892073.09849
  23363234.164 5  23363249.055 9 122774639.172 5  95668568.845 9  23363248.06348
  21109235.344 6                 110929772.987 6  86438809.45948  21109242.81348
  22514286.219 5  22514301.570 9 118313357.029 5  92192278.742 9  22514300.54347
  19761935.813 7  19761945.254 9 103849661.876 7  80921837.225 9  19761944.30549
  23697058.391 4  23697079.621 9 124528885.928 4  97035516.513 9  23697078.88746
  23118878.773 5  23118899.105 9 121490508.155 5  94668005.740 9  23118897.75847
 23  3 10  2 58 52.0000000  0  8G04G08G09G16G26G27G28G31            
  21176030.297 6  21176039.996 9 111280784.669 6  86712334.918 9  21176039.55548
  20891395.820 6  20891409.734 9 109785029.016 6  85546830.571 9  20891408.55149
  23362558.234 5  23362572.430 9 122771086.160 5  95665800.260 9  23362571.66848
  21109197.711 6                 110929576.529 6  86438656.37148  21109205.18848
  22514385.672 5  22514401.012 9 118313878.408 5  92192685.008 9  22514400.01247
  19761672.969 7  19761682.863 9 103848281.476 7  80920761.592 9  19761682.00049
  23697283.328 4  23697304.504 9 124530069.011 4  97036438.394 9  23697303.75046
  23119026.203 5  23119046.855 9 121491282.890 5  94668609.425 9  23119045.59047
 23  3 10  2 58 53.0000000  0  8G04G08G09G16G26G27G28G31            
  21175663.938 6  21175673.539 9 111278859.602 6  86710834.869 9  21175673.12547
  20890731.539 6  20890745.621 9 109781537.493 6  85544109.908 9  20890744.47349
  23361882.125 5  23361896.684 9 122767533.606 5  95663032.037 9  23361895.87548
  21109160.766 6                 110929380.182 6  86438503.37248  21109168.07848
  22514484.852 5  22514499.773 9 118314399.801 5  92193091.279 9  22514499.03147
  19761410.484 7  19761420.391 9 103846901.748 7  80919686.479 9  19761419.40249
  23697508.563 4  23697529.699 9 124531252.407 4  97037360.521 9  23697529.05146
  23119173.813 5  23119193.836 8 121492057.881 5  94669213.310 8  23119192.87547
 23  3 10  2 58 54.0000000  0  8G04G08G09G16G26G27G28G31            
  21175297.633 6  21175307.766 9 111276935.166 6  86709335.296 9  21175307.01248
  20890067.492 6  20890081.238 9 109778046.484 6  85541389.641 9  20890080.01249
  23361206.367 5  23361220.313 8 122763981.485 5  95660264.152 8  23361219.87148
  21109123.242 6                 110929183.999 6  86438350.50048  21109130.32448
  22514583.898 5  22514598.910 9 118314921.153 5  92193497.516 9  22514598.14147
  19761148.258 7  19761157.613 9 103845522.667 7  80918611.867 9  19761156.89149
  23697733.484 5  23697754.906 8 124532436.079 5  97038282.857 8  23697754.21546
  23119321.031 5  23119341.484 8 121492833.160 5  94669817.416 8  23119340.74247
 23  3 10  2 58 55.0000000  0  8G04G08G09G16G26G27G28G31            
  21174931.320 6  21174941.219 9 111275010.983 6  86707835.931 9  21174940.65247
  20889403.141 6  20889417.074 9 109774555.625 6  85538669.484 9  20889416.07449
  23360530.250 5  23360544.387 8 122760429.501 5  95657496.376 8  23360543.79348
  21109085.898 6                 110928987.534 6  86438197.41247  21109093.01647
  22514683.734 5  22514698.742 8 118315442.136 5  92193903.469 8  22514697.83647
  19760885.516 7  19760895.191 9 103844143.922 7  80917537.523 9  19760894.66449
  23697959.352 5  23697980.535 8 124533619.603 5  97039205.084 8  23697979.55946
  23119468.781 5  23119489.051 8 121493608.318 5  94670421.431 8  23119487.75447
 23  3 10  2 58 56.0000000  0  8G04G08G09G16G26G27G28G31            
  21174565.625 6  21174574.969 9 111273087.182 6  86706336.857 9  21174574.26647
  20888739.188 6  20888752.508 9 109771065.032 6  85535949.543 9  20888751.54349
  23359854.922 5  23359868.848 8 122756877.744 5  95654728.774 8  23359867.95348
  21109048.117 6                 110928790.984 6  86438044.25548  21109055.46548
  22514782.117 5  22514797.141 8 118315962.860 5  92194309.216 8  22514796.72347
  19760623.797 7  19760633.191 9 103842765.581 7  80916463.486 9  19760632.58249
  23698184.453 5  23698205.633 8 124534803.192 5  97040127.367 8  23698204.75046
  23119615.594 5  23119636.211 8 121494383.494 5  94671025.459 8  23119635.33247
 23  3 10  2 58 57.0000000  0  8G04G08G09G16G26G27G28G31            
  21174199.570 6  21174209.547 9 111271164.146 6  86704838.388 9  21174209.05147
  20888074.805 6  20888088.793 9 109767575.104 6  85533230.117 9  20888087.65249
  23359178.148 5  23359192.852 8 122753326.536 5  95651961.598 8  23359191.98448
  21109010.813 6                 110928594.682 6  86437891.28548  21109018.50048
  22514881.680 5  22514896.184 8 118316483.616 5  92194714.988 8  22514895.87947
  19760361.609 7  19760370.684 9 103841388.050 7  80915390.087 9  19760370.15249
  23698409.523 4  23698431.277 8 124535987.158 4  97041049.953 8  23698430.23846
  23119763.578 5  23119783.883 8 121495159.087 5  94671629.816 8  23119783.03947
 23  3 10  2 58 58.0000000  0  8G04G08G09G16G26G27G28G31            
  21173833.898 6  21173843.914 9 111269242.013 6  86703340.624 9  21173843.28948
  20887410.984 6  20887425.043 9 109764085.936 6  85530511.286 9  20887423.76649
  23358502.813 5  23358517.520 9 122749776.100 5  95649195.025 9  23358516.70348
  21108973.773 6                 110928398.737 6  86437738.59948  21108981.62148
  22514980.391 5  22514995.391 9 118317004.664 5  92195120.983 9  22514995.02047
  19760099.453 7  19760108.844 9 103840011.431 7  80914317.392 9  19760108.28149
  23698634.344 4  23698656.348 9 124537171.676 4  97041972.963 9  23698655.65246
  23119910.758 5  23119931.688 8 121495935.171 5  94672234.552 8  23119930.45747
 23  3 10  2 58 59.0000000  0  8G04G08G09G16G26G27G28G31            
  21173468.000 6  21173477.820 9 111267320.608 6  86701843.419 9  21173477.31348
  20886746.836 6  20886760.832 9 109760597.393 6  85527792.940 9  20886759.77749
  23357827.773 5  23357841.527 9 122746226.235 5  95646428.896 9  23357840.98048
  21108936.445 6                 110928203.060 6  86437586.12148  21108944.13748
  22515079.359 5  22515094.770 9 118317525.811 5  92195527.057 9  22515094.35547
  19759837.789 7  19759847.297 9 103838635.614 7  80913245.327 9  19759846.59049
  23698859.828 4  23698881.656 9 124538356.596 4  97042896.278 9  23698880.95346
  23120058.922 5  23120079.730 9 121496711.670 5  94672839.613 9  23120078.39847
 23  3 10  2 59  0.0000000  0  8G04G08G09G16G26G27G28G31            
  21173102.672 6  21173112.609 9 111265399.840 6  86700346.708 9  21173112.24648
  20886083.188 6  20886097.027 9 109757109.349 6  85525074.981 9  20886096.12149
  23357151.953 5  23357166.523 9 122742676.811 5  95643663.116 9  23357165.96148
  21108899.172 6                 110928007.467 6  86437433.70448  21108906.80148
  22515178.836 5  22515194.176 9 118318046.862 5  92195933.064 9  22515193.59447
  19759576.063 7  19759585.461 9 103837260.451 7  80912173.769 9  19759584.85549
  23699085.531 4  23699108.023 9 124539541.747 4  97043819.765 9  23699107.52746
  23120207.328 5  23120227.578 9 121497488.413 5  94673444.867 9  23120226.16047
 23  3 10  2 59  1.0000000  0  8G04G08G09G16G26G27G28G31            
  21172737.023 6  21172747.148 9 111263479.703 6  86698850.487 9  21172746.78148
  20885419.953 6  20885433.676 9 109753621.827 6  85522357.440 9  20885432.74649
  23356477.031 5  23356490.902 9 122739127.853 5  95640897.694 9  23356490.48848
  21108861.906 6                 110927812.014 6  86437281.39648  21108869.59848
  22515278.008 5  22515293.023 9 118318567.934 5  92196339.084 9  22515292.68847
  19759314.391 7  19759323.598 9 103835885.961 7  80911102.740 9  19759323.23049
  23699311.008 4  23699333.070 9 124540727.192 4  97044743.486 9  23699332.74246
  23120354.836 5  23120375.602 9 121498265.394 5  94674050.301 9  23120374.16447
 23  3 10  2 59  2.0000000  0  8G04G08G09G16G26G27G28G31            
  21172371.242 6  21172381.465 9 111261559.999 6  86697354.609 9  21172381.21948
  20884756.484 6  20884769.930 9 109750134.633 6  85519640.146 9  20884769.13749
  23355801.477 5  23355815.473 9 122735579.195 5  95638132.503 9  23355815.33248
  21108824.703 6                 110927616.501 6  86437129.05448  21108832.19548
  22515377.047 5  22515392.023 9 118319088.785 5  92196744.929 9  22515391.94947
  19759052.766 7  19759062.105 9 103834511.949 7  80910032.078 9  19759061.63749
  23699536.563 4  23699558.789 9 124541912.704 4  97045667.256 9  23699558.29346
  23120502.648 5  23120522.809 8 121499042.483 5  94674655.830 8  23120521.55147
 23  3 10  2 59  3.0000000  0  8G04G08G09G16G26G27G28G31            
  21172006.695 6  21172016.840 9 111259640.993 6  86695859.275 9  21172016.57448
  20884092.688 6  20884106.520 9 109746648.042 6  85516923.326 9  20884105.59049
  23355126.469 5  23355140.375 9 122732031.071 5  95635367.727 9  23355139.77748
  21108787.477 6                 110927421.188 6  86436976.85748  21108794.99648
  22515475.914 5  22515491.465 9 118319609.696 5  92197150.817 9  22515491.02747
  19758791.930 7  19758801.164 9 103833138.696 7  80908962.005 9  19758800.74249
  23699762.578 4  23699784.578 9 124543098.593 4  97046591.324 9  23699784.00046
  23120650.406 5  23120670.980 8 121499819.939 5  94675261.636 8  23120669.62147
 23  3 10  2 59  4.0000000  0  8G04G08G09G16G26G27G28G31            
  21171641.805 6  21171651.281 9 111257722.875 6  86694364.627 9  21171651.00048
  20883429.414 6  20883442.781 9 109743162.227 6  85514207.110 9  20883442.08649
  23354451.219 5  23354465.566 9 122728483.655 5  95632603.504 9  23354465.07448
  21108750.531 6                 110927226.256 6  86436824.96148  21108758.27048
  22515575.750 5  22515591.156 9 118320130.795 5  92197556.865 9  22515590.53947
  19758530.586 7  19758540.430 9 103831766.344 7  80907892.631 9  19758539.63349
  23699988.211 4  23700010.426 9 124544284.966 4  97047515.779 9  23700009.69146
  23120799.164 5  23120819.047 8 121500597.859 5  94675867.806 8  23120817.82447
 23  3 10  2 59  5.0000000  0  8G04G08G09G16G26G27G28G31            
  21171277.180 6  21171286.422 9 111255805.200 6  86692870.330 9  21171286.17648
  20882766.367 6  20882779.883 9 109739676.716 6  85511491.134 9  20882779.12549
  23353776.461 5  23353790.668 9 122724936.517 5  95629839.508 9  23353790.09048
  21108713.344 6                 110927031.252 6  86436673.00747  21108720.96947
  22515674.570 5  22515689.809 9 118320651.692 5  92197962.746 9  22515689.31347
  19758269.219 7  19758279.133 9 103830394.474 7  80906823.641 9  19758278.22749
  23700213.281 4  23700236.301 9 124545471.436 4  97048440.310 9  23700235.77046
  23120946.648 5  23120966.777 8 121501375.874 5  94676474.043 8  23120965.55947
 23  3 10  2 59  6.0000000  0  8G04G08G09G16G26G27G28G31            
  21170912.094 6  21170921.523 9 111253887.924 6  86691376.345 9  21170921.64547
  20882102.891 6  20882116.465 9 109736191.526 6  85508775.403 9  20882115.67249
  23353100.945 5  23353115.234 9 122721389.615 5  95627075.695 9  23353114.85548
  21108676.469 6                 110926836.111 6  86436520.94548  21108683.89148
  22515774.070 5  22515788.684 9 118321172.335 5  92198368.429 9  22515788.32847
  19758008.398 7  19758017.547 9 103829023.031 7  80905754.976 9  19758016.99249
  23700439.070 4  23700461.625 9 124546657.949 4  97049364.884 9  23700461.29346
  23121094.953 5  23121115.039 8 121502153.952 5  94677080.330 8  23121113.75847
 23  3 10  2 59  7.0000000  0  8G04G08G09G16G26G27G28G31            
  21170547.406 6  21170556.766 9 111251971.236 6  86689882.821 9  21170556.81347
  20881440.172 6  20881453.563 9 109732706.857 6  85506060.074 9  20881452.55549
  23352426.922 5  23352440.789 8 122717843.171 5  95624312.236 8  23352440.39548
  21108639.266 6                 110926641.113 6  86436368.98947  21108646.58247
  22515872.977 5  22515887.703 8 118321692.913 5  92198774.064 8  22515887.27047
  19757747.477 7  19757757.352 9 103827652.252 7  80904686.838 9  19757756.59849
  23700665.063 4  23700687.535 8 124547844.702 4  97050289.634 8  23700687.22346
  23121243.211 5  23121263.313 8 121502932.252 5  94677686.791 8  23121261.86747
 23  3 10  2 59  8.0000000  0  8G04G08G09G16G26G27G28G31            
  21170183.367 6  21170192.070 9 111250055.437 6  86688389.990 9  21170192.24247
  20880776.891 6  20880789.973 9 109729222.896 6  85503345.305 9  20880789.23449
  23351752.070 6  23351766.004 8 122714297.401 6  95621549.304 8  23351765.83248
  21108602.328 6                 110926446.419 6  86436217.27147  21108609.59447
  22515972.234 5  22515987.070 8 118322213.722 5  92199179.876 8  22515986.53547
  19757486.844 7  19757496.332 9 103826282.359 7  80903619.387 9  19757495.73849
  23700891.063 4  23700913.043 8 124549031.973 4  97051214.789 8  23700912.33646
  23121391.492 5  23121411.754 8 121503711.055 5  94678293.645 8  23121410.16447
 23  3 10  2 59  9.0000000  0  8G04G08G09G16G26G27G28G31            
  21169818.648 6  21169827.305 9 111248140.238 6  86686897.629 9  21169827.53147
  20880113.859 6  20880127.582 9 109725739.442 6  85500630.922 9  20880126.61749
  23351078.039 5  23351091.020 9 122710752.067 5  95618786.705 9  23351090.69948
  21108565.211 6                 110926251.897 6  86436065.69448  21108572.58248
  22516071.109 5  22516086.059 8 118322734.490 5  92199585.660 8  22516085.56347
  19757226.234 7  19757235.637 9 103824913.116 7  80902552.443 9  19757235.12149
  23701117.523 4  23701139.648 8 124550219.500 4  97052140.135 8  23701138.80946
  23121539.828 5  23121559.918 8 121504490.091 5  94678900.691 8  23121558.44947
 23  3 10  2 59 10.0000000  0  8G04G08G09G16G26G27G28G31            
  21169454.328 6  21169462.934 9 111246225.824 6  86685405.872 9  21169463.27048
  20879451.430 6  20879464.816 9 109722256.674 6  85497917.076 9  20879464.08249
  23350403.000 5  23350416.727 9 122707207.396 5  95616024.621 9  23350416.21948
  21108528.359 6                 110926057.600 6  86435914.29748  21108535.37548
  22516170.328 5  22516185.301 8 118323255.363 5  92199991.524 8  22516184.79347
  19756965.844 7  19756975.508 9 103823544.704 7  80901486.151 9  19756974.91849
  23701342.188 3  23701365.363 9 124551407.449 3  97053065.809 9  23701364.94546
  23121687.773 5  23121707.738 8 121505269.564 5  94679508.071 8  23121706.63747
 23  3 10  2 59 11.0000000  0  8G04G08G09G16G26G27G28G31            
  21169090.367 6  21169098.809 9 111244312.072 6  86683914.636 9  21169099.14848
  20878788.703 6  20878802.262 9 109718774.472 6  85495203.678 9  20878801.07849
  23349728.406 5  23349743.293 9 122703663.194 5  95613262.905 9  23349742.27048
  21108491.203 6                 110925863.495 6  86435763.04947  21108498.57447
  22516269.422 5  22516284.773 9 118323776.265 5  92200397.413 9  22516284.06347
  19756705.578 7  19756715.188 9 103822177.009 7  80900420.413 9  19756714.45349
  23701568.938 3  23701591.785 9 124552595.699 3  97053991.725 9  23701591.02046
  23121835.406 5  23121856.891 8 121506049.345 5  94680115.694 8  23121855.38347
 23  3 10  2 59 12.0000000  0  8G04G08G09G16G26G27G28G31            
  21168726.500 6  21168734.457 9 111242398.799 6  86682423.772 9  21168734.80548
  20878125.922 6  20878139.340 9 109715292.612 6  85492490.547 9  20878138.24249
  23349054.055 5  23349068.504 9 122700119.321 5  95610501.444 9  23349067.50048
  21108454.781 6                 110925669.346 6  86435611.76348  21108461.55548
  22516368.078 5  22516384.008 9 118324296.956 5  92200803.141 9  22516383.27047
  19756445.719 7  19756455.355 9 103820809.813 7  80899355.070 9  19756454.28949
  23701796.023 3  23701817.648 9 124553784.068 3  97054917.733 9  23701816.80546
  23121984.148 5  23122004.512 8 121506829.214 5  94680723.387 8  23122003.04347
 23  3 10  2 59 13.0000000  0  8G04G08G09G16G26G27G28G31            
  21168361.961 6  21168370.832 9 111240486.112 6  86680933.364 9  21168371.00848
  20877463.539 6  20877477.250 9 109711811.192 6  85489777.752 9  20877475.84449
  23348379.805 5  23348393.832 9 122696575.847 5  95607740.303 9  23348393.08248
  21108417.320 6                 110925475.256 6  86435460.52248  21108424.77748
  22516467.383 5  22516482.805 9 118324817.634 5  92201208.851 9  22516482.06347
  19756185.492 7  19756194.738 9 103819443.219 7  80898290.188 9  19756194.05949
  23702020.938 3  23702043.953 9 124554972.636 3  97055843.888 9  23702043.61346
  23122132.750 5  23122153.480 8 121507609.296 5  94681331.240 8  23122152.30547
 23  3 10  2 59 14.0000000  0  8G04G08G09G16G26G27G28G31            
  21167998.008 6  21168007.242 9 111238573.933 6  86679443.356 9  21168007.25447
  20876801.234 6  20876814.875 9 109708330.212 6  85487065.307 9  20876813.69549
  23347705.469 5  23347719.965 9 122693032.759 5  95604979.455 9  23347719.38348
  21108380.500 6                 110925281.189 6  86435309.28948  21108387.92248
  22516566.945 5  22516581.348 9 118325338.079 5  92201614.392 9  22516580.71547
  19755925.445 7  19755934.918 9 103818077.215 7  80897225.775 9  19755934.33249
  23702247.398 3  23702270.000 9 124556161.393 3  97056770.183 9  23702269.68446
  23122281.227 5  23122302.230 8 121508389.549 5  94681939.225 8  23122300.87947
 23  3 10  2 59 15.0000000  0  8G04G08G09G16G26G27G28G31            
  21167634.188 6  21167643.191 9 111236662.432 6  86677953.879 9  21167643.43048
  20876138.789 6  20876152.043 9 109704849.805 6  85484353.301 9  20876150.87549
  23347031.422 5  23347045.395 9 122689490.166 5  95602218.995 9  23347044.84448
  21108343.938 6                 110925087.286 6  86435158.18948  21108350.97348
  22516665.578 5  22516680.641 9 118325858.612 5  92202019.992 9  22516680.16847
  19755665.695 7  19755675.293 9 103816711.889 7  80896161.884 9  19755674.55149
  23702473.453 3  23702495.980 9 124557350.470 3  97057696.731 9  23702495.62146
  23122429.203 5  23122450.492 8 121509170.125 5  94682547.466 8  23122449.16447
 23  3 10  2 59 16.0000000  0  8G04G08G09G16G26G27G28G31            
  21167270.570 6  21167279.844 9 111234751.556 6  86676464.886 9  21167279.61348
  20875476.578 6  20875490.418 9 109701369.920 6  85481641.705 9  20875489.05149
  23346357.078 5  23346371.418 9 122685948.021 5  95599458.886 9  23346370.69948
  21108306.719 6                 110924893.524 6  86435007.20248  21108313.88348
  22516765.234 5  22516779.637 9 118326379.108 5  92202425.573 9  22516779.15647
  19755406.430 7  19755415.484 9 103815347.262 7  80895098.543 9  19755414.84049
  23702700.102 3  23702722.344 9 124558539.793 3  97058623.485 9  23702722.03946
  23122577.820 5  23122598.895 8 121509950.909 5  94683155.867 8  23122597.66047
 23  3 10  2 59 17.0000000  0  8G04G08G09G16G26G27G28G31            
  21166906.797 6  21166916.363 9 111232841.455 6  86674976.496 9  21166916.31348
  20874814.453 6  20874827.914 9 109697890.690 6  85478930.623 9  20874826.55949
  23345682.797 5  23345697.605 9 122682406.494 5  95596699.260 9  23345696.76248
  21108269.930 6                 110924699.993 6  86434856.39348  21108277.18448
  22516864.109 5  22516879.012 9 118326899.681 5  92202831.206 9  22516878.53547
  19755146.453 7  19755155.746 9 103813983.419 7  80894035.809 9  19755154.99249
  23702925.992 3  23702948.699 9 124559729.504 3  97059550.541 9  23702948.36346
  23122726.922 5  23122747.758 8 121510732.126 5  94683764.605 8  23122746.57447
 23  3 10  2 59 18.0000000  0  8G04G08G09G16G26G27G28G31            
  21166544.086 6  21166553.082 9 111230932.121 6  86673488.701 9  21166552.77747
  20874152.617 6  20874166.191 9 109694412.124 6  85476220.048 9  20874164.81649
  23345009.242 5  23345023.656 9 122678865.590 5  95593940.115 9  23345022.93848
  21108232.844 6                 110924506.730 6  86434705.79347  21108240.07047
  22516963.188 5  22516978.422 8 118327420.391 5  92203236.945 8  22516977.70747
  19754887.031 7  19754896.609 9 103812620.389 7  80892973.708 9  19754895.51249
  23703153.023 2  23703175.125 9 124560919.677 2  97060477.970 9  23703174.73846
  23122875.594 5  23122896.281 8 121511513.762 5  94684373.664 8  23122895.14847
 23  3 10  2 59 19.0000000  0  8G04G08G09G16G26G27G28G31            
  21166180.852 6  21166190.121 9 111229023.414 6  86672001.393 9  21166189.92647
  20873490.641 6  20873504.246 9 109690934.116 6  85473509.920 9  20873502.80549
  23344335.695 5  23344350.387 8 122675325.134 5  95591181.314 8  23344349.50848
  21108196.484 6                 110924313.616 6  86434555.31847  21108203.81347
  22517062.258 5  22517077.359 8 118327941.078 5  92203642.671 8  22517076.41847
  19754627.945 7  19754637.273 9 103811258.029 7  80891912.127 9  19754636.48849
  23703380.656 2  23703402.191 8 124562110.095 2  97061405.584 8  23703401.65646
  23123024.422 5  23123045.008 8 121512295.658 5  94684982.927 8  23123043.92647
 23  3 10  2 59 20.0000000  0  8G04G08G09G16G26G27G28G31            
  21165817.781 6  21165826.816 9 111227115.362 6  86670514.590 9  21165826.45347
  20872828.852 6  20872842.660 9 109687456.638 6  85470800.193 9  20872841.36749
  23343661.320 5  23343676.281 8 122671785.159 5  95588422.888 8  23343675.62148
  21108159.586 6                 110924120.601 6  86434404.91347  21108166.70347
  22517161.570 5  22517176.582 8 118328461.752 5  92204048.375 8  22517175.80947
  19754368.648 7  19754377.965 9 103809896.354 7  80890851.075 9  19754377.54749
  23703606.531 3  23703628.801 8 124563300.822 3  97062333.430 8  23703627.93846
  23123173.398 5  23123193.746 8 121513077.779 5  94685592.367 8  23123192.46947
 23  3 10  2 59 21.0000000  0  8G04G08G09G16G26G27G28G31            
  21165454.766 6  21165464.184 9 111225207.855 6  86669028.219 9  21165463.91847
  20872167.289 6  20872180.570 9 109683979.591 6  85468090.811 9  20872179.30149
  23342988.055 5  23343002.961 9 122668245.577 5  95585664.764 9  23343002.45348
  21108123.086 6                 110923927.644 6  86434254.55147  21108129.98047
  22517259.898 5  22517275.289 8 118328982.339 5  92204454.021 8  22517274.71947
  19754109.930 7  19754119.488 9 103808535.266 7  80889790.484 9  19754118.67249
  23703832.813 2  23703855.383 9 124564491.710 2  97063261.397 9  23703854.49646
  23123321.953 5  23123342.770 8 121513860.162 5  94686202.014 8  23123341.31647
 23  3 10  2 59 22.0000000  0  8G04G08G09G16G26G27G28G31            
  21165091.680 6  21165101.340 9 111223300.935 6  86667542.296 9  21165100.66848
  20871505.898 6  20871519.008 9 109680503.006 6  85465381.785 9  20871517.66449
  23342314.398 5  23342329.176 9 122664706.400 5  95582906.956 9  23342328.68048
  21108086.047 6                 110923734.745 6  86434104.24047  21108093.44147
  22517359.242 5  22517374.109 8 118329502.811 5  92204859.574 8  22517373.60247
  19753850.719 7  19753860.441 9 103807174.790 7  80888730.372 9  19753859.78949
  23704059.586 3  23704081.828 9 124565682.803 3  97064189.526 9  23704081.27346
  23123470.984 5  23123491.719 8 121514642.740 5  94686811.807 8  23123490.35547
 23  3 10  2 59 23.0000000  0  8G04G08G09G16G26G27G28G31            
  21164728.789 6  21164738.535 9 111221394.627 6  86666056.855 9  21164738.09048
  20870844.070 6  20870857.559 9 109677026.974 6  85462673.192 9  20870856.31349
  23341641.297 5  23341655.707 9 122661167.724 5  95580149.543 9  23341655.10248
  21108049.406 6                 110923541.968 6  86433954.02147  21108056.76247
  22517458.633 5  22517473.613 8 118330023.289 5  92205265.130 8  22517473.07447
  19753592.141 7  19753601.320 9 103805814.991 7  80887670.786 9  19753600.68049
  23704286.563 3  23704308.609 9 124566874.224 3  97065117.911 9  23704308.03146
  23123620.102 5  23123640.621 8 121515425.567 5  94687421.799 8  23123639.49647
 23  3 10  2 59 24.0000000  0  8G04G08G09G16G26G27G28G31            
  21164366.047 6  21164375.961 9 111219489.049 6  86664571.983 9  21164375.32447
  20870183.063 6  20870196.617 9 109673551.544 6  85459965.062 9  20870195.26249
  23340967.820 5  23340982.676 9 122657629.583 5  95577392.552 9  23340981.79348
  21108012.703 6                 110923349.457 6  86433804.01048  21108020.10948
  22517557.477 5  22517572.348 8 118330543.822 5  92205670.730 8  22517572.03547
  19753333.531 7  19753342.906 9 103804455.983 7  80886611.813 9  19753342.09449
  23704513.992 3  23704535.340 9 124568066.027 3  97066046.592 9  23704534.67246
  23123769.094 5  23123789.617 8 121516208.789 5  94688032.097 8  23123788.46147
 23  3 10  2 59 25.0000000  0  8G04G08G09G16G26G27G28G31            
  21164003.859 6  21164013.270 9 111217584.066 6  86663087.578 9  21164012.63748
  20869521.664 6  20869535.438 9 109670076.590 6  85457257.302 9  20869533.80949
  23340294.625 5  23340309.316 9 122654091.846 5  95574635.874 9  23340308.98448
  21107976.281 6                 110923156.947 6  86433654.00548  21107983.66848
  22517656.563 5  22517671.961 9 118331064.264 5  92206076.262 9  22517671.41447
  19753075.133 7  19753084.535 9 103803097.536 7  80885553.280 9  19753084.00049
  23704740.727 3  23704762.344 9 124569257.981 3  97066975.391 9  23704761.65246
  23123917.383 5  23123938.387 8 121516992.181 5  94688642.530 8  23123937.20347
 23  3 10  2 59 26.0000000  0  8G04G08G09G16G26G27G28G31            
  21163641.313 6  21163650.973 9 111215679.726 6  86661603.667 9  21163650.25048
  20868860.305 6  20868874.145 9 109666602.189 6  85454549.983 9  20868872.95349
  23339622.016 5  23339635.887 9 122650554.651 5  95571879.616 9  23339635.35948
  21107939.633 6                 110922964.639 6  86433504.15048  21107946.78148
  22517755.586 5  22517771.043 9 118331584.707 5  92206481.796 9  22517770.28947
  19752816.609 7  19752826.301 9 103801739.809 7  80884495.313 9  19752825.37549
  23704967.672 3  23704989.305 9 124570450.307 3  97067904.480 9  23704988.63746
  23124066.773 5  23124087.973 8 121517775.860 5  94689253.187 8  23124086.98447
 23  3 10  2 59 27.0000000  0  8G04G08G09G16G26G27G28G31            
  21163279.258 6  21163288.531 9 111213776.098 6  86660120.313 9  21163288.12148
  20868199.586 6  20868213.188 9 109663128.405 6  85451843.133 9  20868212.01649
  23338948.883 5  23338962.871 9 122647017.984 5  95569123.773 9  23338962.38748
  21107902.742 6                 110922772.522 6  86433354.45048  21107909.66848
  22517855.133 5  22517869.746 9 118332105.232 5  92206887.389 9  22517869.00047
  19752558.750 7  19752568.074 9 103800382.852 7  80883437.943 9  19752567.29749
  23705193.867 3  23705215.938 9 124571642.986 3  97068833.846 9  23705215.19146
  23124216.352 5  23124236.984 8 121518559.925 5  94689864.145 8  23124236.01647
 23  3 10  2 59 28.0000000  0  8G04G08G09G16G26G27G28G31            
  21162917.078 6  21162926.594 9 111211873.299 6  86658637.614 9  21162925.98048
  20867538.813 6  20867552.316 9 109659655.278 6  85449136.797 9  20867551.08249
  23338275.711 5  23338290.598 9 122643481.947 5  95566368.420 9  23338290.28548
  21107866.766 6                 110922580.689 6  86433204.96848  21107873.70748
  22517953.992 5  22517968.492 9 118332625.902 5  92207293.102 9  22517967.71947
  19752300.375 7  19752310.195 9 103799026.728 7  80882381.220 9  19752309.37149
  23705420.898 3  23705443.160 9 124572836.064 3  97069763.517 9  23705442.27746
  23124365.891 5  23124386.359 8 121519344.426 5  94690475.438 8  23124385.29347
 23  3 10  2 59 29.0000000  0  8G04G08G09G16G26G27G28G31            
  21162554.914 6  21162564.465 9 111209971.298 6  86657155.529 9  21162564.05547
  20866877.609 6  20866891.457 9 109656182.866 6  85446431.021 9  20866890.40249
  23337603.305 5  23337617.445 9 122639946.564 5  95563613.578 9  23337617.38748
  21107830.266 6                 110922389.192 6  86433055.74548  21107837.35948
  22518052.750 5  22518068.500 9 118333146.726 5  92207698.926 9  22518067.46947
  19752042.641 7  19752052.090 9 103797671.465 7  80881325.165 9  19752051.43449
  23705648.453 3  23705670.008 9 124574029.612 3  97070693.548 9  23705669.30946
  23124515.094 5  23124535.637 8 121520129.373 5  94691087.076 8  23124534.73047
