     2.11           OBSERVATION DATA    Mixed(MIXED)        RINEX VERSION / TYPE
cnvtToRINEX 3.08.0  convertToRINEX OPR  10-Mar-23 03:42 UTC PGM / RUN BY / DATE 
----------------------------------------------------------- COMMENT             
GF01                                                        MARKER NAME         
GF01                                                        MARKER NUMBER       
GNSS Observer       Trimble                                 OBSERVER / AGENCY   
5950R01396          R8s LT              5.46                REC # / TYPE / VERS 
                    TRMR8S          NONE                    ANT # / TYPE        
 -2956299.3332  5076001.1421  2476774.5968                  APPROX POSITION XYZ 
        1.7760        0.0000        0.0000                  ANTENNA: DELTA H/E/N
     1     1     0                                          WAVELENGTH FACT L1/2
     5    C1    C2    L1    L2    P2                        # / TYPES OF OBSERV 
  2023     3    10     2    57   40.0000000     GPS         TIME OF FIRST OBS   
  2023     3    10     3    28   26.0000000     GPS         TIME OF LAST OBS    
     0                                                      RCV CLOCK OFFS APPL 
    18                                                      LEAP SECONDS        
     9                                                      # OF SATELLITES     
   G04  1847  1847  1847  3694  1847                        PRN / # OF OBS      
   G08  1847  1847  1847  3694  1847                        PRN / # OF OBS      
   G09  1847  1847  1847  3694  1847                        PRN / # OF OBS      
   G16  1847     0  1847  1847  1847                        PRN / # OF OBS      
   G21    68     0    68    68    68                        PRN / # OF OBS      
   G26  1847  1847  1847  3694  1847                        PRN / # OF OBS      
   G27  1847  1847  1847  3694  1847                        PRN / # OF OBS      
   G28   850   850   850  1700   850                        PRN / # OF OBS      
   G31  1847  1847  1847  3694  1847                        PRN / # OF OBS      
CARRIER PHASE MEASUREMENTS: PHASE SHIFTS REMOVED            COMMENT             
                                                            END OF HEADER       
 23  3 10  2 57 40.0000000  0  8G04G08G09G16G26G27G28G31            
  21265426.016 6  21265435.934 9 111750566.982 6  87078401.894 9  21265435.64147
  21002346.781 6  21002360.238 9 110368075.091 6  86001281.953 9  21002359.51249
  23474096.836 3  23474110.730 8 123357202.145 3  96122560.547 8  23474110.26647
  21174796.914 6                 111274305.990 6  86707280.49748  21174804.28948
  22570267.359 4  22570283.539 9 118607569.100 4  92421311.359 9  22570283.37147
  19843833.398 7  19843843.570 9 104280046.158 7  81257189.111 9  19843843.32449
  23744419.047 2  23744440.879 8 124777760.441 2  97229228.274 8  23744441.03146
  23171733.719 5  23171754.195 8 121768275.684 5  94884200.532 8  23171753.88747
 23  3 10  2 57 41.0000000  0  8G04G08G09G16G26G27G28G31            
  21265356.297 6  21265366.125 9 111750198.510 6  87078114.769 9  21265365.51248
  21001979.844 6  21001993.547 9 110366148.048 6  85999780.361 9  21001992.87149
  23473719.344 3  23473733.246 8 123355218.136 3  96121014.563 8  23473732.73447
  21175062.945 6                 111275702.591 6  86708368.74848  21175070.18448
  22570672.023 4  22570687.926 9 118609694.344 4  92422967.384 9  22570687.80547
  19843866.430 7  19843876.566 9 104280220.001 7  81257324.569 9  19843876.48449
  23744945.484 3  23744967.109 8 124780525.949 3  97231383.223 8  23744967.09445
  23172183.000 5  23172202.727 8 121770633.466 5  94886037.765 8  23172202.43047
 23  3 10  2 57 42.0000000  0  8G04G08G09G16G26G27G28G31            
  21265285.961 6  21265296.176 9 111749831.007 6  87077828.402 9  21265295.56348
  21001613.492 6  21001626.945 9 110364221.832 6  85998279.425 9  21001626.25449
  23473341.195 3  23473355.820 8 123353234.909 3  96119469.172 8  23473355.35247
  21175328.844 6                 111277099.647 6  86709457.35948  21175336.02048
  22571076.586 4  22571092.613 9 118611819.931 4  92424623.686 9  22571092.31347
  19843899.781 7  19843909.918 9 104280394.814 7  81257460.788 9  19843909.65249
  23745471.672 2  23745493.559 8 124783292.080 2  97233538.655 8  23745493.50846
  23172631.602 5  23172651.504 8 121772991.790 5  94887875.421 8  23172651.25847
 23  3 10  2 57 43.0000000  0  8G04G08G09G16G26G27G28G31            
  21265216.406 6  21265226.660 9 111749464.359 6  87077542.706 9  21265225.91847
  21001246.867 6  21001260.621 9 110362296.368 6  85996779.062 9  21001259.85249
  23472964.922 3  23472978.691 8 123351252.384 3  96117924.368 8  23472978.03147
  21175594.625 6                 111278497.090 6  86710546.27348  21175601.98048
  22571480.859 4  22571496.777 9 118613945.714 4  92426280.130 9  22571496.85547
  19843933.367 7  19843943.125 9 104280570.547 7  81257597.725 9  19843943.10549
  23745997.930 2  23746020.129 8 124786058.735 2  97235694.494 8  23746019.84446
  23173080.203 5  23173100.602 8 121775350.668 5  94889713.502 8  23173100.03947
 23  3 10  2 57 44.0000000  0  8G04G08G09G16G26G27G28G31            
  21265146.742 6  21265156.922 9 111749098.873 6  87077257.903 9  21265156.50447
  21000880.297 6  21000894.422 9 110360371.991 6  85995279.548 9  21000893.73849
  23472587.734 4  23472601.625 8 123349270.789 4  96116380.269 8  23472600.99247
  21175860.906 6                 111279895.165 6  86711635.67348  21175867.98448
  22571886.172 4  22571901.473 9 118616072.014 4  92427936.986 9  22571901.50447
  19843966.961 7  19843976.992 9 104280747.491 7  81257735.600 9  19843976.78149
  23746524.922 3  23746546.652 8 124788826.207 3  97237850.974 8  23746546.55545
  23173528.672 5  23173549.543 8 121777710.320 5  94891552.188 8  23173549.06647
 23  3 10  2 57 45.0000000  0  8G04G08G09G16G26G27G28G31            
  21265078.023 6  21265087.496 9 111748734.382 6  87076973.879 9  21265087.21948
  21000514.648 6  21000528.488 9 110358448.495 6  85993780.720 9  21000527.65249
  23472210.547 3  23472224.773 8 123347290.077 3  96114836.857 8  23472224.20347
  21176126.930 6                 111281293.771 6  86712725.48948  21176134.10548
  22572290.578 4  22572306.105 9 118618198.641 4  92429594.086 9  22572306.12547
  19844000.758 7  19844010.863 9 104280925.472 7  81257874.284 9  19844010.64849
  23747051.758 3  23747073.418 8 124791594.290 3  97240007.915 8  23747073.17245
  23173978.172 5  23173998.469 8 121780070.630 5  94893391.382 8  23173998.08247
 23  3 10  2 57 46.0000000  0  8G04G08G09G16G26G27G28G31            
  21265008.633 6  21265018.578 9 111748370.871 6  87076690.618 9  21265018.16848
  21000148.703 6  21000162.367 9 110356525.841 6  85992282.556 9  21000161.63749
  23471833.875 3  23471847.871 8 123345310.136 3  96113294.042 8  23471847.55147
  21176393.039 6                 111282692.809 6  86713815.64848  21176400.40248
  22572695.102 5  22572711.098 9 118620325.586 5  92431251.437 9  22572710.88747
  19844034.641 7  19844045.070 9 104281104.458 7  81258013.759 9  19844044.80949
  23747578.250 3  23747600.586 8 124794363.002 3  97242165.363 8  23747600.18445
  23174427.758 5  23174447.961 8 121782431.566 5  94895231.068 8  23174447.25847
 23  3 10  2 57 47.0000000  0  8G04G08G09G16G26G27G28G31            
  21264939.672 6  21264949.441 9 111748008.204 6  87076408.009 9  21264949.05548
  20999782.961 6  20999796.867 9 110354603.931 6  85990784.957 9  20999796.30549
  23471458.102 3  23471471.465 8 123343330.925 3  96111751.808 8  23471470.86747
  21176659.563 6                 111284092.213 6  86714906.09248  21176666.62548
  22573100.188 4  22573115.871 9 118622452.745 4  92432908.940 9  22573115.78947
  19844068.867 7  19844079.094 9 104281284.339 7  81258153.921 9  19844079.00849
  23748105.367 3  23748127.973 8 124797132.165 3  97244323.146 8  23748127.01646
  23174877.141 5  23174897.109 8 121784792.963 5  94897071.114 8  23174896.55147
 23  3 10  2 57 48.0000000  0  8G04G08G09G16G26G27G28G31            
  21264870.563 6  21264880.262 9 111747646.393 6  87076126.083 9  21264880.33648
  20999417.609 6  20999431.430 9 110352682.751 6  85989287.932 9  20999430.79749
  23471081.281 3  23471094.715 8 123341352.366 3  96110210.065 8  23471094.46547
  21176926.023 6                 111285491.942 6  86715996.78848  21176932.90248
  22573504.867 4  22573520.871 9 118624580.072 4  92434566.584 9  22573520.60947
  19844103.367 7  19844113.398 9 104281465.129 7  81258294.797 9  19844113.46949
  23748632.266 3  23748654.637 8 124799901.924 3  97246481.399 8  23748654.16046
  23175326.164 5  23175346.574 8 121787154.860 5  94898911.534 8  23175345.99247
 23  3 10  2 57 49.0000000  0  8G04G08G09G16G26G27G28G31            
  21264801.703 6  21264811.727 9 111747285.521 6  87075844.888 9  21264811.80148
  20999052.461 6  20999065.934 9 110350762.406 6  85987791.555 9  20999065.32849
  23470704.672 4  23470718.465 8 123339374.578 4  96108668.941 8  23470718.10947
  21177192.602 6                 111286892.157 6  86717087.86448  21177199.48848
  22573908.992 5  22573925.586 9 118626707.721 5  92436224.496 9  22573925.55947
  19844138.281 7  19844148.277 9 104281646.886 7  81258436.426 9  19844148.09049
  23749160.375 3  23749181.637 8 124802672.182 3  97248640.040 8  23749181.24646
  23175775.938 5  23175796.016 8 121789517.318 5  94900752.404 8  23175795.59047
 23  3 10  2 57 50.0000000  0  8G04G08G09G16G26G27G28G31            
  21264733.289 6  21264743.277 9 111746925.713 6  87075564.512 9  21264743.22348
  20998686.656 6  20998700.699 9 110348843.022 6  85986295.931 9  20998700.00049
  23470328.648 3  23470342.438 8 123337397.733 3  96107128.522 8  23470341.84847
  21177458.828 6                 111288292.917 6  86718179.37148  21177466.07048
  22574314.320 5  22574330.684 9 118628835.770 5  92437882.698 9  22574330.59447
  19844172.672 7  19844183.203 9 104281829.776 7  81258578.935 9  19844182.80149
  23749687.250 3  23749709.008 8 124805443.181 3  97250799.272 8  23749708.54346
  23176225.875 5  23176245.695 8 121791880.501 5  94902593.848 8  23176245.27047
 23  3 10  2 57 51.0000000  0  8G04G08G09G16G26G27G28G31            
  21264665.305 6  21264675.055 9 111746566.972 6  87075284.964 9  21264675.07448
  20998322.063 6  20998335.793 9 110346924.593 6  85984801.059 9  20998335.02349
  23469952.617 3  23469966.406 8 123335421.704 3  96105588.766 8  23469965.89147
  21177725.633 6                 111289694.220 6  86719271.28248  21177732.57448
  22574719.578 4  22574735.664 9 118630964.229 4  92439541.233 9  22574735.49247
  19844207.891 7  19844218.004 9 104282013.739 7  81258722.276 9  19844217.68849
  23750214.547 3  23750236.445 8 124808214.899 3  97252959.060 8  23750235.96946
  23176675.305 5  23176695.723 8 121794244.364 5  94904435.810 8  23176695.11747
 23  3 10  2 57 52.0000000  0  8G04G08G09G16G26G27G28G31            
  21264597.852 6  21264606.969 9 111746209.189 6  87075006.167 9  21264606.90248
  20997957.055 6  20997970.824 9 110345007.032 6  85983306.864 9  20997970.22749
  23469577.195 4  23469590.336 8 123333446.506 4  96104049.653 8  23469590.12947
  21177992.273 6                 111291095.982 6  86720363.56348  21177999.20748
  22575124.914 4  22575140.586 9 118633092.988 4  92441199.989 9  22575140.57847
  19844243.211 7  19844253.211 9 104282198.716 7  81258866.409 9  19844252.98049
  23750741.313 3  23750763.914 8 124810987.195 3  97255119.295 8  23750763.36346
  23177124.883 5  23177145.504 8 121796608.821 5  94906278.234 8  23177144.94547
 23  3 10  2 57 53.0000000  0  8G04G08G09G16G26G27G28G31            
  21264529.883 6  21264539.086 9 111745852.342 6  87074728.102 9  21264539.02348
  20997592.195 6  20997606.008 9 110343090.279 6  85981813.282 9  20997605.46149
  23469201.047 3  23469214.285 8 123331472.037 3  96102511.122 8  23469214.30147
  21178259.656 6                 111292498.188 6  86721456.18348  21178266.11748
  22575529.023 4  22575545.988 9 118635222.034 4  92442858.986 9  22575545.78547
  19844278.500 7  19844288.535 9 104282384.668 7  81259011.300 9  19844288.22349
  23751269.555 3  23751291.441 8 124813760.062 3  97257279.980 8  23751291.12146
  23177575.039 5  23177595.461 8 121798973.860 5  94908121.119 8  23177594.96947
 23  3 10  2 57 54.0000000  0  8G04G08G09G16G26G27G28G31            
  21264461.531 6  21264471.395 9 111745496.439 6  87074450.773 9  21264471.25848
  20997227.727 6  20997241.328 9 110341174.375 6  85980320.370 9  20997240.81349
  23468825.391 4  23468839.012 8 123329498.410 4  96100973.246 8  23468838.58247
  21178526.219 6                 111293900.861 6  86722549.16648  21178533.11348
  22575934.641 4  22575951.090 9 118637351.342 4  92444518.175 9  22575951.00847
  19844314.141 7  19844324.180 9 104282571.612 7  81259156.968 9  19844323.99649
  23751796.852 3  23751819.184 8 124816533.604 3  97259441.157 8  23751818.94146
  23178025.266 5  23178045.578 8 121801339.513 5  94909964.481 8  23178045.11747
 23  3 10  2 57 55.0000000  0  8G04G08G09G16G26G27G28G31            
  21264394.063 6  21264404.094 9 111745141.563 6  87074174.249 9  21264403.71947
  20996863.023 6  20996876.914 9 110339259.349 6  85978828.144 9  20996876.12949
  23468450.227 3  23468463.723 8 123327525.610 3  96099435.989 8  23468463.37147
  21178793.211 6                 111295304.012 6  86723642.52948  21178800.13348
  22576340.219 4  22576356.254 9 118639481.054 4  92446177.679 9  22576356.44147
  19844350.172 7  19844359.734 9 104282759.621 7  81259303.469 9  19844359.60949
  23752324.977 3  23752347.340 8 124819307.733 3  97261602.804 8  23752346.82446
  23178475.859 5  23178496.219 8 121803705.764 5  94911808.313 8  23178495.48447
 23  3 10  2 57 56.0000000  0  8G04G08G09G16G26G27G28G31            
  21264326.836 6  21264336.547 9 111744787.427 6  87073898.299 9  21264336.27747
  20996498.875 6  20996512.848 9 110337345.002 6  85977336.438 9  20996512.07049
  23468074.422 3  23468088.922 8 123325553.386 3  96097899.198 8  23468088.23447
  21179060.594 6                 111296707.438 6  86724736.12348  21179067.18448
  22576745.289 4  22576761.648 9 118641610.850 4  92447837.259 9  22576761.66847
  19844386.250 7  19844395.750 9 104282948.428 7  81259450.596 9  19844395.61749
  23752852.586 3  23752875.086 8 124822082.257 3  97263764.774 8  23752874.83646
  23178926.586 5  23178946.465 8 121806072.452 5  94913652.476 8  23178945.81347
 23  3 10  2 57 57.0000000  0  8G04G08G09G16G26G27G28G31            
  21264259.719 6  21264269.340 9 111744434.258 6  87073623.101 9  21264269.13748
  20996134.422 6  20996148.727 9 110335431.481 6  85975845.388 9  20996147.99649
  23467699.273 3  23467713.523 8 123323581.960 3  96096363.033 8  23467713.43847
  21179327.336 6                 111298111.326 6  86725830.05348  21179334.41048
  22577150.508 5  22577166.984 9 118643740.930 5  92449497.046 9  22577167.05547
  19844421.961 7  19844431.730 9 104283138.217 7  81259598.476 9  19844431.69149
  23753380.469 3  23753403.551 8 124824857.414 3  97265927.233 8  23753402.98046
  23179376.391 5  23179397.051 8 121808439.711 5  94915497.093 8  23179396.25447
 23  3 10  2 57 58.0000000  0  8G04G08G09G16G26G27G28G31            
  21264192.781 6  21264202.270 9 111744081.931 6  87073348.552 9  21264202.11748
  20995770.266 6  20995784.613 9 110333518.661 6  85974354.875 9  20995784.01249
  23467324.727 4  23467338.559 8 123321611.206 4  96094827.381 8  23467338.41447
  21179594.539 6                 111299515.505 6  86726924.21448  21179601.43848
  22577556.328 4  22577572.246 9 118645871.200 4  92451156.986 9  22577572.51647
  19844458.477 7  19844468.168 9 104283328.886 7  81259747.056 9  19844467.96949
  23753908.984 3  23753931.805 8 124827633.069 3  97268090.087 8  23753931.14146
  23179827.352 5  23179847.531 8 121810807.442 5  94917342.077 8  23179846.57847
 23  3 10  2 57 59.0000000  0  8G04G08G09G16G26G27G28G31            
  21264125.281 6  21264135.277 9 111743730.700 6  87073074.866 9  21264135.35548
  20995406.609 6  20995420.684 9 110331606.848 6  85972865.159 9  20995420.15249
  23466949.688 3  23466963.793 8 123319641.395 3  96093292.476 8  23466963.53147
  21179862.242 6                 111300920.340 6  86728018.88948  21179868.71148
  22577961.008 4  22577977.820 9 118648001.936 4  92452817.305 9  22577978.03147
  19844494.781 7  19844504.699 9 104283520.724 7  81259896.530 9  19844504.62149
  23754437.227 2  23754459.867 8 124830409.452 2  97270253.499 8  23754459.57845
  23180277.813 5  23180298.148 8 121813175.944 5  94919187.651 8  23180297.30547
 23  3 10  2 58  0.0000000  0  8G04G08G09G16G26G27G28G31            
  21264059.039 6  21264068.941 9 111743380.475 6  87072801.965 9  21264068.77348
  20995043.125 6  20995057.344 9 110329695.920 6  85971376.121 9  20995056.40249
  23466575.195 3  23466589.145 8 123317672.384 3  96091758.195 8  23466588.89847
  21180129.320 6                 111302325.649 6  86729113.92848  21180136.23848
  22578367.367 4  22578383.176 9 118650133.014 4  92454477.882 9  22578383.45347
  19844531.453 7  19844541.461 9 104283713.577 7  81260046.816 9  19844541.18049
  23754965.828 2  23754988.246 8 124833186.486 2  97272417.422 8  23754987.88746
  23180728.852 5  23180749.145 8 121815545.025 5  94921033.681 8  23180748.03547
 23  3 10  2 58  1.0000000  0  8G04G08G09G16G26G27G28G31            
  21263992.531 6  21264002.430 9 111743031.150 6  87072529.753 9  21264002.30148
  20994679.586 6  20994693.918 9 110327785.797 6  85969887.709 9  20994693.09049
  23466201.055 3  23466214.594 8 123315704.144 3  96090224.477 8  23466214.34047
  21180396.797 6                 111303731.363 6  86730209.29448  21180403.74248
  22578772.758 4  22578788.879 9 118652264.325 4  92456138.619 9  22578788.96947
  19844568.344 7  19844578.164 9 104283907.396 7  81260197.841 9  19844578.14149
  23755494.344 2  23755516.871 8 124835964.061 2  97274581.783 8  23755516.35245
  23181179.906 5  23181200.082 8 121817914.706 5  94922880.185 8  23181198.84847
 23  3 10  2 58  2.0000000  0  8G04G08G09G16G26G27G28G31            
  21263926.211 6  21263935.949 9 111742682.795 6  87072258.297 9  21263935.93848
  20994316.484 6  20994330.547 9 110325876.530 6  85968399.968 9  20994329.52049
  23465826.188 4  23465840.273 8 123313736.690 4  96088691.393 8  23465839.97747
  21180664.352 6                 111305137.554 6  86731305.02048  21180671.47748
  22579178.227 4  22579194.328 9 118654395.991 4  92457799.663 9  22579194.60547
  19844605.320 7  19844615.367 9 104284102.230 7  81260349.655 9  19844615.02349
  23756023.047 2  23756045.816 8 124838742.276 2  97276746.642 8  23756045.02345
  23181631.313 5  23181651.070 8 121820284.974 5  94924727.146 8  23181649.78547
 23  3 10  2 58  3.0000000  0  8G04G08G09G16G26G27G28G31            
  21263860.531 6  21263870.117 9 111742335.348 6  87071987.570 9  21263869.86348
  20993952.945 6  20993967.402 9 110323968.069 6  85966912.859 9  20993966.67249
  23465451.727 3  23465466.152 8 123311770.033 3  96087158.933 8  23465465.86747
  21180932.117 6                 111306544.146 6  86732401.05848  21180938.99248
  22579584.641 4  22579599.941 9 118656527.896 4  92459460.873 9  22579600.41047
  19844642.672 7  19844652.582 9 104284298.011 7  81260502.214 9  19844652.41049
  23756551.766 2  23756574.223 8 124841521.002 2  97278911.897 8  23756573.77345
  23182082.594 5  23182102.234 8 121822655.799 5  94926574.533 8  23182101.10247
 23  3 10  2 58  4.0000000  0  8G04G08G09G16G26G27G28G31            
  21263794.156 6  21263804.113 9 111741988.735 6  87071717.482 9  21263804.07448
  20993590.281 6  20993604.145 9 110322060.293 6  85965426.280 9  20993603.62949
  23465077.859 3  23465092.137 8 123309803.966 3  96085626.939 8  23465091.73047
  21181199.836 6                 111307951.060 6  86733497.34948  21181206.73848
  22579990.727 4  22580005.715 9 118658659.958 4  92461122.212 9  22580006.14547
  19844680.203 7  19844690.211 9 104284494.641 7  81260655.429 9  19844689.90649
  23757080.391 2  23757103.172 8 124844300.216 2  97281077.516 8  23757102.65645
  23182533.359 5  23182553.563 8 121825027.049 5  94928422.258 8  23182552.25847
 23  3 10  2 58  5.0000000  0  8G04G08G09G16G26G27G28G31            
  21263728.797 6  21263738.164 9 111741642.996 6  87071448.067 9  21263738.29348
  20993227.367 6  20993241.355 9 110320153.300 6  85963940.312 9  20993240.78149
  23464704.234 4  23464717.859 8 123307838.605 4  96084095.479 8  23464717.48447
  21181467.797 6                 111309358.346 6  86734593.93248  21181474.50048
  22580395.820 5  22580411.543 9 118660792.240 5  92462783.725 9  22580411.87947
  19844717.484 7  19844727.617 9 104284692.214 7  81260809.379 9  19844727.42249
  23757609.305 2  23757631.996 8 124847079.933 2  97283243.539 8  23757631.63345
  23182984.531 5  23183005.195 8 121827398.853 5  94930270.419 8  23183003.73447
 23  3 10  2 58  6.0000000  0  8G04G08G09G16G26G27G28G31            
  21263663.250 6  21263672.848 9 111741298.210 6  87071179.404 9  21263672.82448
  20992864.578 6  20992878.566 9 110318247.134 6  85962454.992 9  20992877.82449
  23464330.289 4  23464344.078 8 123305874.069 4  96082564.679 8  23464343.67247
  21181735.477 6                 111310766.107 6  86735690.89348  21181742.55148
  22580801.789 5  22580817.215 9 118662924.841 5  92464445.479 9  22580817.65247
  19844755.117 7  19844765.496 9 104284890.772 7  81260964.105 9  19844765.10549
  23758138.938 2  23758161.176 8 124849860.289 2  97285410.055 8  23758160.60545
  23183436.563 5  23183456.551 8 121829771.226 5  94932119.019 8  23183455.30947
 23  3 10  2 58  7.0000000  0  8G04G08G09G16G26G27G28G31            
  21263597.906 6  21263607.445 9 111740954.385 6  87070911.485 9  21263607.39848
  20992502.031 6  20992516.012 9 110316341.794 6  85960970.305 9  20992515.27749
  23463956.320 3  23463970.156 8 123303910.313 3  96081034.492 8  23463970.02047
  21182003.609 6                 111312174.310 6  86736788.18348  21182010.52348
  22581207.664 5  22581223.387 9 118665057.739 5  92466107.455 9  22581223.59447
  19844793.719 7  19844803.324 9 104285090.321 7  81261119.592 9  19844803.15649
  23758668.063 2  23758690.195 8 124852641.205 2  97287577.014 8  23758689.73445
  23183887.750 5  23183908.242 8 121832144.220 5  94933968.099 8  23183906.82047
 23  3 10  2 58  8.0000000  0  8G04G08G09G16G26G27G28G31            
  21263532.203 6  21263542.230 9 111740611.601 6  87070644.379 9  21263542.13348
  20992139.516 6  20992153.398 9 110314437.393 6  85959486.355 9  20992152.93449
  23463583.492 3  23463596.473 8 123301947.462 3  96079504.995 8  23463596.59447
  21182271.773 6                 111313583.046 6  86737885.89648  21182278.67648
  22581613.445 5  22581629.566 9 118667191.008 5  92467769.738 9  22581629.46547
  19844831.867 7  19844841.648 9 104285290.963 7  81261275.931 9  19844841.21149
  23759197.945 2  23759219.508 8 124855422.859 2  97289744.542 8  23759218.93045
  23184339.305 5  23184359.832 8 121834517.884 5  94935817.699 8  23184358.44947
 23  3 10  2 58  9.0000000  0  8G04G08G09G16G26G27G28G31            
  21263467.172 6  21263477.074 9 111740269.928 6  87070378.144 9  21263477.18848
  20991777.727 6  20991791.480 9 110312534.020 6  85958003.211 9  20991790.66849
  23463210.070 4  23463223.344 8 123299985.544 4  96077976.206 8  23463223.07847
  21182539.688 6                 111314992.396 6  86738984.08848  21182546.93448
  22582019.563 5  22582035.461 9 118669324.718 5  92469432.354 9  22582035.46947
  19844869.922 7  19844879.793 9 104285492.733 7  81261433.160 9  19844879.71149
  23759726.953 2  23759748.793 8 124858205.221 2  97291912.614 8  23759748.46545
  23184791.438 5  23184811.488 8 121836892.271 5  94937667.860 8  23184810.26647
 23  3 10  2 58 10.0000000  0  8G04G08G09G16G26G27G28G31            
  21263402.664 6  21263412.289 9 111739929.128 6  87070112.573 9  21263412.36348
  20991415.227 6  20991429.305 9 110310631.423 6  85956520.678 9  20991428.78549
  23462836.375 3  23462850.023 8 123298024.293 3  96076447.945 8  23462849.81347
  21182807.930 6                 111316402.118 6  86740082.56948  21182815.22348
  22582425.023 5  22582441.586 9 118671458.682 5  92471095.165 9  22582441.50047
  19844908.656 7  19844918.574 9 104285695.447 7  81261591.112 9  19844918.29349
  23760256.289 2  23760278.391 8 124860988.126 2  97294081.127 8  23760277.93445
  23185243.641 5  23185263.758 8 121839267.192 5  94939518.451 8  23185262.27347
 23  3 10  2 58 11.0000000  0  8G04G08G09G16G26G27G28G31            
  21263337.695 6  21263347.637 9 111739589.200 6  87069847.695 9  21263347.90648
  20991053.438 6  20991067.340 9 110308729.547 6  85955038.695 9  20991066.78949
  23462463.648 3  23462477.266 8 123296063.787 3  96074920.288 8  23462476.75847
  21183076.039 6                 111317812.214 6  86741181.34248  21183083.47348
  22582831.773 4  22582847.832 9 118673592.858 4  92472758.153 9  22582847.69947
  19844947.594 7  19844957.336 9 104285899.064 7  81261749.780 9  19844957.02049
  23760786.016 2  23760807.988 8 124863771.542 2  97296250.012 8  23760807.51645
  23185695.188 5  23185715.688 8 121841642.610 5  94941369.429 8  23185714.30547
 23  3 10  2 58 12.0000000  0  8G04G08G09G16G26G27G28G31            
  21263273.508 6  21263283.164 9 111739250.119 6  87069583.465 9  21263283.32448
  20990691.391 6  20990705.723 9 110306828.417 6  85953557.309 9  20990705.03549
  23462090.719 4  23462104.227 8 123294103.914 4  96073393.104 8  23462103.75047
  21183344.617 6                 111319222.642 6  86742280.36748  21183351.87148
  22583238.078 4  22583254.047 9 118675727.230 4  92474421.296 9  22583253.90647
  19844986.180 7  19844996.168 9 104286103.563 7  81261909.128 9  19844995.89849
  23761316.031 2  23761337.434 8 124866555.494 2  97298419.307 8  23761337.35245
  23186147.109 5  23186168.016 8 121844018.535 5  94943220.794 8  23186166.50447
 23  3 10  2 58 13.0000000  0  8G04G08G09G16G26G27G28G31            
  21263208.820 6  21263218.852 9 111738911.979 6  87069319.972 9  21263218.87948
  20990329.883 6  20990344.141 9 110304928.137 6  85952076.563 9  20990343.43849
  23461717.867 4  23461731.199 8 123292144.856 4  96071866.572 8  23461730.93847
  21183613.156 6                 111320633.520 6  86743379.74348  21183620.31648
  22583644.336 5  22583660.055 9 118677861.896 5  92476084.681 9  22583659.93847
  19845025.633 7  19845035.422 9 104286309.065 7  81262069.263 9  19845034.91849
  23761845.539 2  23761867.531 8 124869339.986 2  97300589.037 8  23761867.13345
  23186599.227 5  23186620.355 8 121846395.028 5  94945072.605 8  23186619.01247
 23  3 10  2 58 14.0000000  0  8G04G08G09G16G26G27G28G31            
  21263144.609 6  21263154.758 9 111738574.576 6  87069057.068 9  21263154.71548
  20989968.367 6  20989982.512 9 110303028.460 6  85950596.296 9  20989981.95349
  23461344.984 4  23461358.535 8 123290186.369 4  96070340.480 8  23461358.35247
  21183881.555 6                 111322044.627 6  86744479.31348  21183888.89548
  22584050.289 5  22584066.332 9 118679996.620 5  92477748.089 9  22584066.16847
  19845064.750 7  19845074.773 9 104286515.327 7  81262229.979 9  19845074.31649
  23762375.055 2  23762397.355 8 124872124.848 2  97302759.058 8  23762397.10545
  23187051.961 5  23187072.430 8 121848771.881 5  94946924.691 8  23187071.17247
 23  3 10  2 58 15.0000000  0  8G04G08G09G16G26G27G28G31            
  21263081.188 6  21263090.977 9 111738238.180 6  87068794.939 9  21263090.80148
  20989607.094 6  20989621.211 9 110301129.691 6  85949116.734 9  20989620.51249
  23460971.891 4  23460985.836 8 123288228.714 4  96068815.014 8  23460985.84447
  21184150.500 6                 111323456.234 6  86745579.27148  21184157.49248
  22584456.656 5  22584472.734 9 118682131.727 5  92479411.807 9  22584472.34047
  19845104.141 7  19845114.055 9 104286722.647 7  81262391.523 9  19845113.75449
  23762904.984 3  23762927.508 8 124874910.424 3  97304929.638 8  23762927.11345
  23187503.859 5  23187524.848 8 121851149.412 5  94948777.299 8  23187523.62547
 23  3 10  2 58 16.0000000  0  8G04G08G09G16G26G27G28G31            
  21263017.125 6  21263026.746 9 111737902.765 6  87068533.576 9  21263026.82448
  20989246.000 6  20989259.664 9 110299231.750 6  85947637.821 9  20989259.35249
  23460600.078 4  23460613.598 8 123286271.862 4  96067290.185 8  23460613.37547
  21184419.375 6                 111324868.333 6  86746679.60748  21184426.16448
  22584862.734 5  22584878.992 9 118684267.123 5  92481075.738 9  22584878.60247
  19845144.156 7  19845153.746 9 104286930.989 7  81262553.865 9  19845153.35549
  23763436.320 2  23763457.789 8 124877696.559 2  97307100.649 8  23763457.18445
  23187956.156 5  23187977.449 8 121853527.493 5  94950630.336 8  23187976.22347
 23  3 10  2 58 17.0000000  0  8G04G08G09G16G26G27G28G31            
  21262953.781 6  21262963.574 9 111737568.268 6  87068272.924 9  21262963.32448
  20988885.078 6  20988898.758 9 110297334.606 6  85946159.521 9  20988898.40249
  23460227.797 4  23460241.754 8 123284315.737 4  96065765.947 8  23460241.20348
  21184687.977 6                 111326280.833 6  86747780.24948  21184694.79348
  22585269.328 4  22585285.418 9 118686402.796 4  92482739.901 9  22585284.96947
  19845184.102 7  19845193.535 9 104287140.270 7  81262716.943 9  19845193.02049
  23763965.531 3  23763988.148 8 124880483.238 3  97309272.090 8  23763987.52345
  23188409.219 5  23188430.246 8 121855906.179 5  94952483.858 8  23188428.91847
 23  3 10  2 58 18.0000000  0  8G04G08G09G16G26G27G28G31            
  21262889.656 6  21262899.969 9 111737234.642 6  87068012.947 9  21262899.78548
  20988524.008 6  20988537.961 9 110295438.229 6  85944681.829 9  20988537.65649
  23459855.531 4  23459869.625 8 123282360.354 4  96064242.284 8  23459869.27048
  21184956.234 6                 111327693.714 6  86748881.19048  21184963.56648
  22585676.055 4  22585691.898 9 118688538.709 4  92484404.232 9  22585691.27747
  19845223.836 7  19845233.301 9 104287350.480 7  81262880.744 9  19845232.95349
  23764495.953 3  23764518.609 8 124883270.543 3  97311444.011 8  23764517.99246
  23188861.469 5  23188883.031 8 121858285.389 5  94954337.780 8  23188881.84047
 23  3 10  2 58 19.0000000  0  8G04G08G09G16G26G27G28G31            
  21262827.055 6  21262836.449 9 111736901.992 6  87067753.738 9  21262836.39848
  20988163.289 6  20988177.281 9 110293542.717 6  85943204.816 9  20988176.88349
  23459482.875 4  23459497.570 8 123280405.774 4  96062719.235 8  23459497.40647
  21185226.125 6                 111329107.035 6  86749982.48848  21185232.61348
  22586082.555 5  22586098.414 9 118690674.896 5  92486068.773 9  22586097.89847
  19845264.398 7  19845273.570 9 104287561.692 7  81263045.323 9  19845273.25049
  23765026.844 2  23765049.039 8 124886058.366 2  97313616.338 8  23765048.53946
  23189314.648 5  23189335.816 8 121860665.180 5  94956192.167 8  23189334.73447
 23  3 10  2 58 20.0000000  0  8G04G08G09G16G26G27G28G31            
  21262763.602 6  21262773.438 9 111736570.341 6  87067495.297 9  21262773.39848
  20987802.867 6  20987816.613 9 110291648.069 6  85941728.468 9  20987816.47349
  23459111.984 4  23459126.113 8 123278452.022 4  96061196.831 8  23459125.56647
  21185494.711 6                 111330520.869 6  86751084.17348  21185501.50448
  22586489.086 4  22586505.059 9 118692811.450 4  92487733.619 9  22586504.45747
  19845304.242 7  19845313.746 9 104287773.945 7  81263210.704 9  19845313.62549
  23765558.445 3  23765579.855 8 124888846.867 3  97315789.197 8  23765579.11346
  23189767.922 5  23189788.590 8 121863045.592 5  94958047.022 8  23189787.69947
 23  3 10  2 58 21.0000000  0  8G04G08G09G16G26G27G28G31            
  21262700.867 6  21262710.426 9 111736239.740 6  87067237.697 9  21262710.48048
  20987442.391 6  20987456.531 9 110289754.427 6  85940252.907 9  20987455.92649
  23458740.383 4  23458754.453 8 123276499.153 4  96059675.116 8  23458753.96548
  21185763.852 6                 111331935.285 6  86752186.31348  21185770.71548
  22586894.945 5  22586911.816 9 118694948.421 5  92489398.787 9  22586911.23047
  19845345.023 7  19845354.582 9 104287987.315 7  81263376.971 9  19845354.12549
  23766088.680 3  23766110.570 8 124891636.064 3  97317962.601 8  23766109.93445
  23190220.711 5  23190242.004 8 121865426.731 5  94959902.457 8  23190240.89847
 23  3 10  2 58 22.0000000  0  8G04G08G09G16G26G27G28G31            
  21262637.688 6  21262647.496 9 111735909.988 6  87066980.738 9  21262647.84048
  20987082.344 6  20987096.625 9 110287861.470 6  85938777.876 9  20987095.71549
  23458369.609 4  23458383.004 8 123274546.950 4  96058153.922 8  23458382.38748
  21186033.219 6                 111333349.998 6  86753288.68448  21186040.17648
  22587302.258 5  22587318.266 9 118697085.524 5  92491064.063 9  22587317.91047
  19845385.633 7  19845395.363 9 104288201.551 7  81263543.902 9  19845394.84849
  23766619.828 2  23766641.461 8 124894425.709 2  97320136.344 8  23766640.79346
  23190673.727 5  23190694.934 8 121867808.336 5  94961758.255 8  23190694.09847
 23  3 10  2 58 23.0000000  0  8G04G08G09G16G26G27G28G31            
  21262575.250 6  21262585.145 9 111735581.302 6  87066724.614 9  21262585.10548
  20986722.117 6  20986736.344 9 110285969.489 6  85937303.598 9  20986735.82049
  23457998.297 4  23458011.426 8 123272595.694 4  96056633.447 8  23458011.03147
  21186302.594 6                 111334765.285 6  86754391.50248  21186309.58648
  22587708.859 5  22587725.285 9 118699223.080 5  92492729.691 9  22587724.84447
  19845426.617 7  19845436.250 9 104288416.897 7  81263711.706 9  19845435.82449
  23767151.203 3  23767172.520 8 124897216.091 3  97322310.663 8  23767171.82445
  23191126.813 5  23191148.563 8 121870190.650 5  94963614.597 8  23191147.39147
 23  3 10  2 58 24.0000000  0  8G04G08G09G16G26G27G28G31            
  21262512.820 6  21262522.652 9 111735253.525 6  87066469.198 9  21262522.71148
  20986362.250 6  20986376.496 9 110284078.328 6  85935829.968 9  20986375.73049
  23457626.281 4  23457640.375 8 123270645.143 4  96055113.524 8  23457639.98047
  21186571.813 6                 111336180.983 6  86755494.63448  21186579.03148
  22588116.195 5  22588131.762 9 118701360.883 5  92494395.493 9  22588131.52047
  19845467.625 7  19845477.621 9 104288633.181 7  81263880.231 9  19845477.02749
  23767681.273 2  23767703.332 8 124900007.051 2  97324485.479 8  23767702.84845
  23191580.352 5  23191602.059 8 121872573.480 5  94965471.352 8  23191600.95347
 23  3 10  2 58 25.0000000  0  8G04G08G09G16G26G27G28G31            
  21262450.820 6  21262460.770 9 111734926.777 6  87066214.581 9  21262460.42248
  20986002.523 6  20986016.852 9 110282188.099 6  85934357.068 9  20986015.90249
  23457255.688 4  23457269.234 8 123268695.454 4  96053594.286 8  23457268.97748
  21186841.219 6                 111337597.218 6  86756598.18948  21186848.41048
  22588522.836 5  22588538.875 9 118703499.038 5  92496061.577 9  22588538.26247
  19845509.133 7  19845519.008 9 104288850.558 7  81264049.620 9  19845518.36349
  23768212.414 3  23768234.520 8 124902798.640 3  97326660.749 8  23768233.98045
  23192033.945 5  23192055.770 8 121874957.013 5  94967328.643 8  23192054.63747
 23  3 10  2 58 26.0000000  0  8G04G08G09G16G26G27G28G31            
  21262388.883 6  21262398.551 9 111734600.893 6  87065960.653 9  21262398.64848
  20985643.109 6  20985657.125 9 110280298.606 6  85932884.734 9  20985656.44149
  23456884.625 4  23456898.254 8 123266746.496 4  96052075.610 8  23456898.11347
  21187111.109 6                 111339013.809 6  86757702.02048  21187118.05548
  22588929.820 5  22588945.867 9 118705637.466 5  92497727.881 9  22588945.16047
  19845550.500 7  19845560.402 9 104289068.839 7  81264219.702 9  19845560.02349
  23768744.094 2  23768765.844 8 124905590.813 2  97328836.458 8  23768765.12545
  23192488.211 5  23192509.309 8 121877341.037 5  94969186.313 8  23192508.23847
 23  3 10  2 58 27.0000000  0  8G04G08G09G16G26G27G28G31            
  21262326.953 6  21262336.801 9 111734275.792 6  87065707.325 9  21262336.79748
  20985283.422 6  20985297.621 9 110278409.764 6  85931412.908 9  20985297.05949
  23456513.375 4  23456527.785 8 123264798.146 4  96050557.424 8  23456527.46947
  21187381.023 6                 111340430.684 6  86758806.07648  21187387.59448
  22589336.625 5  22589352.473 9 118707775.974 5  92499394.249 9  22589352.23447
  19845592.328 7  19845602.195 9 104289287.938 7  81264390.438 9  19845601.60949
  23769274.820 3  23769297.301 8 124908383.314 3  97331012.428 8  23769296.53945
  23192941.438 5  23192962.652 8 121879725.451 5  94971044.304 8  23192962.14147
 23  3 10  2 58 28.0000000  0  8G04G08G09G16G26G27G28G31            
  21262264.984 6  21262275.270 9 111733951.678 6  87065454.760 9  21262275.16448
  20984923.898 6  20984938.242 9 110276521.798 6  85929941.772 9  20984937.68049
  23456142.992 4  23456157.023 8 123262850.590 4  96049039.848 8  23456156.87947
  21187650.625 6                 111341848.049 6  86759910.51748  21187657.27748
  22589743.703 5  22589759.445 9 118709914.808 5  92501060.855 9  22589759.24247
  19845634.531 7  19845644.246 9 104289508.061 7  81264561.954 9  19845643.51249
  23769806.680 3  23769828.734 8 124911176.535 3  97333188.979 8  23769828.05146
  23193395.547 4  23193416.887 8 121882110.562 4  94972902.825 8  23193415.85947
 23  3 10  2 58 29.0000000  0  8G04G08G09G16G26G27G28G31            
  21262203.672 6  21262213.574 9 111733628.714 6  87065203.100 9  21262213.64548
  20984565.242 6  20984579.297 9 110274634.875 6  85928471.450 9  20984578.55149
  23455772.250 4  23455786.805 8 123260904.023 4  96047523.035 8  23455786.35547
  21187920.547 6                 111343266.025 6  86761015.42148  21187927.14148
  22590150.938 5  22590166.660 9 118712054.139 5  92502727.859 9  22590166.60247
  19845676.734 7  19845686.094 9 104289729.367 7  81264734.405 9  19845685.61749
  23770338.516 3  23770360.434 8 124913970.493 3  97335366.104 8  23770359.71546
  23193849.727 5  23193871.070 8 121884496.383 5  94974761.894 8  23193869.91447
 23  3 10  2 58 30.0000000  0  8G04G08G09G16G26G27G28G31            
  21262142.445 6  21262152.500 9 111733306.638 6  87064952.131 9  21262152.41448
  20984206.328 6  20984220.277 9 110272748.736 6  85927001.740 9  20984219.55949
  23455401.914 4  23455416.582 8 123258958.188 4  96046006.793 8  23455415.83647
  21188190.625 6                 111344684.413 6  86762120.66048  21188197.19948
  22590558.570 5  22590573.875 9 118714193.726 5  92504395.063 9  22590573.54347
  19845718.742 7  19845728.480 9 104289951.604 7  81264907.579 9  19845728.01249
  23770871.031 4  23770892.063 8 124916764.988 4  97337543.650 8  23770891.52346
  23194303.555 5  23194325.285 8 121886882.769 5  94976621.416 8  23194324.16447
 23  3 10  2 58 31.0000000  0  8G04G08G09G16G26G27G28G31            
  21262081.656 6  21262091.605 9 111732985.351 6  87064701.768 9  21262091.14148
  20983847.500 6  20983861.520 9 110270863.274 6  85925532.558 9  20983860.55149
  23455031.703 4  23455046.105 8 123257012.967 4  96044491.046 8  23455045.71147
  21188460.180 6                 111346103.082 6  86763226.11548  21188467.14848
  22590964.961 5  22590981.168 9 118716333.471 5  92506062.382 9  22590980.71147
  19845761.625 7  19845771.098 9 104290174.683 7  81265081.402 9  19845770.48049
  23771403.047 3  23771424.203 8 124919559.919 3  97339721.532 8  23771423.44946
  23194757.445 4  23194779.363 8 121889269.554 4  94978481.237 8  23194778.53947
 23  3 10  2 58 32.0000000  0  8G04G08G09G16G26G27G28G31            
  21262020.570 6  21262030.406 9 111732665.053 6  87064452.184 9  21262030.20348
  20983488.953 6  20983502.848 9 110268978.691 6  85924064.046 9  20983501.85549
  23454661.984 4  23454675.918 8 123255068.592 4  96042975.951 8  23454675.72747
  21188730.648 6                 111347522.236 6  86764331.94248  21188737.18048
  22591372.406 5  22591388.164 9 118718473.487 5  92507729.920 9  22591387.95747
  19845803.766 7  19845813.566 9 104290398.782 7  81265256.023 9  19845813.14549
  23771934.711 3  23771956.035 8 124922355.483 3  97341899.886 8  23771955.34845
  23195211.883 4  23195233.574 8 121891656.957 4  94980341.556 8  23195232.88747
 23  3 10  2 58 33.0000000  0  8G04G08G09G16G26G27G28G31            
  21261960.008 6  21261969.449 9 111732345.620 6  87064203.266 9  21261969.52748
  20983130.289 6  20983144.203 9 110267094.855 6  85922596.123 9  20983143.43049
  23454291.977 3  23454306.281 8 123253124.883 3  96041461.381 8  23454305.90247
  21189000.328 6                 111348941.741 6  86765438.04748  21189007.35548
  22591779.445 5  22591795.301 9 118720613.741 5  92509397.651 9  22591795.29747
  19845846.828 7  19845856.566 9 104290623.760 7  81265431.328 9  19845856.01649
  23772467.031 4  23772488.020 8 124925151.546 4  97344078.640 8  23772487.54346
  23195666.375 5  23195688.238 8 121894044.877 5  94982202.273 8  23195687.48447
 23  3 10  2 58 34.0000000  0  8G04G08G09G16G26G27G28G31            
  21261898.992 6  21261908.910 9 111732026.973 6  87063954.965 9  21261908.89548
  20982772.188 6  20982785.945 9 110265211.727 6  85921128.752 9  20982785.08249
  23453921.898 3  23453936.453 8 123251181.812 3  96039947.299 8  23453936.28547
  21189270.445 6                 111350361.537 6  86766544.36848  21189277.70748
  22592187.289 5  22592202.762 9 118722754.138 5  92511065.472 9  22592202.69147
  19845889.625 7  19845899.586 9 104290849.594 7  81265607.309 9  19845899.01249
  23772999.500 4  23773020.141 8 124927948.064 4  97346257.758 8  23773019.69146
  23196120.750 4  23196142.848 8 121896433.192 4  94984063.284 8  23196142.07047
 23  3 10  2 58 35.0000000  0  8G04G08G09G16G26G27G28G31            
  21261838.703 6  21261848.340 9 111731709.215 6  87063707.356 9  21261848.31348
  20982414.125 6  20982427.914 9 110263329.372 6  85919661.983 9  20982426.75849
  23453551.633 3  23453566.770 8 123249239.477 3  96038433.786 8  23453566.65247
  21189540.477 6                 111351781.727 6  86767651.00848  21189547.95748
  22592594.039 5  22592610.063 9 118724894.755 5  92512733.472 9  22592610.03547
  19845932.898 7  19845942.504 9 104291076.361 7  81265784.009 9  19845942.09049
  23773531.164 4  23773552.477 8 124930745.137 4  97348437.297 8  23773551.89146
  23196575.570 5  23196597.617 8 121898822.037 5  94985924.726 8  23196596.61747
 23  3 10  2 58 36.0000000  0  8G04G08G09G16G26G27G28G31            
  21261778.172 6  21261788.242 9 111731392.465 6  87063460.530 9  21261788.05548
  20982056.008 6  20982069.770 9 110261447.874 6  85918195.886 9  20982068.66449
  23453182.242 3  23453197.547 8 123247297.967 3  96036920.923 8  23453197.29747
  21189811.117 6                 111353202.379 6  86768758.01348  21189818.35548
  22593002.133 5  22593017.852 9 118727035.685 5  92514401.729 9  22593017.50847
  19845976.375 7  19845985.797 9 104291304.150 7  81265961.506 9  19845985.52049
  23774063.688 4  23774084.906 8 124933542.809 4  97350617.309 8  23774084.27046
  23197029.375 4  23197052.230 8 121901211.533 4  94987786.676 8  23197051.32447
 23  3 10  2 58 37.0000000  0  8G04G08G09G16G26G27G28G31            
  21261718.289 6  21261727.938 9 111731076.624 6  87063214.420 9  21261727.80148
  20981698.211 6  20981711.727 9 110259567.204 6  85916730.437 9  20981710.58649
  23452812.984 3  23452828.648 8 123245357.215 3  96035408.654 8  23452827.95347
  21190081.258 6                 111354623.509 6  86769865.38448  21190088.84848
  22593409.297 5  22593424.988 9 118729176.935 5  92516070.227 9  22593424.96947
  19846020.195 7  19846029.430 9 104291532.913 7  81266139.769 9  19846029.12149
  23774597.055 4  23774617.480 8 124936341.073 4  97352797.779 8  23774616.69146
  23197484.992 4  23197507.113 8 121903601.621 4  94989649.066 8  23197506.02747
 23  3 10  2 58 38.0000000  0  8G04G08G09G16G26G27G28G31            
  21261658.617 6  21261668.031 9 111730761.685 6  87062969.010 9  21261668.06348
  20981340.477 6  20981354.094 9 110257687.314 6  85915265.583 9  20981352.87549
  23452444.398 3  23452459.309 8 123243417.202 3  96033896.957 8  23452458.63747
  21190352.047 6                 111356044.993 6  86770973.02948  21190359.45748
  22593816.352 5  22593832.355 9 118731318.377 5  92517738.869 9  22593832.53947
  19846063.578 7  19846073.230 9 104291762.615 7  81266318.747 9  19846072.84049
  23775129.523 4  23775150.129 8 124939139.867 4  97354978.659 8  23775149.47746
  23197939.313 4  23197962.008 9 121905992.197 4  94991511.850 9  23197960.99247
 23  3 10  2 58 39.0000000  0  8G04G08G09G16G26G27G28G31            
  21261598.883 6  21261607.926 9 111730447.587 6  87062724.256 9  21261608.29748
  20980982.938 6  20980996.133 9 110255808.142 6  85913801.296 9  20980995.23049
  23452074.766 3  23452090.242 8 123241477.826 3  96032385.751 8  23452089.61347
  21190622.523 6                 111357466.829 6  86772080.94348  21190629.76248
  22594223.961 5  22594240.035 9 118733460.042 5  92519407.699 9  22594240.07447
  19846107.453 7  19846116.875 9 104291993.189 7  81266498.412 9  19846116.64549
  23775661.688 4  23775682.832 8 124941939.142 4  97357159.912 8  23775682.19546
  23198394.641 4  23198416.801 9 121908383.304 4  94993375.042 9  23198416.04347
 23  3 10  2 58 40.0000000  0  8G04G08G09G16G26G27G28G31            
  21261538.875 6  21261548.676 9 111730134.518 6  87062480.306 9  21261548.47348
  20980625.453 6  20980638.840 9 110253929.923 6  85912337.755 9  20980637.65649
  23451706.867 3  23451721.414 8 123239539.370 3  96030875.268 8  23451720.66047
  21190893.305 6                 111358889.195 6  86773189.28248  21190900.54748
  22594631.703 5  22594647.719 9 118735602.103 5  92521076.821 9  22594647.63747
  19846151.453 7  19846161.117 9 104292224.859 7  81266678.933 9  19846160.87949
  23776194.758 4  23776215.859 8 124944739.102 4  97359341.705 8  23776215.09046
  23198849.859 4  23198871.898 8 121910775.040 4  94995238.737 8  23198871.26247
 23  3 10  2 58 41.0000000  0  8G04G08G09G16G26G27G28G31            
  21261479.727 6  21261489.246 9 111729822.327 6  87062237.034 9  21261488.91048
  20980268.195 6  20980281.910 9 110252052.447 6  85910874.786 9  20980280.53549
  23451337.852 3  23451352.625 8 123237601.611 3  96029365.321 8  23451351.96947
  21191164.109 6                 111360311.912 6  86774297.88348  21191171.47348
  22595039.734 5  22595055.094 9 118737744.321 5  92522746.070 9  22595055.24647
  19846195.695 7  19846205.359 9 104292457.407 7  81266860.138 9  19846205.17249
  23776726.977 3  23776748.680 8 124947539.583 3  97361523.893 8  23776747.97746
  23199304.914 5  23199326.887 8 121913167.277 5  94997102.807 8  23199326.39147
 23  3 10  2 58 42.0000000  0  8G04G08G09G16G26G27G28G31            
  21261420.609 6  21261430.090 9 111729511.104 6  87061994.521 9  21261429.71148
  20979911.203 6  20979924.566 9 110250175.853 6  85909412.510 9  20979923.38349
  23450969.313 3  23450983.996 8 123235664.642 3  96027855.988 8  23450983.32447
  21191434.773 6                 111361735.110 6  86775406.86848  21191442.19548
  22595447.477 5  22595463.070 9 118739886.873 5  92524415.582 9  22595462.97347
  19846240.047 7  19846249.910 9 104292690.991 7  81267042.156 9  19846249.61349
  23777259.734 4  23777281.793 8 124950340.627 4  97363706.542 8  23777281.03146
  23199760.945 5  23199782.188 8 121915560.162 5  94998967.378 8  23199781.71147
 23  3 10  2 58 43.0000000  0  8G04G08G09G16G26G27G28G31            
  21261361.078 6  21261370.988 9 111729200.822 6  87061752.732 9  21261370.81648
  20979554.297 6  20979567.699 9 110248300.076 6  85907950.861 9  20979566.21949
  23450601.039 3  23450615.566 8 123233728.473 3  96026347.290 8  23450614.92647
  21191705.992 6                 111363158.735 6  86776516.18348  21191713.18448
  22595855.328 5  22595870.793 9 118742029.713 5  92526085.309 9  22595870.70747
  19846284.750 7  19846294.242 9 104292925.537 7  81267224.913 9  19846294.09849
  23777792.750 4  23777814.820 8 124953142.289 4  97365889.669 8  23777814.22746
  23200216.008 4  23200237.820 8 121917953.552 4  95000832.351 8  23200236.99247
 23  3 10  2 58 44.0000000  0  8G04G08G09G16G26G27G28G31            
  21261302.445 6  21261312.098 9 111728891.418 6  87061511.644 9  21261311.80548
  20979197.563 6  20979210.699 9 110246425.046 6  85906489.808 9  20979209.53149
  23450232.422 3  23450247.055 8 123231792.926 3  96024839.067 8  23450246.75847
  21191976.992 6                 111364582.719 6  86777625.77448  21191984.06648
  22596262.969 5  22596278.508 9 118744172.789 5  92527755.232 9  22596278.38347
  19846329.750 7  19846339.086 9 104293161.006 7  81267408.391 9  19846339.04349
  23778325.820 3  23778347.961 8 124955944.521 3  97368073.220 8  23778347.53146
  23200671.539 5  23200693.363 8 121920347.479 5  95002697.748 8  23200692.36347
 23  3 10  2 58 45.0000000  0  8G04G08G09G16G26G27G28G31            
  21261243.531 6  21261253.145 9 111728582.870 6  87061271.211 9  21261252.82848
  20978840.594 6  20978854.031 9 110244550.761 6  85905029.328 9  20978852.85549
  23449864.250 3  23449878.961 8 123229858.162 3  96023331.465 8  23449878.68047
  21192247.469 6                 111366007.073 6  86778735.65648  21192255.00848
  22596670.305 5  22596686.398 9 118746316.038 5  92529425.296 9  22596686.36347
  19846374.609 7  19846384.324 9 104293397.383 7  81267592.584 9  19846383.92249
  23778859.227 3  23778881.441 8 124958747.189 3  97370257.114 8  23778881.01646
  23201127.023 5  23201149.230 8 121922741.912 5  95004563.525 8  23201147.96947
 23  3 10  2 58 46.0000000  0  8G04G08G09G16G26G27G28G31            
  21261185.484 6  21261194.695 9 111728275.188 6  87061031.456 9  21261194.35548
  20978484.281 6  20978497.641 9 110242677.287 6  85903569.481 9  20978496.15649
  23449495.961 3  23449510.934 8 123227924.071 3  96021824.400 8  23449510.68447
  21192518.852 6                 111367431.786 6  86779845.82048  21192526.33248
  22597078.242 5  22597094.332 9 118748459.557 5  92531095.562 9  22597094.32047
  19846419.820 7  19846429.746 9 104293634.671 7  81267777.479 9  19846429.16849
  23779393.234 3  23779414.797 8 124961550.383 3  97372441.429 8  23779414.44146
  23201582.422 5  23201604.883 8 121925136.880 5  95006429.730 8  23201603.75047
 23  3 10  2 58 47.0000000  0  8G04G08G09G16G26G27G28G31            
  21261126.828 6  21261136.266 9 111727968.438 6  87060792.425 9  21261135.92648
  20978127.648 6  20978141.266 9 110240804.604 6  85902110.246 9  20978139.60249
  23449128.492 3  23449142.762 8 123225990.760 3  96020317.922 8  23449142.74647
  21192790.211 6                 111368856.916 6  86780956.31348  21192797.54748
  22597486.320 5  22597502.289 9 118750603.313 5  92532766.005 9  22597502.21147
  19846465.320 7  19846475.043 9 104293872.904 7  81267963.117 9  19846474.64849
  23779925.461 3  23779948.395 8 124964354.160 3  97374626.198 8  23779948.05146
  23202038.328 4  23202060.168 8 121927532.375 4  95008296.342 8  23202059.59447
 23  3 10  2 58 48.0000000  0  8G04G08G09G16G26G27G28G31            
  21261068.617 6  21261078.234 9 111727662.528 6  87060554.049 9  21261077.75848
  20977771.375 6  20977785.188 9 110238932.650 6  85900651.577 9  20977783.55949
  23448760.578 3  23448775.105 8 123224058.093 3  96018811.942 8  23448774.73847
  21193061.430 6                 111370282.359 6  86782067.03648  21193068.74248
  22597893.711 5  22597910.168 9 118752747.228 5  92534436.577 9  22597910.21547
  19846510.508 7  19846520.520 9 104294112.015 7  81268149.434 9  19846519.93449
  23780459.930 3  23780482.121 8 124967158.378 3  97376811.311 8  23780481.73046
  23202493.828 4  23202516.176 8 121929928.317 4  95010163.304 8  23202515.50447
 23  3 10  2 58 49.0000000  0  8G04G08G09G16G26G27G28G31            
  21261010.641 6  21261020.141 9 111727357.543 6  87060316.400 9  21261019.77748
  20977415.273 6  20977429.254 9 110237061.517 6  85899193.555 9  20977427.52749
  23448393.594 4  23448407.477 8 123222126.250 4  96017306.601 8  23448407.07047
  21193332.727 6                 111371708.254 6  86783178.12348  21193340.14148
  22598303.000 5  22598318.402 9 118754891.437 5  92536107.379 9  22598318.17247
  19846556.227 7  19846565.969 9 104294352.127 7  81268336.534 9  19846565.70749
  23780993.672 3  23781016.016 8 124969963.240 3  97378996.926 8  23781015.65246
  23202950.773 4  23202972.113 8 121932324.863 4  95012030.732 8  23202971.55547
 23  3 10  2 58 50.0000000  0  8G04G08G09G16G26G27G28G31            
  21260952.391 6  21260962.109 9 111727053.406 6  87060079.410 9  21260962.05948
  20977059.688 6  20977073.352 9 110235191.120 6  85897736.108 9  20977071.53549
  23448025.836 3  23448040.051 8 123220195.036 3  96015801.765 8  23448039.52747
  21193604.023 6                 111373134.474 6  86784289.45848  21193611.35548
  22598710.391 5  22598726.402 9 118757035.841 5  92537778.329 9  22598726.39147
  19846602.156 7  19846612.141 9 104294593.101 7  81268524.305 9  19846611.69549
  23781527.688 4  23781549.578 8 124972768.568 4  97381182.887 8  23781549.29346
  23203406.344 4  23203428.488 9 121934721.914 4  95013898.568 9  23203427.66046
 23  3 10  2 58 51.0000000  0  8G04G08G09G16G26G27G28G31            
  21260895.016 6  21260904.504 9 111726750.166 6  87059843.112 9  21260904.19548
  20976703.844 6  20976717.445 9 110233321.536 6  85896279.286 9  20976715.78149
  23447658.523 3  23447672.313 8 123218264.574 3  96014297.506 8  23447672.01247
  21193875.734 6                 111374561.093 6  86785401.10448  21193882.86348
  22599118.633 5  22599134.559 9 118759180.486 5  92539449.478 9  22599134.53147
  19846648.219 7  19846658.078 9 104294835.028 7  81268712.818 9  19846657.66049
  23782061.844 3  23782083.270 8 124975574.422 3  97383369.280 8  23782083.23446
  23203862.914 4  23203884.773 9 121937119.457 4  95015766.775 9  23203883.91047
 23  3 10  2 58 52.0000000  0  8G04G08G09G16G26G27G28G31            
  21260837.906 6  21260847.164 9 111726447.794 6  87059607.492 9  21260846.55148
  20976348.414 6  20976362.000 9 110231452.675 6  85894823.031 9  20976359.98849
  23447291.531 3  23447305.281 8 123216334.791 3  96012793.780 8  23447304.81347
  21194146.961 6                 111375988.063 6  86786513.03548  21194154.47348
  22599527.305 5  22599542.836 9 118761325.328 5  92541120.766 9  22599542.70347
  19846694.578 7  19846704.230 9 104295077.830 7  81268902.012 9  19846703.85549
  23782596.242 3  23782617.500 8 124978380.826 3  97385556.087 8  23782617.34446
  23204319.297 4  23204341.082 8 121939517.464 4  95017635.357 8  23204340.34047
 23  3 10  2 58 53.0000000  0  8G04G08G09G16G26G27G28G31            
  21260779.867 6  21260789.746 9 111726146.406 6  87059372.646 9  21260789.09448
  20975992.484 6  20976006.320 9 110229584.699 6  85893367.469 9  20976004.66449
  23446924.523 3  23446938.098 8 123214405.827 3  96011290.699 8  23446937.91847
  21194418.461 6                 111377415.516 6  86787625.33048  21194426.00448
  22599935.383 5  22599950.848 9 118763470.515 5  92542792.337 9  22599950.85247
  19846740.820 7  19846750.602 9 104295321.668 7  81269092.019 9  19846750.26249
  23783130.063 3  23783151.906 8 124981187.830 3  97387743.379 8  23783151.63346
  23204775.891 4  23204797.387 8 121941916.134 4  95019504.447 8  23204796.65247
 23  3 10  2 58 54.0000000  0  8G04G08G09G16G26G27G28G31            
  21260722.656 6  21260732.566 9 111725846.085 6  87059138.628 9  21260732.19948
  20975637.711 6  20975651.016 9 110227717.686 6  85891912.650 9  20975649.48049
  23446557.148 3  23446571.055 8 123212477.791 3  96009788.333 8  23446571.14547
  21194691.008 6                 111378843.536 6  86788738.07148  21194697.85548
  22600342.906 5  22600359.168 9 118765616.102 5  92544464.213 9  22600358.89147
  19846787.047 7  19846797.230 9 104295566.629 7  81269282.896 9  19846796.92249
  23783664.055 3  23783686.371 8 124983995.531 3  97389931.203 8  23783685.93445
  23205231.539 4  23205254.102 8 121944315.528 4  95021374.104 8  23205253.12946
 23  3 10  2 58 55.0000000  0  8G04G08G09G16G26G27G28G31            
  21260666.055 6  21260675.742 9 111725546.844 6  87058905.451 9  21260675.19548
  20975282.688 6  20975295.777 9 110225851.633 6  85890458.586 9  20975294.25449
  23446190.406 3  23446204.313 8 123210550.644 3  96008286.667 8  23446204.29747
  21194962.406 6                 111380272.160 6  86789851.27548  21194969.62148
  22600752.078 5  22600767.645 9 118767762.093 5  92546136.407 9  22600767.40247
  19846833.953 7  19846844.098 9 104295812.707 7  81269474.638 9  19846843.81649
  23784198.594 3  23784220.672 8 124986803.966 3  97392119.590 8  23784220.46945
  23205689.172 4  23205710.648 8 121946715.613 4  95023244.295 8  23205709.74246
 23  3 10  2 58 56.0000000  0  8G04G08G09G16G26G27G28G31            
  21260609.094 6  21260619.012 9 111725248.438 6  87058672.924 9  21260618.50447
  20974927.219 6  20974940.902 9 110223986.318 6  85889005.096 9  20974939.30949
  23445822.953 3  23445837.781 8 123208624.184 3  96006785.534 8  23445837.76647
  21195234.602 6                 111381701.076 6  86790964.71948  21195241.66448
  22601160.016 5  22601176.043 9 118769908.322 5  92547808.791 9  22601175.80947
  19846881.039 7  19846890.801 9 104296059.649 7  81269667.063 9  19846890.85549
  23784733.352 3  23784755.137 8 124989612.893 3  97394308.367 8  23784754.88346
  23206145.781 4  23206167.508 8 121949116.152 4  95025114.852 8  23206166.50447
 23  3 10  2 58 57.0000000  0  8G04G08G09G16G26G27G28G31            
  21260553.070 6  21260562.219 9 111724950.739 6  87058440.940 9  21260561.91448
  20974572.453 6  20974586.246 9 110222121.592 6  85887552.066 9  20974584.53949
  23445456.625 3  23445471.313 8 123206698.237 3  96005284.801 8  23445471.24247
  21195506.461 6                 111383130.206 6  86792078.32548  21195513.62548
  22601568.664 5  22601584.293 9 118772054.580 5  92549481.191 9  22601584.17647
  19846928.117 7  19846938.141 9 104296307.336 7  81269860.063 9  19846938.04749
  23785267.703 3  23785289.906 8 124992422.144 3  97396497.395 8  23785289.34846
  23206602.391 4  23206624.406 8 121951517.086 4  95026985.706 8  23206623.50447
 23  3 10  2 58 58.0000000  0  8G04G08G09G16G26G27G28G31            
  21260496.180 6  21260505.422 9 111724653.875 6  87058209.619 9  21260505.18848
  20974217.742 6  20974231.438 9 110220257.581 6  85886099.596 9  20974229.89149
  23445089.539 3  23445104.883 8 123204772.988 3  96003784.610 8  23445104.75847
  21195778.477 6                 111384559.666 6  86793192.19248  21195785.48848
  22601977.047 5  22601992.883 9 118774200.961 5  92551153.682 9  22601992.55947
  19846975.664 7  19846985.555 9 104296555.896 7  81270053.749 9  19846985.42649
  23785801.313 3  23785824.371 8 124995231.919 3  97398686.840 8  23785824.10246
  23207059.602 4  23207081.309 8 121953918.455 4  95028856.899 8  23207080.43446
 23  3 10  2 58 59.0000000  0  8G04G08G09G16G26G27G28G31            
  21260440.141 6  21260449.129 9 111724357.791 6  87057978.894 9  21260448.89848
  20973863.445 6  20973876.789 9 110218394.233 6  85884647.640 9  20973875.36349
  23444724.492 2  23444738.766 8 123202848.396 2  96002284.927 8  23444738.57447
  21196050.555 6                 111385989.398 6  86794306.26148  21196057.67248
  22602385.977 5  22602401.297 9 118776347.507 5  92552826.308 9  22602401.02347
  19847023.008 7  19847033.164 9 104296805.290 7  81270248.075 9  19847032.90649
  23786336.664 3  23786358.746 8 124998042.061 3  97400876.567 8  23786358.88745
  23207517.867 4  23207537.926 8 121956320.215 4  95030728.392 8  23207537.38747
 23  3 10  2 59  0.0000000  0  8G04G08G09G16G26G27G28G31            
  21260383.461 6  21260393.273 9 111724062.627 6  87057748.893 9  21260392.73448
  20973508.609 6  20973522.465 9 110216531.689 6  85883196.309 9  20973520.96549
  23444357.891 2  23444372.809 8 123200924.510 2  96000785.790 8  23444372.44547
  21196322.563 6                 111387419.558 6  86795420.67148  21196329.65248
  22602794.938 5  22602809.453 9 118778494.348 5  92554499.161 9  22602809.45747
  19847070.570 7  19847080.504 9 104297055.623 7  81270443.140 9  19847080.61749
  23786871.586 4  23786893.586 8 125000852.797 4  97403066.746 8  23786893.78546
  23207974.078 5  23207994.988 8 121958722.554 5  95032600.349 8  23207994.44946
 23  3 10  2 59  1.0000000  0  8G04G08G09G16G26G27G28G31            
  21260327.328 6  21260337.238 9 111723768.393 6  87057519.613 9  21260336.71548
  20973154.656 6  20973168.113 9 110214669.951 6  85881745.604 9  20973166.79749
  23443992.156 3  23444007.043 8 123199001.437 3  95999287.291 8  23444006.49647
  21196594.875 6                 111388850.112 6  86796535.38148  21196601.82448
  22603203.125 5  22603218.035 9 118780641.404 5  92556172.182 9  22603218.00847
  19847118.391 7  19847128.383 9 104297306.938 7  81270638.964 9  19847128.41049
  23787406.430 3  23787428.430 8 125003664.104 3  97405257.382 8  23787428.66045
  23208431.969 5  23208452.496 8 121961125.455 5  95034472.746 8  23208451.59047
 23  3 10  2 59  2.0000000  0  8G04G08G09G16G26G27G28G31            
  21260271.359 6  21260281.336 9 111723475.074 6  87057291.048 9  21260281.08248
  20972800.563 6  20972814.016 9 110212809.017 6  85880295.525 9  20972812.88749
  23443626.750 3  23443641.051 8 123197079.032 3  95997789.314 8  23443640.64147
  21196867.336 6                 111390281.090 6  86797650.42648  21196874.18448
  22603611.828 5  22603626.715 9 118782788.749 5  92557845.430 9  22603626.63747
  19847166.539 7  19847176.289 9 104297559.202 7  81270835.533 9  19847176.36749
  23787941.125 3  23787963.375 8 125006475.948 3  97407448.437 8  23787963.74645
  23208889.156 5  23208909.926 8 121963528.914 5  95036345.568 8  23208909.02046
 23  3 10  2 59  3.0000000  0  8G04G08G09G16G26G27G28G31            
  21260216.203 6  21260225.734 9 111723182.420 6  87057063.006 9  21260225.52348
  20972446.609 6  20972459.926 9 110210948.635 6  85878845.879 9  20972458.75049
  23443260.914 3  23443275.223 8 123195157.180 3  95996291.769 8  23443274.85247
  21197139.266 6                 111391712.218 6  86798765.59048  21197146.39148
  22604020.352 5  22604035.445 9 118784936.106 5  92559518.687 9  22604035.18047
  19847214.211 7  19847224.461 9 104297812.179 7  81271032.652 9  19847224.41849
  23788477.016 3  23788498.383 8 125009288.122 3  97409639.751 8  23788498.94945
  23209346.711 5  23209367.340 8 121965932.679 5  95038218.636 8  23209366.40647
 23  3 10  2 59  4.0000000  0  8G04G08G09G16G26G27G28G31            
  21260160.570 6  21260170.230 9 111722890.637 6  87056835.634 9  21260170.01248
  20972092.523 6  20972105.805 9 110209089.034 6  85877396.836 9  20972104.99249
  23442895.430 3  23442909.598 8 123193236.038 3  95994794.781 8  23442909.40647
  21197412.000 6                 111393143.719 6  86799881.04448  21197418.84848
  22604428.742 5  22604444.070 9 118787083.673 5  92561192.105 9  22604443.89847
  19847262.820 7  19847272.801 9 104298066.064 7  81271230.488 9  19847272.75449
  23789011.945 4  23789033.676 8 125012100.774 4  97411831.435 8  23789034.16445
  23209804.383 5  23209824.895 8 121968336.943 5  95040092.084 8  23209823.88346
 23  3 10  2 59  5.0000000  0  8G04G08G09G16G26G27G28G31            
  21260105.102 6  21260114.746 9 111722599.740 6  87056608.955 9  21260114.52748
  20971738.969 6  20971752.410 9 110207230.201 6  85875948.390 9  20971751.46549
  23442530.078 3  23442543.879 8 123191315.583 3  95993298.319 8  23442543.82447
  21197684.563 6                 111394575.599 6  86800996.78948  21197691.19948
  22604837.492 5  22604852.734 9 118789231.460 5  92562865.693 9  22604852.61747
  19847311.039 7  19847321.215 9 104298320.854 7  81271429.018 9  19847321.15249
  23789547.063 4  23789568.988 8 125014913.963 4  97414023.539 8  23789569.52745
  23210261.336 5  23210282.320 8 121970741.724 5  95041965.929 8  23210281.53946
 23  3 10  2 59  6.0000000  0  8G04G08G09G16G26G27G28G31            
  21260049.852 6  21260059.688 9 111722309.686 6  87056382.938 9  21260059.33648
  20971385.359 6  20971398.668 9 110205372.105 6  85874500.530 9  20971397.80949
  23442163.844 3  23442178.469 8 123189395.840 3  95991802.414 8  23442178.39547
  21197957.172 6                 111396007.835 6  86802112.80948  21197963.83648
  22605246.891 5  22605261.648 9 118791379.440 5  92564539.438 9  22605261.37547
  19847359.914 7  19847370.020 9 104298576.536 7  81271628.254 9  19847369.87949
  23790082.570 3  23790104.336 8 125017727.653 3  97416216.038 8  23790105.11746
  23210719.953 5  23210739.836 8 121973146.999 5  95043840.167 8  23210739.27046
 23  3 10  2 59  7.0000000  0  8G04G08G09G16G26G27G28G31            
  21259995.281 6  21260004.621 9 111722020.583 6  87056157.652 9  21260004.25448
  20971031.891 6  20971045.465 9 110203514.852 6  85873053.312 9  20971044.58649
  23441799.023 3  23441813.203 8 123187476.886 3  95990307.142 8  23441813.10547
  21198229.602 6                 111397440.489 6  86803229.15748  21198236.50048
  22605655.609 5  22605670.441 9 118793527.727 5  92566213.415 9  22605670.16447
  19847408.547 7  19847418.734 9 104298833.211 7  81271828.259 9  19847418.66449
  23790618.078 3  23790639.996 8 125020541.934 3  97418408.988 8  23790640.60246
  23211177.578 5  23211197.859 8 121975552.856 5  95045714.857 8  23211197.00846
 23  3 10  2 59  8.0000000  0  8G04G08G09G16G26G27G28G31            
  21259939.852 6  21259949.555 9 111721732.415 6  87055933.104 9  21259949.48448
  20970678.516 6  20970692.176 9 110201658.433 6  85871606.758 9  20970691.17249
  23441434.414 3  23441448.180 8 123185558.702 3  95988812.456 8  23441447.94947
  21198502.641 6                 111398873.577 6  86804345.84948  21198509.04748
  22606064.609 5  22606079.172 9 118795676.281 5  92567887.611 9  22606079.12147
  19847457.844 7  19847467.602 9 104299090.867 7  81272029.022 9  19847467.68849
  23791153.609 3  23791175.566 8 125023356.795 3  97420602.386 8  23791176.19146
  23211635.398 5  23211655.848 8 121977959.296 5  95047590.003 8  23211654.96946
 23  3 10  2 59  9.0000000  0  8G04G08G09G16G26G27G28G31            
  21259885.133 6  21259895.070 9 111721445.191 6  87055709.300 9  21259894.80548
  20970324.953 6  20970339.094 9 110199802.833 6  85870160.837 9  20970337.88749
  23441069.008 3  23441083.215 8 123183641.242 3  95987318.316 8  23441083.26247
  21198775.297 6                 111400307.111 6  86805462.88248  21198781.85548
  22606472.852 5  22606488.004 9 118797825.106 5  92569562.009 9  22606488.13347
  19847506.688 7  19847517.148 9 104299349.492 7  81272230.547 9  19847516.89849
  23791689.023 3  23791711.504 8 125026172.202 3  97422796.219 8  23791711.82046
  23212093.500 5  23212113.875 8 121980366.300 5  95049465.584 8  23212113.17646
 23  3 10  2 59 10.0000000  0  8G04G08G09G16G26G27G28G31            
  21259831.188 6  21259840.555 9 111721158.854 6  87055486.175 9  21259840.43848
  20969972.508 6  20969986.105 9 110197948.016 6  85868715.526 9  20969985.08649
  23440704.469 3  23440718.441 8 123181724.616 3  95985824.854 8  23440718.48047
  21199047.867 6                 111401741.010 6  86806580.20648  21199054.69548
  22606881.656 5  22606896.844 9 118799974.165 5  92571236.577 9  22606896.95347
  19847556.094 7  19847566.438 9 104299609.050 7  81272432.800 9  19847566.31349
  23792225.844 3  23792247.285 8 125028988.208 3  97424990.518 8  23792247.63746
  23212551.805 5  23212572.141 8 121982773.804 5  95051341.551 8  23212571.45747
 23  3 10  2 59 11.0000000  0  8G04G08G09G16G26G27G28G31            
  21259776.906 6  21259786.453 9 111720873.338 6  87055263.690 9  21259786.27048
  20969619.977 6  20969632.938 9 110196093.929 6  85867270.782 9  20969632.21549
  23440340.094 3  23440353.961 8 123179808.546 3  95984331.809 8  23440353.93047
  21199320.961 6                 111403175.252 6  86807697.79148  21199327.56348
  22607291.063 5  22607305.988 9 118802123.455 5  92572911.337 9  22607305.91047
  19847605.938 7  19847616.078 9 104299869.486 7  81272635.732 9  19847615.86749
  23792761.234 3  23792783.285 8 125031804.629 3  97427185.125 8  23792783.37146
  23213009.305 5  23213030.496 8 121985181.862 5  95053217.952 8  23213029.48847
 23  3 10  2 59 12.0000000  0  8G04G08G09G16G26G27G28G31            
  21259722.352 6  21259732.129 9 111720588.729 6  87055041.913 9  21259731.92248
  20969266.586 6  20969280.621 9 110194240.580 6  85865826.619 9  20969279.64149
  23439976.297 3  23439989.715 8 123177893.269 3  95982839.386 8  23439989.48047
  21199593.797 6                 111404609.858 6  86808815.66748  21199600.52048
  22607699.664 5  22607715.156 9 118804272.901 5  92574586.224 9  22607715.15247
  19847655.555 7  19847665.840 9 104300130.838 7  81272839.380 9  19847665.66849
  23793297.750 3  23793319.266 8 125034621.558 3  97429380.146 8  23793319.49646
  23213467.727 5  23213488.719 8 121987590.368 5  95055094.707 8  23213487.85247
 23  3 10  2 59 13.0000000  0  8G04G08G09G16G26G27G28G31            
  21259668.508 6  21259677.902 9 111720304.836 6  87054820.688 9  21259677.80548
  20968914.555 6  20968928.320 9 110192387.856 6  85864382.933 9  20968927.27049
  23439611.336 3  23439625.277 8 123175978.547 3  95981347.388 8  23439625.15647
  21199866.438 6                 111406044.690 6  86809933.70748  21199873.57448
  22608109.008 5  22608124.250 9 118806422.459 5  92576261.200 9  22608124.11747
  19847705.555 7  19847715.691 9 104300392.942 7  81273043.622 9  19847715.50449
  23793833.508 3  23793855.500 8 125037438.903 3  97431575.480 8  23793855.68445
  23213926.281 5  23213946.820 8 121989999.254 5  95056971.748 8  23213946.26247
 23  3 10  2 59 14.0000000  0  8G04G08G09G16G26G27G28G31            
  21259614.555 6  21259624.121 9 111720021.942 6  87054600.253 9  21259624.08648
  20968561.516 6  20968575.813 9 110190536.027 6  85862939.954 9  20968574.73849
  23439247.375 3  23439261.063 8 123174064.636 3  95979856.029 8  23439260.85247
  21200140.203 6                 111407480.011 6  86811052.13448  21200146.61748
  22608517.938 5  22608533.395 9 118808572.332 5  92577936.419 9  22608533.19947
  19847755.477 6  19847765.859 9 104300656.104 6  81273248.678 9  19847765.54349
  23794369.969 3  23794391.480 8 125040256.901 3  97433771.333 8  23794391.90645
  23214384.695 5  23214405.902 8 121992408.783 5  95058849.288 8  23214404.80147
 23  3 10  2 59 15.0000000  0  8G04G08G09G16G26G27G28G31            
  21259561.195 6  21259570.398 9 111719739.963 6  87054380.532 9  21259570.39548
  20968209.742 6  20968223.656 9 110188685.024 6  85861497.609 9  20968222.49649
  23438882.398 3  23438897.051 8 123172151.493 3  95978365.274 8  23438896.74647
  21200413.422 6                 111408915.742 6  86812170.88848  21200419.87148
  22608927.586 5  22608942.168 9 118810722.488 5  92579611.850 9  22608942.23847
  19847805.750 7  19847816.094 9 104300920.214 7  81273454.479 9  19847815.82449
  23794906.180 3  23794927.832 8 125043075.428 3  97435967.595 8  23794928.35245
  23214843.242 5  23214864.625 8 121994818.837 5  95060727.247 8  23214863.48846
 23  3 10  2 59 16.0000000  0  8G04G08G09G16G26G27G28G31            
  21259507.633 6  21259517.199 9 111719458.969 6  87054161.571 9  21259517.06348
  20967857.570 6  20967871.523 9 110186834.888 6  85860055.950 9  20967870.47349
  23438518.859 3  23438533.141 8 123170239.156 3  95976875.144 8  23438532.82447
  21200686.352 6                 111410351.952 6  86813290.01548  21200693.07048
  22609336.070 5  22609351.570 9 118812872.965 5  92581287.536 9  22609351.32847
  19847856.102 7  19847866.547 9 104301185.350 7  81273661.075 9  19847866.30549
  23795442.883 3  23795464.250 8 125045894.592 3  97438164.337 8  23795464.72745
  23215301.727 5  23215323.168 8 121997229.508 5  95062605.683 8  23215322.12947
 23  3 10  2 59 17.0000000  0  8G04G08G09G16G26G27G28G31            
  21259454.078 6  21259463.813 9 111719178.749 6  87053943.215 9  21259463.68448
  20967505.547 6  20967519.652 9 110184985.419 6  85858614.805 9  20967518.31649
  23438155.188 3  23438169.578 8 123168327.480 3  95975385.529 8  23438169.01647
  21200960.023 6                 111411788.429 6  86814409.34548  21200966.50048
  22609745.492 5  22609761.102 9 118815023.586 5  92582963.339 9  22609760.60947
  19847906.859 7  19847917.109 9 104301451.299 7  81273868.306 9  19847916.83249
  23795979.664 3  23796000.754 8 125048714.180 3  97440361.434 8  23796001.25446
  23215761.031 5  23215782.066 8 121999640.615 5  95064484.465 8  23215781.07446
 23  3 10  2 59 18.0000000  0  8G04G08G09G16G26G27G28G31            
  21259400.813 6  21259410.473 9 111718899.327 6  87053725.483 9  21259410.63348
  20967154.039 6  20967167.926 9 110183136.652 6  85857174.210 9  20967166.79349
  23437790.805 3  23437806.051 8 123166416.383 3  95973896.354 8  23437805.17247
  21201233.555 6                 111413225.197 6  86815528.90448  21201240.00048
  22610154.469 5  22610170.410 9 118817174.311 5  92584639.217 9  22610169.74647
  19847957.734 7  19847967.605 9 104301718.075 7  81274076.186 9  19847967.60249
  23796516.805 3  23796537.723 8 125051534.196 3  97442558.851 8  23796537.73045
  23216219.625 5  23216240.848 8 122002052.158 5  95066363.583 8  23216239.98046
 23  3 10  2 59 19.0000000  0  8G04G08G09G16G26G27G28G31            
  21259347.984 6  21259357.586 9 111718620.807 6  87053508.446 9  21259357.71548
  20966802.438 6  20966815.918 9 110181288.704 6  85855734.250 9  20966815.14549
  23437427.781 3  23437442.430 8 123164506.042 3  95972407.775 8  23437441.62947
  21201506.617 6                 111414662.345 6  86816648.75548  21201513.43448
  22610563.563 5  22610579.691 8 118819325.249 5  92586315.258 8  22610579.01247
  19848008.938 6  19848018.539 9 104301985.782 6  81274284.787 9  19848018.47749
  23797053.563 3  23797074.414 8 125054354.790 3  97444756.714 8  23797074.40245
  23216679.117 5  23216699.945 8 122004464.204 5  95068243.090 8  23216698.90247
 23  3 10  2 59 20.0000000  0  8G04G08G09G16G26G27G28G31            
  21259295.328 6  21259304.688 9 111718343.074 6  87053292.033 9  21259304.91048
  20966450.523 6  20966464.527 9 110179441.412 6  85854294.803 9  20966463.72349
  23437064.445 2  23437079.098 8 123162596.326 2  95970919.686 8  23437078.25447
  21201780.516 6                 111416099.782 6  86817768.82848  21201787.02748
  22610973.313 5  22610988.977 8 118821476.392 5  92587991.461 8  22610988.31647
  19848059.617 6  19848069.852 9 104302254.333 6  81274494.046 9  19848069.59049
  23797590.156 3  23797611.090 8 125057175.749 3  97446954.872 8  23797611.15246
  23217137.688 5  23217158.992 8 122006876.668 5  95070122.923 8  23217157.91446
 23  3 10  2 59 21.0000000  0  8G04G08G09G16G26G27G28G31            
  21259242.273 6  21259252.051 9 111718066.230 6  87053076.307 9  21259252.22348
  20966099.539 6  20966113.090 9 110177594.910 6  85852855.975 9  20966112.50049
  23436701.336 3  23436715.773 8 123160687.359 3  95969432.183 8  23436714.89147
  21202053.844 6                 111417537.615 6  86818889.21548  21202060.63748
  22611382.773 5  22611398.469 9 118823627.750 5  92589667.835 9  22611397.87147
  19848110.953 6  19848121.000 9 104302523.821 6  81274704.032 9  19848121.00049
  23798126.789 3  23798148.133 8 125059997.282 3  97449153.481 8  23798147.94946
  23217596.922 5  23217617.973 8 122009289.702 5  95072003.207 8  23217617.11346
 23  3 10  2 59 22.0000000  0  8G04G08G09G16G26G27G28G31            
  21259189.891 6  21259199.480 9 111717790.457 6  87052861.413 9  21259199.75448
  20965747.695 6  20965762.008 9 110175749.369 6  85851417.898 9  20965761.12949
  23436338.430 3  23436352.566 8 123158779.239 3  95967945.334 8  23436351.68847
  21202327.297 6                 111418975.985 6  86820010.01948  21202334.30548
  22611792.063 5  22611807.727 9 118825779.496 5  92591344.507 9  22611807.35547
  19848162.656 6  19848172.625 9 104302794.391 6  81274914.862 9  19848172.38349
  23798663.742 3  23798685.191 8 125062819.504 3  97451352.611 8  23798685.06646
  23218056.711 5  23218077.148 8 122011703.405 5  95073884.008 8  23218076.43046
 23  3 10  2 59 23.0000000  0  8G04G08G09G16G26G27G28G31            
  21259137.250 6  21259147.230 9 111717515.565 6  87052647.207 9  21259147.48048
  20965396.703 6  20965411.047 9 110173904.603 6  85849980.411 9  20965410.16449
  23435975.461 2  23435989.520 8 123156871.878 2  95966459.075 8  23435988.69147
  21202601.617 6                 111420414.749 6  86821131.12748  21202608.10948
  22612201.547 5  22612217.059 9 118827931.473 5  92593021.368 9  22612216.80547
  19848213.969 6  19848224.199 9 104303065.890 6  81275126.416 9  19848224.00849
  23799200.648 3  23799222.324 8 125065642.281 3  97453552.182 8  23799222.07446
  23218515.711 5  23218536.648 8 122014117.627 5  95075765.212 8  23218535.83646
 23  3 10  2 59 24.0000000  0  8G04G08G09G16G26G27G28G31            
  21259085.445 6  21259095.141 9 111717241.410 6  87052433.580 9  21259095.16848
  20965046.352 6  20965059.863 9 110172060.470 6  85848543.430 9  20965059.25049
  23435612.563 2  23435626.805 8 123154965.105 2  95964973.291 8  23435625.94947
  21202875.438 6                 111421853.729 6  86822252.40748  21202882.03148
  22612610.875 5  22612626.906 9 118830083.552 5  92594698.297 9  22612626.27047
  19848266.141 6  19848276.016 9 104303338.172 6  81275338.578 9  19848275.89849
  23799738.242 3  23799759.816 8 125068465.401 3  97455752.023 8  23799759.09846
  23218975.539 5  23218996.117 8 122016532.248 5  95077646.736 8  23218995.34446
 23  3 10  2 59 25.0000000  0  8G04G08G09G16G26G27G28G31            
  21259033.109 6  21259042.965 9 111716968.156 6  87052220.647 9  21259043.20748
  20964695.234 6  20964709.133 9 110170217.133 6  85847107.061 9  20964708.40649
  23435249.250 2  23435264.258 8 123153059.045 2  95963488.050 8  23435263.22347
  21203149.039 6                 111423293.097 6  86823373.98748  21203155.99248
  22613021.125 5  22613036.320 9 118832235.836 5  92596375.396 9  22613035.88347
  19848317.836 7  19848327.961 9 104303611.386 7  81275551.472 9  19848327.75449
  23800275.398 3  23800297.148 8 125071289.095 3  97457952.313 8  23800296.34446
  23219434.578 5  23219455.914 8 122018947.367 5  95079528.651 8  23219454.86346
 23  3 10  2 59 26.0000000  0  8G04G08G09G16G26G27G28G31            
  21258981.461 6  21258991.277 9 111716695.685 6  87052008.332 9  21258991.42248
  20964344.992 6  20964358.563 9 110168374.469 6  85845671.228 9  20964357.87149
  23434887.367 3  23434901.500 8 123151153.599 3  95962003.279 8  23434900.77347
  21203422.555 6                 111424732.748 6  86824495.78948  21203429.88748
  22613430.570 5  22613446.133 9 118834388.255 5  92598052.603 9  22613445.35947
  19848369.938 7  19848380.172 9 104303885.419 7  81275764.998 9  19848379.98449
  23800813.141 3  23800834.641 8 125074113.172 3  97460152.888 8  23800833.74246
  23219894.391 4  23219915.770 8 122021362.900 4  95081410.887 8  23219914.56647
 23  3 10  2 59 27.0000000  0  8G04G08G09G16G26G27G28G31            
  21258929.945 6  21258939.629 9 111716424.212 6  87051796.786 9  21258939.59048
  20963994.164 6  20964007.879 9 110166532.698 6  85844236.080 9  20964007.39849
  23434524.820 3  23434538.793 8 123149248.982 3  95960519.166 8  23434538.25847
  21203697.180 6                 111426172.876 6  86825617.96348  21203703.90248
  22613839.984 5  22613855.867 9 118836541.019 5  92599730.071 9  22613855.23847
  19848422.195 7  19848432.457 9 104304160.500 7  81275979.344 9  19848432.25049
  23801350.563 3  23801372.109 8 125076937.913 3  97462353.992 8  23801371.31346
  23220354.500 4  23220375.387 8 122023779.089 4  95083293.629 8  23220374.34046
 23  3 10  2 59 28.0000000  0  8G04G08G09G16G26G27G28G31            
  21258878.375 6  21258887.902 9 111716153.693 6  87051585.984 9  21258888.09048
  20963643.617 6  20963657.547 9 110164691.731 6  85842801.565 9  20963657.14149
  23434161.773 3  23434176.840 8 123147345.198 3  95959035.714 8  23434175.98447
  21203971.031 6                 111427613.458 6  86826740.49548  21203977.91848
  22614249.945 5  22614265.367 9 118838694.096 5  92601407.789 9  22614265.05147
  19848475.031 7  19848485.184 9 104304436.562 7  81276194.464 9  19848484.81349
  23801888.617 3  23801909.941 8 125079763.242 3  97464555.545 8  23801908.89146
  23220814.219 4  23220835.039 8 122026195.877 4  95085176.847 8  23220834.39846
 23  3 10  2 59 29.0000000  0  8G04G08G09G16G26G27G28G31            
  21258827.070 6  21258836.844 9 111715883.995 6  87051375.831 9  21258836.81648
  20963293.867 6  20963307.531 9 110162851.510 6  85841367.632 9  20963306.85249
  23433799.758 2  23433814.652 8 123145442.047 2  95957552.738 8  23433813.93447
  21204245.141 6                 111429054.361 6  86827863.28148  21204252.18848
  22614659.164 5  22614675.254 9 118840847.319 5  92603085.614 9  22614674.88347
  19848527.539 7  19848537.688 9 104304713.485 7  81276410.241 9  19848537.52049
  23802426.695 3  23802447.449 8 125082589.077 3  97466757.518 8  23802446.64546
  23221273.891 4  23221294.910 8 122028613.106 4  95087060.402 8  23221294.34846
 23  3 10  2 59 30.0000000  0  8G04G08G09G16G26G27G28G31            
  21258775.727 6  21258785.652 9 111715615.105 6  87051166.295 9  21258785.69948
  20962943.633 6  20962957.563 9 110161011.967 6  85839934.220 9  20962956.86749
  23433437.875 2  23433452.699 8 123143539.543 2  95956070.269 8  23433451.78947
  21204519.828 6                 111430495.569 6  86828986.29848  21204526.50848
  22615069.391 5  22615084.945 9 118843000.712 5  92604763.570 9  22615084.55547
  19848580.648 7  19848590.578 9 104304991.259 7  81276626.683 9  19848590.32849
  23802964.141 3  23802985.082 8 125085415.312 3  97468959.780 8  23802984.32045
  23221734.438 4  23221755.098 8 122031030.748 4  95088944.270 8  23221754.35246
 23  3 10  2 59 31.0000000  0  8G04G08G09G16G26G27G28G31            
  21258724.383 6  21258734.508 9 111715346.965 6  87050957.362 9  21258734.60247
  20962593.711 6  20962607.719 9 110159173.087 6  85838501.330 9  20962607.00049
  23433075.867 3  23433090.770 8 123141637.658 3  95954588.284 8  23433089.96147
  21204793.969 6                 111431937.016 6  86830109.50147  21204800.91047
  22615479.242 5  22615494.895 9 118845154.193 5  92606441.601 9  22615494.53547
  19848633.477 7  19848643.707 9 104305269.835 7  81276843.755 9  19848643.45749
  23803501.711 3  23803522.957 8 125088241.970 3  97471162.379 8  23803522.43846
  23222195.008 4  23222215.102 8 122033448.809 4  95090828.479 8  23222214.45346
 23  3 10  2 59 32.0000000  0  8G04G08G09G16G26G27G28G31            
  21258673.984 6  21258683.977 9 111715079.813 6  87050749.190 9  21258683.81348
  20962244.219 6  20962257.906 9 110157335.063 6  85837069.096 9  20962257.44949
  23432714.297 3  23432729.301 8 123139736.582 3  95953106.925 8  23432728.41447
  21205068.141 6                 111433378.938 6  86831233.06148  21205075.18048
  22615889.039 5  22615904.766 9 118847308.014 5  92608119.890 9  22615904.45747
  19848686.672 7  19848697.008 9 104305549.421 7  81277061.610 9  19848696.45749
  23804040.055 3  23804060.922 8 125091069.221 3  97473365.432 8  23804060.32446
  23222655.125 4  23222675.051 8 122035867.498 4  95092713.174 8  23222674.60946
 23  3 10  2 59 33.0000000  0  8G04G08G09G16G26G27G28G31            
  21258623.469 6  21258633.156 9 111714813.504 6  87050541.675 9  21258632.98048
  20961894.109 6  20961908.250 9 110155497.791 6  85835637.456 9  20961907.63349
  23432353.328 3  23432367.660 8 123137836.191 3  95951626.096 8  23432366.77047
  21205342.656 6                 111434821.196 6  86832356.90448  21205349.66048
  22616299.453 5  22616314.734 9 118849462.004 5  92609798.315 9  22616314.38747
  19848740.172 7  19848750.242 9 104305829.891 7  81277280.159 9  19848749.96149
  23804578.195 2  23804598.973 8 125093896.986 2  97475568.891 8  23804598.30146
  23223115.305 4  23223135.316 8 122038286.639 4  95094598.223 8  23223135.01247
 23  3 10  2 59 34.0000000  0  8G04G08G09G16G26G27G28G31            
  21258572.648 6  21258582.727 9 111714548.214 6  87050334.955 9  21258582.30948
  20961544.734 6  20961558.770 9 110153661.407 6  85834206.511 9  20961558.31649
  23431991.344 3  23432006.172 8 123135936.580 3  95950145.885 8  23432005.22747
  21205617.313 6                 111436263.954 6  86833481.12748  21205624.35248
  22616709.156 5  22616724.766 9 118851616.360 5  92611477.017 9  22616724.34447
  19848793.906 7  19848803.867 9 104306111.412 7  81277499.520 9  19848803.46149
  23805116.570 3  23805137.027 8 125096725.393 3  97477772.850 8  23805136.48446
  23223575.766 4  23223595.938 8 122040706.440 4  95096483.788 8  23223595.62546
 23  3 10  2 59 35.0000000  0  8G04G08G09G16G26G27G28G31            
  21258522.133 6  21258532.223 9 111714283.805 6  87050128.915 9  21258532.06648
  20961195.367 6  20961209.574 9 110151825.806 6  85832776.169 9  20961209.15249
  23431630.500 3  23431644.383 8 123134037.801 3  95948666.320 8  23431643.95747
  21205891.898 6                 111437707.094 6  86834605.65848  21205899.04348
  22617119.344 5  22617134.781 9 118853770.962 5  92613155.922 9  22617134.38747
  19848847.609 7  19848857.785 9 104306393.864 7  81277719.611 9  19848857.25849
  23805654.836 3  23805675.391 8 125099554.328 3  97479977.218 8  23805674.77346
  23224037.211 4  23224056.832 8 122043126.760 4  95098369.752 8  23224056.18846
 23  3 10  2 59 36.0000000  0  8G04G08G09G16G26G27G28G31            
  21258472.453 6  21258482.270 9 111714020.297 6  87049923.589 9  21258482.12548
  20960846.234 6  20960860.340 9 110149991.001 6  85831346.460 9  20960859.90649
  23431268.758 3  23431283.133 8 123132139.716 3  95947187.278 8  23431282.75047
  21206166.570 6                 111439150.627 6  86835730.47948  21206173.99648
  22617529.242 5  22617544.887 9 118855925.753 5  92614834.968 9  22617544.54747
  19848901.586 7  19848911.449 9 104306677.225 7  81277940.408 9  19848911.12149
  23806192.719 3  23806213.605 8 125102383.807 3  97482182.014 8  23806213.34846
  23224496.602 4  23224517.457 8 122045547.630 4  95100256.137 8  23224516.94946
 23  3 10  2 59 37.0000000  0  8G04G08G09G16G26G27G28G31            
  21258422.320 6  21258432.387 9 111713757.683 6  87049718.948 9  21258432.14848
  20960497.180 6  20960511.422 9 110148157.000 6  85829917.369 9  20960510.96549
  23430907.930 3  23430922.281 8 123130242.347 3  95945708.807 8  23430921.65247
  21206441.117 6                 111440594.567 6  86836855.61748  21206448.77048
  22617939.531 5  22617955.063 9 118858080.852 5  92616514.258 9  22617954.83647
  19848955.539 7  19848965.727 9 104306961.549 7  81278161.960 9  19848965.24249
  23806731.211 3  23806752.547 8 125105213.867 3  97484387.254 8  23806751.85246
  23224957.813 4  23224978.184 8 122047969.034 4  95102142.943 8  23224977.62546
 23  3 10  2 59 38.0000000  0  8G04G08G09G16G26G27G28G31            
  21258372.742 6  21258382.453 9 111713495.672 6  87049514.785 9  21258382.21948
  20960148.211 6  20960162.465 9 110146323.514 6  85828488.682 9  20960162.01649
  23430546.828 3  23430561.242 8 123128345.457 3  95944230.711 8  23430560.72347
  21206716.180 6                 111442038.577 6  86837980.82448  21206723.51248
  22618349.055 5  22618365.246 9 118860235.883 5  92618193.488 9  22618364.92647
  19849009.859 7  19849019.996 9 104307246.497 7  81278384.002 9  19849019.32449
  23807269.484 3  23807291.129 8 125108044.128 3  97486592.653 8  23807290.39546
  23225418.852 4  23225438.965 8 122050390.674 4  95104029.940 8  23225438.43046
 23  3 10  2 59 39.0000000  0  8G04G08G09G16G26G27G28G31            
  21258323.000 6  21258332.656 9 111713234.676 6  87049311.411 9  21258332.54348
  20959799.703 6  20959813.801 9 110144490.944 6  85827060.709 9  20959813.34849
  23430186.000 3  23430200.629 8 123126449.395 3  95942753.252 8  23430199.93847
  21206991.125 6                 111443483.130 6  86839106.44148  21206998.16448
  22618759.789 5  22618775.359 9 118862391.242 5  92619872.975 9  22618775.08647
  19849064.516 7  19849074.066 9 104307532.524 7  81278606.879 9  19849073.87549
  23807808.797 3  23807829.781 8 125110875.066 3  97488798.583 8  23807829.16046
  23225879.680 4  23225899.902 8 122052812.958 4  95105917.425 8  23225899.17246
 23  3 10  2 59 40.0000000  0  8G04G08G09G16G26G27G28G31            
  21258273.813 6  21258283.195 9 111712974.674 6  87049108.803 9  21258283.00048
  20959450.977 6  20959464.969 9 110142659.224 6  85825633.391 9  20959464.79749
  23429824.969 3  23429840.027 8 123124554.171 3  95941276.464 8  23429839.41047
  21207266.086 6                 111444928.122 6  86840232.40648  21207272.96148
  22619169.742 5  22619185.453 9 118864546.930 5  92621552.724 9  22619185.39147
  19849118.875 7  19849128.863 9 104307819.539 7  81278830.525 9  19849128.35949
  23808346.945 3  23808368.332 8 125113706.588 3  97491004.970 8  23808367.98846
  23226340.563 4  23226360.844 8 122055235.854 4  95107805.384 8  23226360.09446
 23  3 10  2 59 41.0000000  0  8G04G08G09G16G26G27G28G31            
  21258224.164 6  21258233.520 9 111712715.622 6  87048906.942 9  21258233.73048
  20959102.555 6  20959116.949 9 110140828.346 6  85824206.730 9  20959116.49649
  23429464.148 3  23429479.563 8 123122659.718 3  95939800.265 8  23429478.95747
  21207541.250 6                 111446373.571 6  86841358.73248  21207547.97748
  22619579.938 5  22619595.809 9 118866702.935 5  92623232.722 9  22619595.57447
  19849173.602 7  19849183.465 9 104308107.576 7  81279054.965 9  19849183.12949
  23808886.141 3  23808907.598 8 125116538.745 3  97493211.846 8  23808907.02045
  23226802.352 4  23226821.930 8 122057659.380 4  95109693.854 8  23226821.23846
 23  3 10  2 59 42.0000000  0  8G04G08G09G16G26G27G28G31            
  21258174.664 6  21258184.809 9 111712457.181 6  87048705.558 9  21258184.55947
  20958754.328 6  20958768.586 9 110138997.959 6  85822780.463 9  20958768.18449
  23429103.930 3  23429118.980 8 123120765.689 3  95938324.404 8  23429118.57847
  21207816.094 6                 111447819.115 6  86842485.13148  21207823.17648
  22619989.680 5  22620006.234 9 118868858.880 5  92624912.672 9  22620005.91447
  19849228.867 7  19849238.457 9 104308396.258 7  81279279.920 9  19849238.14149
  23809424.953 3  23809446.633 8 125119371.167 3  97495418.929 8  23809446.00045
  23227262.977 4  23227283.102 8 122060083.080 4  95111582.443 8  23227282.50846
 23  3 10  2 59 43.0000000  0  8G04G08G09G16G26G27G28G31            
  21258125.898 6  21258135.531 9 111712199.655 6  87048504.881 9  21258135.46547
  20958406.258 6  20958420.316 9 110137168.354 6  85821354.800 9  20958419.82849
  23428745.039 3  23428759.164 8 123118872.437 3  95936849.133 8  23428758.31347
  21208091.563 6                 111449265.069 6  86843611.83648  21208098.38348
  22620400.492 5  22620416.266 9 118871015.099 5  92626592.828 9  22620416.25047
  19849283.719 7  19849293.555 9 104308685.856 7  81279505.579 9  19849293.16849
  23809964.719 3  23809985.883 8 125122204.080 3  97497626.400 8  23809985.17645
  23227724.398 4  23227744.160 8 122062507.385 4  95113471.506 8  23227743.73846
 23  3 10  2 59 44.0000000  0  8G04G08G09G16G26G27G28G31            
  21258077.266 6  21258086.605 9 111711942.898 6  87048304.809 9  21258086.65247
  20958057.922 6  20958072.199 9 110135339.451 6  85819929.681 9  20958072.07049
  23428384.563 3  23428398.688 8 123116979.798 3  95935374.349 8  23428398.27047
  21208366.469 6                 111450711.277 6  86844738.74947  21208373.61347
  22620810.469 5  22620826.527 9 118873171.421 5  92628273.074 9  22620826.48447
  19849339.008 7  19849348.848 9 104308976.287 7  81279731.889 9  19849348.37149
  23810503.852 3  23810524.715 8 125125037.460 3  97499834.222 8  23810524.16046
  23228186.297 4  23228205.598 8 122064932.107 4  95115360.894 8  23228205.11346
 23  3 10  2 59 45.0000000  0  8G04G08G09G16G26G27G28G31            
  21258028.586 6  21258038.203 9 111711687.003 6  87048105.405 9  21258037.89848
  20957710.586 6  20957724.555 9 110133511.299 6  85818505.149 9  20957724.03549
  23428023.781 3  23428038.848 8 123115087.907 3  95933900.149 8  23428038.23847
  21208641.336 6                 111452157.834 6  86845865.93847  21208648.92247
  22621221.102 5  22621236.988 9 118875327.945 5  92629953.479 9  22621237.09447
  19849394.531 7  19849404.191 9 104309267.622 7  81279958.903 9  19849403.78949
  23811042.367 3  23811064.063 8 125127871.319 3  97502042.435 8  23811063.29346
  23228647.844 4  23228667.195 8 122067357.297 4  95117250.644 8  23228666.58646
 23  3 10  2 59 46.0000000  0  8G04G08G09G16G26G27G28G31            
  21257979.547 6  21257989.535 9 111711431.849 6  87047906.583 9  21257989.19948
  20957362.445 6  20957376.781 9 110131683.759 6  85817081.097 9  20957376.35549
  23427663.477 3  23427678.836 8 123113196.559 3  95932426.364 8  23427678.42647
  21208917.195 6                 111453604.638 6  86846993.31347  21208924.34047
  22621631.313 5  22621647.281 9 118877484.557 5  92631633.944 9  22621647.30147
  19849450.320 7  19849459.820 9 104309559.723 7  81280186.512 9  19849459.36749
  23811581.664 4  23811603.531 8 125130705.560 4  97504250.938 8  23811602.74646
  23229109.289 4  23229128.789 8 122069782.879 4  95119140.688 8  23229128.30146
 23  3 10  2 59 47.0000000  0  8G04G08G09G16G26G27G28G31            
  21257931.172 6  21257941.160 9 111711177.631 6  87047708.486 9  21257940.95348
  20957014.953 6  20957029.289 9 110129857.068 6  85815657.698 9  20957028.66849
  23427304.211 3  23427318.910 8 123111305.973 3  95930953.186 8  23427318.80947
  21209192.398 6                 111455051.874 6  86848121.03148  21209199.66848
  22622041.672 5  22622057.547 9 118879641.468 5  92633314.637 9  22622057.82047
  19849505.914 7  19849515.703 9 104309852.814 7  81280414.895 9  19849514.94549
  23812120.828 3  23812143.027 8 125133540.388 3  97506459.896 8  23812142.17246
  23229571.344 4  23229590.523 8 122072208.995 4  95121031.171 8  23229589.84046
 23  3 10  2 59 48.0000000  0  8G04G08G09G16G26G27G28G31            
  21257883.109 6  21257892.867 9 111710924.367 6  87047511.132 9  21257892.87148
  20956667.211 6  20956681.629 9 110128031.233 6  85814234.971 9  20956681.46149
  23426945.156 3  23426958.848 8 123109416.172 3  95929480.611 8  23426959.22747
  21209468.156 6                 111456499.541 6  86849249.07748  21209475.09048
  22622452.453 5  22622468.277 9 118881798.636 5  92634995.541 9  22622468.30147
  19849561.820 7  19849571.559 9 104310146.896 7  81280644.043 9  19849571.10249
  23812660.320 4  23812682.863 8 125136375.790 4  97508669.300 8  23812681.76646
  23230032.359 4  23230052.176 8 122074635.759 4  95122922.153 8  23230051.62546
 23  3 10  2 59 49.0000000  0  8G04G08G09G16G26G27G28G31            
  21257835.461 6  21257844.871 9 111710672.206 6  87047314.642 9  21257844.88748
  20956320.422 6  20956334.473 9 110126206.360 6  85812812.988 9  20956334.07049
  23426585.273 3  23426599.527 8 123107527.322 3  95928008.789 8  23426599.61747
  21209743.633 6                 111457947.819 6  86850377.60048  21209750.85548
  22622862.977 5  22622878.910 9 118883956.234 5  92636676.780 9  22622878.96547
  19849618.156 7  19849627.734 9 104310442.081 7  81280874.059 9  19849627.21149
  23813200.742 4  23813222.566 8 125139211.967 4  97510879.319 8  23813221.65246
  23230494.000 4  23230514.273 8 122077063.191 4  95124813.669 8  23230513.58646
 23  3 10  2 59 50.0000000  0  8G04G08G09G16G26G27G28G31            
  21257787.141 6  21257797.281 9 111710420.857 6  87047118.786 9  21257796.91848
  20955973.273 6  20955987.449 9 110124382.232 6  85811391.594 9  20955986.84849
  23426225.492 3  23426239.949 8 123105639.121 3  95926537.470 8  23426240.24247
  21210019.273 6                 111459396.404 6  86851506.36148  21210026.55148
  22623273.742 5  22623289.309 9 118886114.028 5  92638358.172 9  22623289.53947
  19849674.305 7  19849684.113 9 104310738.160 7  81281104.766 9  19849683.59449
  23813740.180 4  23813762.387 8 125142048.583 4  97513089.674 8  23813761.54346
  23230956.109 4  23230976.207 8 122079491.107 4  95126705.546 8  23230975.87946
 23  3 10  2 59 51.0000000  0  8G04G08G09G16G26G27G28G31            
  21257739.703 6  21257749.465 9 111710170.380 6  87046923.601 9  21257749.15248
  20955626.305 6  20955640.184 9 110122558.849 6  85809970.781 9  20955640.00849
  23425866.594 3  23425880.910 8 123103751.634 3  95925066.709 8  23425881.11347
  21210295.031 6                 111460845.338 6  86852635.39648  21210302.36348
  22623684.664 5  22623700.102 9 118888272.010 5  92640039.704 9  22623700.21547
  19849730.688 7  19849740.535 9 104311035.126 7  81281336.168 9  19849740.17649
  23814279.711 4  23814302.320 8 125144885.691 4  97515300.408 8  23814301.40646
  23231418.086 4  23231438.684 8 122081919.523 4  95128597.821 8  23231437.95746
 23  3 10  2 59 52.0000000  0  8G04G08G09G16G26G27G28G31            
  21257692.266 6  21257702.195 9 111709920.968 6  87046729.256 9  21257701.95348
  20955279.258 6  20955293.449 9 110120736.434 6  85808550.713 9  20955293.18049
  23425507.891 3  23425522.207 8 123101865.045 3  95923596.642 8  23425522.18047
  21210570.781 6                 111462294.830 6  86853764.86548  21210578.20348
  22624094.586 5  22624110.977 9 118890430.417 5  92641721.564 9  22624111.07047
  19849787.438 7  19849797.082 9 104311333.196 7  81281568.439 9  19849796.81649
  23814819.805 4  23814842.500 8 125147723.522 4  97517511.717 8  23814841.64146
  23231880.289 4  23231900.996 8 122084348.639 4  95130490.645 8  23231900.30146
 23  3 10  2 59 53.0000000  0  8G04G08G09G16G26G27G28G31            
  21257644.813 6  21257654.813 9 111709672.392 6  87046535.561 9  21257654.47348
  20954932.867 6  20954946.824 9 110118914.728 6  85807131.204 9  20954946.53549
  23425149.469 3  23425163.191 8 123099979.094 3  95922127.077 8  23425163.46947
  21210846.406 6                 111463744.675 6  86854894.62547  21210854.34047
  22624505.344 5  22624521.832 9 118892589.015 5  92643403.579 9  22624521.93447
  19849844.656 7  19849854.063 9 104311632.136 7  81281801.375 9  19849853.81649
  23815361.391 4  23815382.664 8 125150561.831 4  97519723.391 8  23815382.05546
  23232343.273 4  23232363.496 8 122086778.282 4  95132383.876 8  23232362.75046
 23  3 10  2 59 54.0000000  0  8G04G08G09G16G26G27G28G31            
  21257598.000 6  21257607.570 9 111709424.641 6  87046342.505 9  21257607.35948
  20954586.313 6  20954600.398 9 110117093.722 6  85805712.246 9  20954599.81649
  23424790.406 3  23424804.488 8 123098093.886 3  95920658.086 8  23424804.73047
  21211122.492 6                 111465194.793 6  86856024.57847  21211130.41447
  22624916.305 5  22624932.625 9 118894747.776 5  92645085.728 9  22624932.80147
  19849901.359 7  19849911.199 9 104311931.948 7  81282034.989 9  19849910.82849
  23815900.305 4  23815922.922 8 125153400.608 4  97521935.429 8  23815922.34046
  23232804.852 4  23232825.441 8 122089208.291 4  95134277.398 8  23232825.24246
 23  3 10  2 59 55.0000000  0  8G04G08G09G16G26G27G28G31            
  21257550.477 6  21257560.656 9 111709177.732 6  87046150.105 9  21257560.52047
  20954240.172 6  20954254.020 9 110115273.445 6  85804293.847 9  20954253.40249
  23424431.930 3  23424445.781 8 123096209.347 3  95919189.608 8  23424446.01247
  21211397.984 6                 111466645.292 6  86857154.82847  21211406.40647
  22625327.305 5  22625343.375 9 118896906.694 5  92646767.997 9  22625343.74247
  19849958.633 7  19849968.551 9 104312232.632 7  81282269.288 9  19849967.97749
  23816441.570 4  23816463.371 8 125156239.813 4  97524147.803 8  23816462.74645
  23233267.555 4  23233287.715 8 122091638.835 4  95136171.325 8  23233287.71946
 23  3 10  2 59 56.0000000  0  8G04G08G09G16G26G27G28G31            
  21257504.203 6  21257513.781 9 111708931.629 6  87045958.333 9  21257513.62547
  20953893.430 6  20953907.824 9 110113453.870 6  85802875.993 9  20953907.18449
  23424072.953 2  23424087.078 8 123094325.406 2  95917721.604 8  23424087.57447
  21211674.727 6                 111468096.046 6  86858285.28248  21211682.35948
  22625738.500 5  22625754.512 9 118899065.799 5  92648450.406 9  22625754.77047
  19850016.219 7  19850025.969 9 104312534.165 7  81282504.249 9  19850025.39149
  23816981.625 3  23817003.727 8 125159079.533 3  97526360.578 8  23817003.07445
  23233730.422 4  23233750.516 8 122094069.794 4  95138065.577 8  23233750.19146
 23  3 10  2 59 57.0000000  0  8G04G08G09G16G26G27G28G31            
  21257457.383 6  21257467.078 9 111708686.330 6  87045767.186 9  21257466.89547
  20953547.328 6  20953561.504 9 110111634.965 6  85801458.674 9  20953561.03149
  23423714.656 3  23423728.863 8 123092442.133 3  95916254.134 8  23423729.39847
  21211950.195 6                 111469547.111 6  86859415.98047  21211958.57447
  22626148.953 5  22626165.133 9 118901225.013 5  92650132.897 9  22626165.72747
  19850074.055 7  19850083.426 9 104312836.532 7  81282739.858 9  19850082.83249
  23817522.109 4  23817544.078 8 125161919.670 4  97528573.675 8  23817543.49246
  23234192.891 4  23234213.574 8 122096501.219 4  95139960.200 8  23234212.92646
 23  3 10  2 59 58.0000000  0  8G04G08G09G16G26G27G28G31            
  21257410.086 6  21257420.969 9 111708441.829 6  87045576.665 9  21257420.40248
  20953201.313 6  20953215.414 9 110109816.818 6  85800041.929 9  20953215.02049
  23423355.727 2  23423370.727 8 123090559.523 2  95914787.173 8  23423371.12947
  21212226.828 6                 111470998.480 6  86860546.90847  21212234.57847
  22626559.945 5  22626575.969 9 118903384.423 5  92651815.550 9  22626576.62547
  19850131.219 7  19850141.375 9 104313139.762 7  81282976.139 9  19850140.71949
  23818062.313 3  23818084.656 8 125164760.306 3  97530787.170 8  23818084.23445
  23234655.352 4  23234676.324 8 122098933.066 4  95141855.144 8  23234675.77746
 23  3 10  2 59 59.0000000  0  8G04G08G09G16G26G27G28G31            
  21257364.344 6  21257374.434 9 111708198.184 6  87045386.813 9  21257374.04348
  20952855.773 6  20952869.473 9 110107999.345 6  85798625.714 9  20952869.07049
  23422997.719 2  23423012.508 8 123088677.583 2  95913320.730 8  23423013.05147
  21212503.023 6                 111472450.172 6  86861678.09148  21212510.85248
  22626971.172 5  22626987.109 9 118905543.952 5  92653498.287 9  22626987.69147
  19850189.383 7  19850198.984 9 104313443.847 7  81283213.092 9  19850198.53549
  23818603.242 4  23818625.375 8 125167601.390 4  97533000.981 8  23818624.89846
  23235118.703 4  23235138.828 8 122101365.380 4  95143750.453 8  23235138.60946
 23  3 10  3  0  0.0000000  0  8G04G08G09G16G26G27G28G31            
  21257318.164 6  21257327.793 9 111707955.440 6  87045197.647 9  21257327.83247
  20952510.023 6  20952524.043 9 110106182.712 6  85797210.168 9  20952523.38749
  23422639.555 2  23422654.570 8 123086796.382 2  95911854.850 8  23422654.99647
  21212779.344 6                 111473902.257 6  86862809.57947  21212787.19147
  22627382.305 5  22627398.359 9 118907703.764 5  92655181.263 9  22627398.64147
  19850247.344 7  19850257.121 9 104313748.874 7  81283450.774 9  19850256.46549
  23819144.328 3  23819166.344 8 125170443.017 3  97535215.240 8  23819165.65646
  23235581.320 4  23235601.859 8 122103798.271 4  95145646.213 8  23235601.78946
 23  3 10  3  0  1.0000000  0  8G04G08G09G16G26G27G28G31            
  21257271.977 6  21257281.793 9 111707713.502 6  87045009.116 9  21257281.92647
  20952164.484 6  20952178.270 9 110104366.765 6  85795795.145 9  20952177.76649
  23422282.609 3  23422297.129 8 123084915.835 3  95910389.494 8  23422297.00847
  21213055.625 6                 111475354.627 6  86863941.29848  21213063.57048
  22627793.266 5  22627809.566 9 118909863.740 5  92656864.353 9  22627809.74247
  19850305.656 7  19850315.137 9 104314054.756 7  81283689.123 9  19850314.74649
  23819684.594 3  23819707.141 8 125173285.087 3  97537429.850 8  23819706.59446
  23236044.313 3  23236065.168 8 122106231.568 3  95147542.292 8  23236064.87146
 23  3 10  3  0  2.0000000  0  8G04G08G09G16G26G27G28G31            
  21257226.195 6  21257236.070 9 111707472.391 6  87044821.238 9  21257236.05948
  20951819.180 6  20951832.871 9 110102551.539 6  85794380.680 9  20951832.26649
  23421924.930 3  23421938.883 8 123083035.944 3  95908924.639 8  23421939.35247
  21213332.242 6                 111476807.346 6  86865073.27748  21213340.05548
  22628203.977 5  22628220.566 9 118912023.875 5  92658547.566 9  22628220.95747
  19850364.039 7  19850373.426 9 104314361.498 7  81283928.133 9  19850373.11749
  23820226.203 3  23820247.859 8 125176127.598 3  97539644.794 8  23820247.61746
  23236507.383 3  23236528.418 8 122108665.321 3  95149438.727 8  23236528.02746
 23  3 10  3  0  3.0000000  0  8G04G08G09G16G26G27G28G31            
  21257180.508 6  21257190.738 9 111707232.233 6  87044634.101 9  21257190.19948
  20951473.688 6  20951487.488 9 110100737.187 6  85792966.899 9  20951486.87549
  23421567.789 3  23421581.270 8 123081156.873 3  95907460.432 8  23421581.94548
  21213608.742 6                 111478260.497 6  86866205.60748  21213616.53548
  22628614.977 5  22628631.758 9 118914184.304 5  92660231.009 9  22628632.06647
  19850422.406 7  19850432.148 9 104314669.238 7  81284167.930 9  19850431.64849
  23820766.563 3  23820789.000 8 125178970.718 3  97541860.222 8  23820788.59846
  23236970.781 4  23236991.594 8 122111099.709 4  95151335.651 8  23236991.39546
 23  3 10  3  0  4.0000000  0  8G04G08G09G16G26G27G28G31            
  21257134.852 6  21257144.852 9 111706992.961 6  87044447.646 9  21257144.63747
  20951128.742 6  20951142.340 9 110098923.557 6  85791553.680 9  20951141.71549
  23421210.484 3  23421223.910 8 123079278.457 3  95905996.719 8  23421224.64848
  21213885.797 6                 111479713.978 6  86867338.18547  21213893.07447
  22629026.375 5  22629042.742 9 118916344.942 5  92661914.617 9  22629043.16047
  19850481.133 7  19850490.887 9 104314977.879 7  81284408.420 9  19850490.38749
  23821307.242 4  23821330.086 8 125181814.391 4  97544076.071 8  23821329.75046
  23237433.539 4  23237455.027 8 122113534.534 4  95153232.918 8  23237454.69946
 23  3 10  3  0  5.0000000  0  8G04G08G09G16G26G27G28G31            
  21257089.469 6  21257099.492 9 111706754.546 6  87044261.863 9  21257099.32047
  20950783.516 6  20950797.641 9 110097110.738 6  85790141.092 9  20950796.77349
  23420853.570 3  23420866.453 8 123077400.803 3  95904533.606 8  23420867.34847
  21214162.188 6                 111481167.866 6  86868471.08847  21214169.63747
  22629437.367 5  22629454.000 9 118918505.796 5  92663598.383 9  22629454.48847
  19850540.086 7  19850549.746 9 104315287.422 7  81284649.627 9  19850549.37149
  23821848.227 4  23821871.102 8 125184658.532 4  97546292.293 8  23821871.04346
  23237897.156 4  23237918.637 8 122115969.912 4  95155130.613 8  23237918.09446
 23  3 10  3  0  6.0000000  0  8G04G08G09G16G26G27G28G31            
  21257044.508 6  21257054.496 9 111706516.981 6  87044076.751 9  21257054.06347
  20950438.844 6  20950452.813 9 110095298.628 6  85788729.056 9  20950451.85249
  23420496.117 4  23420509.219 8 123075523.822 4  95903071.026 8  23420510.19147
  21214438.875 6                 111482622.075 6  86869604.23647  21214446.32847
  22629848.883 5  22629865.074 9 118920666.854 5  92665282.313 9  22629865.53547
  19850599.203 7  19850608.980 9 104315597.860 7  81284891.525 9  19850608.46549
  23822390.336 3  23822412.613 8 125187503.198 3  97548508.917 8  23822412.29346
  23238361.289 3  23238382.242 8 122118405.805 3  95157028.708 8  23238381.69546
 23  3 10  3  0  7.0000000  0  8G04G08G09G16G26G27G28G31            
  21256999.438 6  21257009.191 9 111706280.295 6  87043892.316 9  21257009.04347
  20950094.313 6  20950107.945 9 110093487.285 6  85787317.623 9  20950107.11349
  23420139.406 4  23420152.277 8 123073647.574 4  95901609.002 8  23420153.10547
  21214715.570 6                 111484076.643 6  86870737.65447  21214723.22347
  22630260.055 5  22630276.547 9 118922828.127 5  92666966.407 9  22630276.82847
  19850658.547 7  19850668.156 9 104315909.218 7  81285134.138 9  19850667.79749
  23822931.289 3  23822954.039 8 125190348.364 3  97550725.937 8  23822953.72746
  23238824.328 4  23238845.512 8 122120842.174 4  95158927.183 8  23238845.26646
 23  3 10  3  0  8.0000000  0  8G04G08G09G16G26G27G28G31            
  21256954.563 6  21256964.504 9 111706044.571 6  87043708.627 9  21256964.25847
  20949749.758 6  20949763.500 9 110091676.792 6  85785906.854 9  20949762.42249
  23419781.969 4  23419795.590 8 123071772.108 4  95900147.599 8  23419796.24647
  21214992.375 6                 111485531.672 6  86871871.44448  21214999.94548
  22630672.086 5  22630687.988 9 118924989.716 5  92668650.758 9  22630688.19947
  19850717.906 7  19850727.625 9 104316221.562 7  81285377.525 9  19850726.94949
  23823472.953 3  23823495.727 8 125193194.090 3  97552943.377 8  23823495.19546
  23239287.477 3  23239309.641 8 122123279.130 3  95160826.100 8  23239309.00846
 23  3 10  3  0  9.0000000  0  8G04G08G09G16G26G27G28G31            
  21256909.547 6  21256919.867 9 111705809.496 6  87043525.453 9  21256919.30548
  20949405.234 6  20949418.758 9 110089866.873 6  85784496.524 9  20949417.86749
  23419425.305 3  23419439.098 8 123069897.116 3  95898686.571 8  23419439.48447
  21215269.188 6                 111486986.829 6  86873005.32548  21215276.96948
  22631082.789 5  22631099.375 9 118927151.288 5  92670335.087 9  22631099.53147
  19850777.383 7  19850787.188 9 104316534.604 7  81285621.449 9  19850786.66049
  23824014.781 3  23824037.285 8 125196040.184 3  97555161.119 8  23824036.79346
  23239751.445 4  23239773.285 8 122125716.354 4  95162725.224 8  23239772.87546
 23  3 10  3  0 10.0000000  0  8G04G08G09G16G26G27G28G31            
  21256865.086 6  21256875.305 9 111705575.378 6  87043343.021 9  21256874.97347
  20949060.703 6  20949074.629 9 110088057.771 6  85783086.827 9  20949073.69949
  23419068.203 4  23419082.559 8 123068022.953 4  95897226.181 8  23419082.82847
  21215546.484 6                 111488442.443 6  86874139.57548  21215553.97348
  22631494.328 5  22631510.547 9 118929313.157 5  92672019.638 9  22631510.93447
  19850837.242 7  19850846.672 9 104316848.635 7  81285866.152 9  19850846.35549
  23824556.203 3  23824578.910 8 125198886.840 3  97557379.285 8  23824578.52746
  23240215.977 4  23240237.289 8 122128154.216 4  95164624.853 8  23240236.89146
 23  3 10  3  0 11.0000000  0  8G04G08G09G16G26G27G28G31            
  21256820.539 6  21256831.043 9 111705342.089 6  87043161.231 9  21256830.78148
  20948716.375 6  20948730.586 9 110086249.401 6  85781677.712 9  20948729.49649
  23418711.695 4  23418725.980 8 123066149.470 4  95895766.316 8  23418726.20347
  21215823.727 6                 111489898.375 6  86875274.06547  21215831.05947
  22631905.414 5  22631921.918 9 118931475.202 5  92673704.339 9  22631922.26647
  19850896.992 7  19850906.664 9 104317163.563 7  81286111.545 9  19850906.30149
  23825097.531 3  23825120.652 8 125201733.943 3  97559597.813 8  23825120.43846
  23240679.797 3  23240701.340 8 122130592.517 3  95166524.819 8  23240700.94146
 23  3 10  3  0 12.0000000  0  8G04G08G09G16G26G27G28G31            
  21256776.438 6  21256786.809 9 111705109.739 6  87042980.180 9  21256786.66448
  20948372.625 6  20948386.590 9 110084441.857 6  85780269.237 9  20948385.44149
  23418355.422 4  23418369.633 8 123064276.746 4  95894307.052 8  23418369.82447
  21216100.711 6                 111491354.729 6  86876408.88448  21216107.98848
  22632317.398 5  22632333.594 9 118933637.506 5  92675389.241 9  22632333.71947
  19850957.172 7  19850967.078 9 104317479.402 7  81286357.653 9  19850966.48449
  23825640.281 3  23825662.535 8 125204581.649 3  97561816.814 8  23825662.57446
  23241143.531 4  23241165.453 8 122133031.351 4  95168425.215 8  23241165.10946
 23  3 10  3  0 13.0000000  0  8G04G08G09G16G26G27G28G31            
  21256732.164 6  21256742.820 9 111704878.121 6  87042799.702 9  21256742.71148
  20948028.602 6  20948042.875 9 110082634.948 6  85778861.255 9  20948041.48049
  23417998.648 4  23418013.434 8 123062404.581 4  95892848.220 8  23418013.50848
  21216377.750 6                 111492811.293 6  86877543.86647  21216385.14547
  22632727.891 5  22632745.086 9 118935799.926 5  92677074.241 9  22632745.34047
  19851017.414 7  19851027.094 9 104317796.061 7  81286604.394 9  19851026.64549
  23826182.180 3  23826204.609 8 125207429.725 3  97564036.103 8  23826204.54346
  23241607.289 3  23241629.750 8 122135470.610 3  95170325.936 8  23241629.39146
 23  3 10  3  0 14.0000000  0  8G04G08G09G16G26G27G28G31            
  21256688.070 6  21256698.754 9 111704647.329 6  87042619.865 9  21256698.67648
  20947685.039 6  20947698.898 9 110080828.746 6  85777453.831 9  20947697.88349
  23417643.836 4  23417657.629 8 123060533.079 4  95891389.912 8  23417657.55148
  21216655.484 6                 111494268.178 6  86878679.10348  21216662.41848
  22633140.430 5  22633156.641 9 118937962.455 5  92678759.317 9  22633156.92647
  19851078.008 7  19851087.500 9 104318113.551 7  81286851.790 9  19851087.26649
  23826724.313 3  23826746.465 8 125210278.263 3  97566255.744 8  23826746.57446
  23242072.023 3  23242094.059 8 122137910.315 3  95172227.002 8  23242093.75846
 23  3 10  3  0 15.0000000  0  8G04G08G09G16G26G27G28G31            
  21256644.609 6  21256655.094 9 111704417.429 6  87042440.713 9  21256654.94548
  20947341.531 6  20947355.289 9 110079023.327 6  85776047.010 9  20947354.13349
  23417286.750 4  23417301.645 8 123058662.315 4  95889932.175 8  23417301.68447
  21216932.445 6                 111495725.457 6  86879814.64348  21216939.88748
  22633551.875 5  22633568.082 9 118940125.272 5  92680444.620 9  22633568.49247
  19851138.172 7  19851147.973 9 104318431.978 7  81287099.910 9  19851147.76649
  23827265.703 3  23827288.457 8 125213127.314 3  97568475.795 8  23827288.55946
  23242536.547 3  23242558.516 8 122140350.541 3  95174128.469 8  23242558.18446
 23  3 10  3  0 16.0000000  0  8G04G08G09G16G26G27G28G31            
  21256601.086 6  21256611.605 9 111704188.498 6  87042262.320 9  21256611.42648
  20946998.039 6  20947011.793 9 110077218.764 6  85774640.867 9  20947010.62549
  23416930.672 4  23416945.625 8 123056792.380 4  95888475.087 8  23416945.84848
  21217209.734 6                 111497183.160 6  86880950.50547  21217217.39547
  22633963.141 5  22633979.906 9 118942288.367 5  92682130.139 9  22633979.92647
  19851199.484 7  19851208.852 9 104318751.406 7  81287348.820 9  19851208.61749
  23827807.734 3  23827830.730 8 125215976.995 3  97570696.331 8  23827830.77746
  23243000.695 3  23243023.055 8 122142791.363 3  95176030.401 8  23243022.85946
 23  3 10  3  0 17.0000000  0  8G04G08G09G16G26G27G28G31            
  21256557.914 6  21256568.383 9 111703960.493 6  87042084.651 9  21256568.08248
  20946654.641 6  20946668.898 9 110075415.035 6  85773235.357 9  20946667.37949
  23416575.328 4  23416590.098 8 123054923.157 4  95887018.557 8  23416590.03948
  21217487.180 6                 111498641.342 6  86882086.74647  21217494.82047
  22634375.094 5  22634391.449 9 118944451.764 5  92683815.896 9  22634391.69547
  19851260.016 7  19851269.785 9 104319071.817 7  81287598.488 9  19851269.63349
  23828350.305 3  23828373.281 8 125218827.254 3  97572917.307 8  23828372.99646
  23243465.711 3  23243487.441 8 122145232.718 3  95177932.748 8  23243487.35546
 23  3 10  3  0 18.0000000  0  8G04G08G09G16G26G27G28G31            
  21256514.984 6  21256524.895 9 111703733.187 6  87041907.533 9  21256524.84848
  20946311.328 6  20946325.902 9 110073611.881 6  85771830.317 9  20946324.24249
  23416219.844 4  23416234.637 8 123053054.540 4  95885562.500 8  23416234.54747
  21217764.469 6                 111500099.671 6  86883223.10047  21217772.39547
  22634787.008 5  22634803.332 9 118946615.185 5  92685501.659 9  22634803.44147
  19851320.805 7  19851331.012 9 104319392.940 7  81287848.718 9  19851330.77349
  23828892.805 3  23828915.785 8 125221677.818 3  97575138.528 8  23828915.63746
  23243930.602 3  23243952.156 8 122147674.458 3  95179835.404 8  23243952.05546
 23  3 10  3  0 19.0000000  0  8G04G08G09G16G26G27G28G31            
  21256471.906 6  21256481.695 9 111703506.702 6  87041731.049 9  21256481.63748
  20945968.648 6  20945982.480 9 110071809.441 6  85770425.814 9  20945981.27349
  23415864.953 4  23415879.156 8 123051186.532 4  95884106.916 8  23415879.19547
  21218042.250 6                 111501558.320 6  86884359.70647  21218049.86747
  22635197.930 5  22635214.902 9 118948778.749 5  92687187.551 9  22635215.16447
  19851382.438 7  19851392.543 9 104319714.923 7  81288099.607 9  19851391.96949
  23829435.617 3  23829458.430 8 125224528.870 3  97577360.133 8  23829458.28946
  23244394.836 3  23244416.824 8 122150116.578 3  95181738.350 8  23244416.84846
 23  3 10  3  0 20.0000000  0  8G04G08G09G16G26G27G28G31            
  21256428.805 6  21256438.859 9 111703281.042 6  87041555.205 9  21256438.55148
  20945625.734 6  20945639.629 9 110070007.755 6  85769021.907 9  20945638.30149
  23415508.758 4  23415523.727 8 123049319.241 4  95882651.880 8  23415523.78148
  21218320.352 6                 111503017.284 6  86885496.56548  21218327.71548
  22635610.125 5  22635626.566 9 118950942.511 5  92688873.591 9  22635626.91447
  19851443.875 7  19851453.742 9 104320037.780 7  81288351.186 9  19851453.58649
  23829977.922 3  23830001.199 8 125227380.384 3  97579582.092 8  23830000.85546
  23244859.688 3  23244881.969 8 122152559.229 3  95183641.707 8  23244881.68446
 23  3 10  3  0 21.0000000  0  8G04G08G09G16G26G27G28G31            
  21256386.195 6  21256396.016 9 111703056.285 6  87041380.062 9  21256396.07048
  20945282.867 6  20945297.004 9 110068206.827 6  85767618.581 9  20945295.59849
  23415154.055 4  23415168.430 8 123047452.657 4  95881197.396 8  23415168.62948
  21218597.742 6                 111504476.642 6  86886633.71748  21218605.28548
  22636021.648 5  22636038.344 9 118953106.479 5  92690559.792 9  22636038.52347
  19851505.758 7  19851515.184 9 104320361.567 7  81288603.483 9  19851515.10549
  23830521.531 3  23830543.938 8 125230232.461 3  97581804.490 8  23830543.53546
  23245324.094 3  23245347.117 8 122155002.354 3  95185545.441 8  23245346.62146
 23  3 10  3  0 22.0000000  0  8G04G08G09G16G26G27G28G31            
  21256343.930 6  21256353.309 9 111702832.288 6  87041205.516 9  21256353.31648
  20944940.680 6  20944954.426 9 110066406.542 6  85766215.769 9  20944953.10249
  23414798.984 4  23414813.004 8 123045586.658 4  95879743.384 8  23414813.40647
  21218875.547 6                 111505936.216 6  86887771.05348  21218882.96948
  22636433.820 5  22636450.148 9 118955270.552 5  92692246.073 9  22636450.37547
  19851567.359 7  19851577.348 9 104320686.139 7  81288856.401 9  19851576.97349
  23831063.758 3  23831086.715 8 125233084.891 3  97584027.172 8  23831086.43846
  23245789.641 3  23245812.223 8 122157445.886 3  95187449.499 8  23245811.68046
 23  3 10  3  0 23.0000000  0  8G04G08G09G16G26G27G28G31            
  21256300.531 6  21256311.000 9 111702609.146 6  87041031.637 9  21256310.82048
  20944598.359 6  20944611.941 9 110064607.022 6  85764813.545 9  20944610.64549
  23414443.750 4  23414457.875 8 123043721.404 4  95878289.938 8  23414458.40247
  21219153.641 6                 111507396.161 6  86888908.67348  21219160.72748
  22636845.734 5  22636862.035 9 118957434.871 5  92693932.551 9  22636862.25047
  19851629.391 7  19851639.125 9 104321011.610 7  81289110.012 9  19851639.00449
  23831607.008 3  23831629.402 8 125235937.861 3  97586250.274 8  23831629.10246
  23246254.258 3  23246277.168 8 122159889.974 3  95189353.986 8  23246276.75046
 23  3 10  3  0 24.0000000  0  8G04G08G09G16G26G27G28G31            
  21256258.844 6  21256268.773 9 111702386.967 6  87040858.513 9  21256268.57448
  20944256.430 6  20944269.789 9 110062808.354 6  85763411.992 9  20944268.39149
  23414088.680 4  23414102.852 8 123041856.917 4  95876837.093 8  23414103.42247
  21219431.328 6                 111508856.563 6  86890046.64348  21219438.74248
  22637256.977 5  22637273.871 9 118959599.455 5  92695619.211 9  22637273.90647
  19851691.469 7  19851701.355 9 104321338.088 7  81289364.406 9  19851701.14849
  23832150.000 3  23832172.484 8 125238791.388 3  97588473.806 8  23832172.08646
  23246719.750 3  23246742.375 8 122162334.617 3  95191258.891 8  23246742.06646
 23  3 10  3  0 25.0000000  0  8G04G08G09G16G26G27G28G31            
  21256216.813 6  21256226.625 9 111702165.576 6  87040685.991 9  21256226.63348
  20943913.906 6  20943927.566 9 110061010.398 6  85762010.990 9  20943926.16849
  23413734.406 4  23413748.539 8 123039993.091 4  95875384.766 8  23413748.61348
  21219709.180 6                 111510317.231 6  86891184.82748  21219716.61348
  22637668.969 5  22637685.910 9 118961764.152 5  92697305.979 9  22637685.80147
  19851753.836 7  19851763.680 9 104321665.370 7  81289619.439 9  19851763.31349
  23832693.102 3  23832715.875 8 125241645.367 3  97590697.694 8  23832715.23046
  23247184.898 3  23247207.516 8 122164779.637 3  95193164.104 8  23247207.28546
 23  3 10  3  0 26.0000000  0  8G04G08G09G16G26G27G28G31            
  21256174.883 6  21256184.688 9 111701945.199 6  87040514.274 9  21256184.79748
  20943571.680 6  20943585.754 9 110059213.354 6  85760610.688 9  20943584.26249
  23413379.883 4  23413393.633 8 123038130.112 4  95873933.101 8  23413393.97747
  21219986.688 6                 111511778.399 6  86892323.40048  21219994.61748
  22638081.359 5  22638097.762 9 118963929.259 5  92698993.077 9  22638097.81647
  19851816.219 7  19851826.211 9 104321993.733 7  81289875.309 9  19851825.90649
  23833236.469 3  23833258.980 8 125244500.018 3  97592922.097 8  23833258.42646
  23247650.391 3  23247672.895 8 122167225.393 3  95195069.876 8  23247672.75846
 23  3 10  3  0 27.0000000  0  8G04G08G09G16G26G27G28G31            
  21256132.992 6  21256142.781 9 111701725.509 6  87040343.081 9  21256142.89548
  20943229.953 6  20943243.867 9 110057416.859 6  85759210.834 9  20943242.18849
  23413025.523 4  23413039.410 8 123036267.626 4  95872481.815 8  23413039.48447
  21220265.477 6                 111513239.739 6  86893462.09548  21220272.82448
  22638493.320 5  22638509.648 9 118966094.342 5  92700680.138 9  22638509.84047
  19851878.641 7  19851888.652 9 104322322.790 7  81290131.713 9  19851888.61749
  23833779.727 3  23833802.219 8 125247354.967 3  97595146.742 8  23833801.65246
  23248116.258 3  23248138.379 8 122169671.390 3  95196975.845 8  23248138.12946
 23  3 10  3  0 28.0000000  0  8G04G08G09G16G26G27G28G31            
  21256091.039 6  21256101.098 9 111701506.757 6  87040172.617 9  21256101.28548
  20942888.578 6  20942902.262 9 110055621.216 6  85757811.621 9  20942900.64149
  23412670.820 4  23412685.051 8 123034405.948 4  95871031.168 8  23412685.26647
  21220544.023 6                 111514701.512 6  86894601.14648  21220551.01648
  22638905.945 5  22638921.816 9 118968259.727 5  92702367.447 9  22638921.75047
  19851941.836 7  19851951.434 9 104322652.825 7  81290388.883 9  19851951.46149
  23834323.469 3  23834345.414 8 125250210.460 3  97597371.812 8  23834344.96146
  23248581.633 3  23248603.996 8 122172117.979 3  95198882.277 8  23248603.67646
 23  3 10  3  0 29.0000000  0  8G04G08G09G16G26G27G28G31            
  21256050.148 6  21256059.652 9 111701288.875 6  87040002.837 9  21256059.85548
  20942547.125 6  20942560.520 9 110053826.346 6  85756413.025 9  20942559.18449
  23412316.203 4  23412330.875 8 123032544.986 4  95869581.062 8  23412331.04347
  21220822.477 6                 111516163.661 6  86895740.47748  21220829.31348
  22639317.969 5  22639333.938 9 118970425.343 5  92704054.928 9  22639333.72747
  19852004.641 7  19852014.531 9 104322983.799 7  81290646.780 9  19852014.48449
  23834866.313 3  23834888.684 8 125253066.521 3  97599597.327 8  23834888.34846
  23249048.000 3  23249069.902 8 122174565.119 3  95200789.150 8  23249069.35546
 23  3 10  3  0 30.0000000  0  8G04G08G09G16G26G27G28G31            
  21256008.883 6  21256018.449 9 111701071.814 6  87039833.699 9  21256018.39147
  20942205.672 6  20942219.105 9 110052032.184 6  85755014.975 9  20942217.74249
  23411962.383 4  23411977.102 8 123030684.704 4  95868131.500 8  23411977.05547
  21221100.273 6                 111517626.104 6  86896880.03548  21221107.53148
  22639729.844 5  22639746.262 9 118972591.089 5  92705742.503 9  22639745.74647
  19852068.148 7  19852077.637 9 104323315.588 7  81290905.322 9  19852077.60549
  23835410.023 3  23835432.281 8 125255923.009 3  97601823.165 8  23835432.00046
  23249513.234 3  23249535.449 8 122177012.635 3  95202696.294 8  23249535.16846
 23  3 10  3  0 31.0000000  0  8G04G08G09G16G26G27G28G31            
  21255967.328 6  21255977.176 9 111700855.439 6  87039665.089 9  21255977.43448
  20941864.523 6  20941877.766 9 110050238.596 6  85753617.385 9  20941876.45749
  23411608.930 4  23411623.184 8 123028824.913 4  95866682.310 8  23411623.10547
  21221378.594 6                 111519088.712 6  86898019.73347  21221385.85947
  22640142.102 5  22640158.340 9 118974756.881 5  92707430.130 9  22640157.91847
  19852131.500 7  19852140.813 9 104323648.108 7  81291164.425 9  19852140.77049
  23835953.766 3  23835975.918 8 125258779.839 3  97604049.270 8  23835975.59046
  23249978.273 3  23250001.277 8 122179460.520 3  95204603.741 8  23250001.02746
 23  3 10  3  0 32.0000000  0  8G04G08G09G16G26G27G28G31            
  21255926.633 6  21255936.379 9 111700640.054 6  87039497.255 9  21255936.43048
  20941523.047 6  20941536.707 9 110048445.894 6  85752220.467 9  20941535.37549
  23411255.117 4  23411269.258 8 123026965.958 4  95865233.767 8  23411269.41847
  21221656.625 6                 111520551.809 6  86899159.81148  21221664.35248
  22640554.586 5  22640570.461 9 118976923.004 5  92709118.016 9  22640570.16847
  19852194.891 7  19852204.211 9 104323981.672 7  81291424.340 9  19852204.25449
  23836497.172 3  23836519.703 8 125261637.287 3  97606275.866 8  23836519.49246
  23250444.953 3  23250467.324 8 122181909.008 3  95206511.652 8  23250466.97746
 23  3 10  3  0 33.0000000  0  8G04G08G09G16G26G27G28G31            
  21255885.555 6  21255895.512 9 111700425.479 6  87039330.053 9  21255895.53148
  20941182.359 6  20941195.527 9 110046653.900 6  85750824.113 9  20941194.41849
  23410902.039 4  23410915.770 8 123025107.662 4  95863785.749 8  23410915.68847
  21221935.320 6                 111522015.196 6  86900300.10548  21221942.87548
  22640966.617 5  22640982.934 9 118979089.269 5  92710806.000 9  22640982.53547
  19852258.336 7  19852267.734 9 104324316.054 7  81291684.894 9  19852267.85249
  23837041.273 4  23837063.449 8 125264495.205 4  97608502.825 8  23837063.44546
  23250911.523 3  23250933.148 8 122184357.938 3  95208419.912 8  23250933.01246
 23  3 10  3  0 34.0000000  0  8G04G08G09G16G26G27G28G31            
  21255844.492 6  21255855.129 9 111700211.571 6  87039163.366 9  21255854.84048
  20940840.859 6  20940854.695 9 110044862.436 6  85749428.171 9  20940853.42249
  23410548.539 4  23410561.910 8 123023249.878 4  95862338.131 8  23410562.00047
  21222213.883 6                 111523478.757 6  86901440.54248  21222221.39148
  22641378.781 5  22641395.039 9 118981255.551 5  92712494.002 9  22641394.86347
  19852321.766 7  19852331.832 9 104324651.151 7  81291946.006 9  19852331.73449
  23837584.477 4  23837607.227 8 125267353.417 4  97610730.014 8  23837607.28146
  23251377.500 3  23251399.320 9 122186807.203 3  95210328.425 9  23251398.99646
 23  3 10  3  0 35.0000000  0  8G04G08G09G16G26G27G28G31            
  21255804.656 6  21255814.324 9 111699998.577 6  87038997.387 9  21255814.31348
  20940500.109 6  20940513.977 9 110043071.806 6  85748032.876 9  20940512.69949
  23410194.859 4  23410208.715 8 123021392.842 4  95860891.085 8  23410208.60247
  21222492.734 6                 111524942.719 6  86902581.28348  21222500.03148
  22641791.195 5  22641807.508 9 118983422.093 5  92714182.208 9  22641807.25847
  19852385.563 7  19852395.613 9 104324987.196 7  81292207.858 9  19852395.64149
  23838129.297 3  23838151.188 8 125270212.184 3  97612957.631 8  23838151.19946
  23251843.844 3  23251865.648 8 122189257.014 3  95212237.376 8  23251865.11346
 23  3 10  3  0 36.0000000  0  8G04G08G09G16G26G27G28G31            
  21255764.570 6  21255774.070 9 111699786.590 6  87038832.205 9  21255774.00448
  20940159.781 6  20940173.359 9 110041282.099 6  85746638.304 9  20940172.24649
  23409840.664 4  23409855.391 8 123019536.674 4  95859444.729 8  23409855.34847
  21222771.016 6                 111526407.165 6  86903722.41248  21222778.60948
  22642204.180 5  22642219.965 9 118985588.983 5  92715870.684 9  22642219.69947
  19852449.938 7  19852459.957 9 104325324.301 7  81292470.531 9  19852459.80149
  23838673.328 3  23838695.230 8 125273071.617 3  97615185.763 8  23838695.14546
  23252309.453 3  23252331.871 8 122191707.431 3  95214146.776 8  23252331.30547
 23  3 10  3  0 37.0000000  0  8G04G08G09G16G26G27G28G31            
  21255724.336 6  21255733.750 9 111699575.438 6  87038667.671 9  21255733.69548
  20939819.141 6  20939832.980 9 110039493.086 6  85745244.269 9  20939831.86749
  23409488.492 4  23409502.277 8 123017681.150 4  95857998.864 8  23409502.29347
  21223049.859 6                 111527871.925 6  86904863.77948  21223057.41848
  22642616.313 5  22642632.484 9 118987756.032 5  92717559.282 9  22642632.03947
  19852514.328 7  19852523.988 9 104325662.250 7  81292733.869 9  19852524.11749
  23839217.602 4  23839239.246 8 125275931.495 4  97617414.245 8  23839239.23446
  23252776.109 3  23252798.016 8 122194158.342 3  95216056.582 8  23252797.56346
 23  3 10  3  0 38.0000000  0  8G04G08G09G16G26G27G28G31            
  21255684.375 6  21255693.859 9 111699365.066 6  87038503.740 9  21255693.59848
  20939479.117 6  20939492.406 9 110037704.750 6  85743850.763 9  20939491.58249
  23409135.563 4  23409149.129 8 123015826.245 4  95856553.477 8  23409149.21947
  21223328.578 6                 111529336.981 6  86906005.37848  21223336.19548
  22643028.563 5  22643044.805 9 118989923.229 5  92719247.992 9  22643044.48847
  19852579.016 7  19852588.602 9 104326001.043 7  81292997.865 9  19852588.77049
  23839762.398 4  23839783.473 8 125278791.774 4  97619643.028 8  23839783.51646
  23253243.086 3  23253264.641 8 122196609.669 3  95217966.698 8  23253264.10246
 23  3 10  3  0 39.0000000  0  8G04G08G09G16G26G27G28G31            
  21255644.445 6  21255654.164 9 111699155.487 6  87038340.437 9  21255653.71548
  20939139.156 6  20939152.629 9 110035917.085 6  85742457.778 9  20939151.41049
  23408782.328 4  23408796.441 8 123013972.019 4  95855108.634 8  23408796.29747
  21223607.141 6                 111530802.294 6  86907147.17848  21223614.98848
  22643440.977 5  22643457.191 9 118992090.531 5  92720936.789 9  22643457.01647
  19852643.516 7  19852653.141 9 104326340.639 7  81293262.473 9  19852653.31649
  23840306.641 4  23840328.316 8 125281652.535 4  97621872.208 8  23840327.85546
  23253709.531 3  23253731.238 8 122199061.410 3  95219877.147 8  23253730.60946
 23  3 10  3  0 40.0000000  0  8G04G08G09G16G26G27G28G31            
  21255604.063 6  21255614.027 9 111698946.405 6  87038177.512 9  21255614.06648
  20938799.055 6  20938812.477 9 110034129.815 6  85741065.113 9  20938811.37549
  23408429.820 4  23408443.641 8 123012118.106 4  95853664.020 8  23408443.38747
  21223886.063 6                 111532267.590 6  86908288.97048  21223893.84048
  22643853.094 5  22643869.688 9 118994257.702 5  92722625.501 9  22643869.41447
  19852708.141 7  19852717.988 9 104326680.776 7  81293527.515 9  19852718.03949
  23840851.578 4  23840872.383 8 125284513.403 4  97624101.457 8  23840872.32446
  23254175.922 3  23254198.074 8 122201513.325 3  95221787.741 8  23254197.14146
 23  3 10  3  0 41.0000000  0  8G04G08G09G16G26G27G28G31            
  21255564.844 6  21255574.469 9 111698738.314 6  87038015.361 9  21255574.52348
  20938459.156 6  20938472.242 9 110032343.469 6  85739673.149 9  20938471.45349
  23408078.102 4  23408090.832 8 123010265.050 4  95852220.078 8  23408090.52747
  21224165.172 6                 111533733.393 6  86909431.15048  21224172.68848
  22644266.125 5  22644282.133 9 118996425.203 5  92724314.447 9  22644281.95347
  19852772.781 7  19852783.055 9 104327021.952 7  81293793.373 9  19852782.86749
  23841396.328 4  23841416.961 8 125287374.894 4  97626331.198 8  23841417.01646
  23254642.906 3  23254664.586 8 122203965.777 3  95223698.734 8  23254664.01247
 23  3 10  3  0 42.0000000  0  8G04G08G09G16G26G27G28G31            
  21255525.578 6  21255534.973 9 111698531.059 6  87037853.853 9  21255535.05548
  20938119.273 6  20938132.570 9 110030557.838 6  85738281.751 9  20938131.73849
  23407724.539 4  23407738.535 8 123008412.637 4  95850776.639 8  23407738.12547
  21224443.938 6                 111535199.499 6  86910573.57448  21224451.62948
  22644678.070 5  22644694.426 9 118998592.871 5  92726003.524 9  22644694.34447
  19852838.375 7  19852848.063 9 104327363.972 7  81294059.880 9  19852847.96149
  23841940.641 4  23841961.285 8 125290236.887 4  97628561.322 8  23841961.66446
  23255110.039 3  23255131.422 8 122206418.759 3  95225610.151 8  23255130.75446
 23  3 10  3  0 43.0000000  0  8G04G08G09G16G26G27G28G31            
  21255486.328 6  21255495.523 9 111698324.696 6  87037693.051 9  21255495.83648
  20937779.305 6  20937792.898 9 110028772.989 6  85736890.965 9  20937791.87549
  23407371.984 4  23407386.133 8 123006560.980 4  95849333.800 8  23407385.66447
  21224723.180 6                 111536665.987 6  86911716.28448  21224730.82448
  22645091.555 5  22645107.047 9 119000760.772 5  92727692.780 9  22645106.77347
  19852903.406 7  19852913.195 9 104327706.946 7  81294327.127 9  19852913.29749
  23842484.914 4  23842506.055 8 125293099.409 4  97630791.860 8  23842506.47346
  23255576.305 3  23255598.094 8 122208872.280 3  95227521.986 8  23255597.58246
 23  3 10  3  0 44.0000000  0  8G04G08G09G16G26G27G28G31            
  21255447.266 6  21255456.488 9 111698119.229 6  87037532.943 9  21255456.72748
  20937439.875 6  20937453.348 9 110026988.924 6  85735500.789 9  20937452.32449
  23407020.352 4  23407033.754 8 123004710.013 4  95847891.471 8  23407033.36347
  21225001.773 6                 111538132.842 6  86912859.28348  21225010.02048
  22645503.859 5  22645519.816 9 119002928.887 5  92729382.211 9  22645519.33647
  19852968.875 7  19852978.805 9 104328050.828 7  81294595.087 9  19852978.70349
  23843029.836 4  23843050.996 8 125295962.438 4  97633022.798 8  23843051.34846
  23256042.828 3  23256065.031 8 122211326.285 3  95229434.200 8  23256064.56646
 23  3 10  3  0 45.0000000  0  8G04G08G09G16G26G27G28G31            
  21255408.313 6  21255417.625 9 111697914.521 6  87037373.424 9  21255417.61748
  20937100.055 6  20937114.109 9 110025205.535 6  85734111.142 9  20937112.84849
  23406667.633 4  23406681.637 8 123002859.693 4  95846449.659 8  23406681.17247
  21225281.742 6                 111539599.954 6  86914002.48348  21225289.28148
  22645915.578 5  22645932.574 9 119005097.141 5  92731071.758 9  22645932.01247
  19853034.523 7  19853044.277 9 104328395.523 7  81294863.681 9  19853044.15649
  23843575.023 4  23843596.246 8 125298825.876 4  97635254.047 8  23843596.15246
  23256510.398 4  23256532.188 8 122213780.707 4  95231346.737 8  23256531.85246
 23  3 10  3  0 46.0000000  0  8G04G08G09G16G26G27G28G31            
  21255369.391 6  21255379.102 9 111697710.677 6  87037214.582 9  21255378.73048
  20936761.336 6  20936774.879 9 110023422.907 6  85732722.083 9  20936773.66049
  23406315.563 3  23406329.613 8 123001010.071 3  95845008.399 8  23406329.07847
  21225561.133 6                 111541067.420 6  86915145.95947  21225568.48447
  22646329.258 5  22646344.980 9 119007265.583 5  92732761.443 9  22646344.74647
  19853100.586 7  19853110.277 9 104328741.110 7  81295132.968 9  19853110.05149
  23844119.695 4  23844141.156 8 125301689.807 4  97637485.691 8  23844141.05546
  23256977.250 3  23256999.402 8 122216235.641 3  95233259.671 8  23256999.08647
 23  3 10  3  0 47.0000000  0  8G04G08G09G16G26G27G28G31            
  21255330.398 6  21255340.180 9 111697507.786 6  87037056.484 9  21255340.31348
  20936422.047 6  20936435.863 9 110021641.120 6  85731333.680 9  20936434.55549
  23405964.023 3  23405977.777 8 122999161.226 3  95843567.742 8  23405977.18047
  21225840.797 6                 111542535.308 6  86916289.77048  21225847.85548
  22646741.734 5  22646757.547 9 119009434.336 5  92734451.363 9  22646757.27347
  19853166.320 7  19853176.215 9 104329087.691 7  81295403.029 9  19853176.07049
  23844664.953 4  23844686.121 8 125304554.352 4  97639717.799 8  23844686.07046
  23257444.633 4  23257466.641 8 122218691.127 4  95235173.034 8  23257466.43447
 23  3 10  3  0 48.0000000  0  8G04G08G09G16G26G27G28G31            
  21255292.195 6  21255301.879 9 111697305.642 6  87036898.963 9  21255301.90648
  20936083.000 6  20936096.762 9 110019859.959 6  85729945.762 9  20936095.78149
  23405612.102 3  23405625.996 8 122997313.001 3  95842127.566 8  23405625.52047
  21226119.695 6                 111544003.456 6  86917433.77447  21226127.23447
  22647154.984 5  22647170.285 9 119011603.139 5  92736141.332 9  22647169.97347
  19853232.383 7  19853242.281 9 104329435.022 7  81295673.680 9  19853242.16449
  23845210.258 4  23845231.137 8 125307419.265 4  97641950.207 8  23845231.16846
  23257912.430 3  23257934.051 8 122221147.052 3  95237086.729 8  23257933.80946
 23  3 10  3  0 49.0000000  0  8G04G08G09G16G26G27G28G31            
  21255253.961 6  21255263.621 9 111697104.412 6  87036742.154 9  21255263.54748
  20935744.125 6  20935757.961 9 110018079.566 6  85728558.439 9  20935756.73449
  23405260.250 3  23405274.375 8 122995465.502 3  95840687.950 8  23405273.64547
  21226399.617 6                 111545471.979 6  86918578.07748  21226406.72748
  22647567.773 5  22647583.195 9 119013772.212 5  92737831.521 9  22647582.95347
  19853298.805 7  19853308.539 9 104329783.314 7  81295945.067 9  19853308.54749
  23845755.305 4  23845776.383 8 125310284.730 4  97644183.032 8  23845776.27746
  23258379.805 3  23258401.512 8 122223603.460 3  95239000.813 8  23258401.17646
 23  3 10  3  0 50.0000000  0  8G04G08G09G16G26G27G28G31            
  21255215.953 6  21255225.574 9 111696903.943 6  87036585.936 9  21255225.37548
  20935405.805 6  20935419.207 9 110016299.858 6  85727171.661 9  20935418.12949
  23404909.273 3  23404922.590 8 122993618.624 3  95839248.824 8  23404922.33647
  21226678.586 6                 111546940.776 6  86919722.58948  21226686.20748
  22647980.070 6  22647995.750 9 119015941.414 6  92739521.791 9  22647995.60947
  19853365.250 7  19853375.113 9 104330132.405 7  81296217.088 9  19853374.90249
  23846300.758 3  23846321.938 8 125313150.591 3  97646416.167 8  23846321.48046
  23258847.227 3  23258868.918 8 122226060.253 3  95240915.204 8  23258868.81346
 23  3 10  3  0 51.0000000  0  8G04G08G09G16G26G27G28G31            
  21255177.727 6  21255187.590 9 111696704.421 6  87036430.462 9  21255187.27748
  20935067.328 6  20935080.605 9 110014520.993 6  85725785.530 9  20935079.59049
  23404557.578 3  23404571.352 8 122991772.542 3  95837810.304 8  23404570.98447
  21226958.570 6                 111548409.983 6  86920867.42947  21226965.82047
  22648392.656 6  22648408.563 9 119018110.891 6  92741212.279 9  22648408.50047
  19853431.516 7  19853441.531 9 104330482.493 7  81296489.884 9  19853441.51649
  23846846.445 3  23846867.434 8 125316017.065 3  97648649.786 8  23846866.90246
  23259314.867 3  23259336.246 8 122228517.657 3  95242830.064 8  23259336.41847
 23  3 10  3  0 52.0000000  0  8G04G08G09G16G26G27G28G31            
  21255140.258 6  21255149.672 9 111696505.651 6  87036275.569 9  21255149.41048
  20934728.688 6  20934742.016 9 110012742.753 6  85724399.899 9  20934741.13749
  23404206.883 3  23404220.141 8 122989927.046 3  95836372.258 8  23404219.63747
  21227237.953 6                 111549879.437 6  86922012.45448  21227245.52748
  22648805.836 5  22648821.594 9 119020280.473 5  92742902.852 9  22648821.34847
  19853498.430 7  19853508.543 9 104330833.371 7  81296763.290 9  19853508.28949
  23847391.320 4  23847412.918 8 125318883.912 4  97650883.699 8  23847412.34846
  23259782.508 3  23259804.152 8 122230975.455 3  95244745.244 8  23259804.03146
 23  3 10  3  0 53.0000000  0  8G04G08G09G16G26G27G28G31            
  21255101.945 6  21255111.754 9 111696307.805 6  87036121.398 9  21255111.82048
  20934390.508 6  20934403.914 9 110010965.400 6  85723014.946 9  20934403.13749
  23403855.664 3  23403869.145 8 122988082.296 3  95834934.794 8  23403868.62547
  21227517.375 6                 111551349.307 6  86923157.80047  21227525.33247
  22649219.031 5  22649234.512 9 119022450.313 5  92744593.631 9  22649234.14547
  19853565.461 7  19853575.375 9 104331185.190 7  81297037.430 9  19853575.17249
  23847936.859 3  23847958.688 8 125321751.311 3  97653118.049 8  23847957.89146
  23260250.961 4  23260271.672 8 122233433.769 4  95246660.810 8  23260271.80147
 23  3 10  3  0 54.0000000  0  8G04G08G09G16G26G27G28G31            
  21255065.063 6  21255074.500 9 111696110.675 6  87035967.781 9  21255074.25448
  20934052.578 6  20934065.992 9 110009188.621 6  85721630.447 9  20934064.95349
  23403505.227 4  23403518.477 8 122986238.104 4  95833497.762 8  23403517.66447
  21227797.523 6                 111552819.365 6  86924303.30447  21227804.94147
  22649632.039 5  22649647.316 9 119024620.196 5  92746284.429 9  22649647.14547
  19853632.328 7  19853642.367 9 104331537.779 7  81297312.175 9  19853642.34049
  23848482.813 3  23848504.344 8 125324619.090 3  97655352.682 8  23848503.52046
  23260718.633 4  23260739.598 8 122235892.499 4  95248576.710 8  23260739.58247
 23  3 10  3  0 55.0000000  0  8G04G08G09G16G26G27G28G31            
  21255027.234 6  21255037.117 9 111695914.377 6  87035814.817 9  21255036.90648
  20933714.547 6  20933728.070 9 110007412.563 6  85720246.500 9  20933727.07849
  23403153.563 3  23403167.777 8 122984394.652 3  95832061.301 8  23403166.87947
  21228077.367 6                 111554289.771 6  86925449.07347  21228084.67647
  22650044.555 5  22650060.164 9 119026790.235 5  92747975.356 9  22650060.26647
  19853699.633 7  19853709.734 9 104331891.208 7  81297587.572 9  19853709.51249
  23849028.539 4  23849050.051 8 125327487.331 4  97657587.671 8  23849049.46146
  23261186.250 4  23261207.773 8 122238351.650 4  95250492.929 8  23261207.48046
 23  3 10  3  0 56.0000000  0  8G04G08G09G16G26G27G28G31            
  21254990.313 6  21255000.012 9 111695718.932 6  87035662.524 9  21254999.57448
  20933376.703 6  20933390.117 9 110005637.259 6  85718863.149 9  20933389.09049
  23402802.516 3  23402817.289 8 122982551.814 3  95830625.329 8  23402816.37547
  21228356.969 6                 111555760.507 6  86926595.09848  21228364.61348
  22650457.320 5  22650473.262 9 119028960.519 5  92749666.480 9  22650473.18047
  19853766.922 7  19853777.000 9 104332245.542 7  81297863.676 9  19853776.90649
  23849574.375 3  23849595.965 8 125330356.066 3  97659823.041 8  23849595.07445
  23261654.844 4  23261675.707 8 122240811.300 4  95252409.536 8  23261675.53147
 23  3 10  3  0 57.0000000  0  8G04G08G09G16G26G27G28G31            
  21254953.102 6  21254962.746 9 111695524.304 6  87035510.857 9  21254962.45748
  20933038.727 6  20933052.238 9 110003862.655 6  85717480.342 9  20933051.37149
  23402452.523 3  23402466.789 8 122980709.692 3  95829189.908 8  23402465.79747
  21228636.922 6                 111557231.518 6  86927741.33048  21228644.60248
  22650870.656 5  22650886.500 9 119031130.953 5  92751357.716 9  22650886.24647
  19853834.797 7  19853844.781 9 104332600.729 7  81298140.437 9  19853844.58249
  23850120.680 4  23850142.227 8 125333225.310 4  97662058.824 8  23850141.02746
  23262122.461 4  23262143.898 8 122243271.385 4  95254326.485 8  23262143.55547
 23  3 10  3  0 58.0000000  0  8G04G08G09G16G26G27G28G31            
  21254916.188 6  21254926.020 9 111695330.778 6  87035360.056 9  21254925.64148
  20932701.203 6  20932715.230 9 110002089.034 6  85716098.309 9  20932714.05149
  23402101.844 3  23402116.090 8 122978868.459 3  95827755.171 8  23402115.44147
  21228916.852 6                 111558703.152 6  86928888.06248  21228924.45348
  22651283.953 5  22651299.309 9 119033301.807 5  92753049.277 9  22651299.50047
  19853902.469 7  19853912.539 9 104332957.052 7  81298418.090 9  19853912.34449
  23850666.828 4  23850688.152 8 125336095.188 4  97664295.104 8  23850687.19546
  23262591.070 4  23262612.148 8 122245732.238 4  95256244.028 8  23262611.76647
 23  3 10  3  0 59.0000000  0  8G04G08G09G16G26G27G28G31            
  21254880.148 6  21254889.395 9 111695137.954 6  87035209.797 9  21254889.02348
  20932364.195 6  20932377.711 9 110000316.010 6  85714716.731 9  20932376.53149
  23401751.828 3  23401765.969 8 122977027.809 3  95826320.905 8  23401765.12947
  21229197.313 6                 111560174.946 6  86930034.90548  21229204.43448
  22651696.711 5  22651712.660 9 119035472.684 5  92754740.870 9  22651712.45347
  19853970.844 7  19853980.254 9 104333314.084 7  81298696.303 9  19853980.34449
  23851212.805 3  23851234.398 8 125338965.471 3  97666531.684 8  23851233.35546
  23263059.500 4  23263080.305 8 122248193.403 4  95258161.817 8  23263080.07047
 23  3 10  3  1  0.0000000  0  8G04G08G09G16G26G27G28G31            
  21254843.008 6  21254852.852 9 111694945.823 6  87035060.082 9  21254852.60548
  20932026.961 6  20932040.641 9 109998543.574 6  85713335.615 9  20932039.37549
  23401401.570 3  23401415.828 8 122975187.714 3  95824887.057 8  23401415.13747
  21229477.563 6                 111561646.925 6  86931181.90547  21229484.54747
  22652109.906 5  22652125.496 9 119037643.635 5  92756432.504 9  22652125.59447
  19854038.703 7  19854048.355 9 104333671.862 7  81298975.096 9  19854048.30149
  23851759.086 3  23851780.746 8 125341836.018 3  97668768.480 8  23851779.43046
  23263527.297 4  23263548.703 8 122250654.888 4  95260079.861 8  23263548.34447
 23  3 10  3  1  1.0000000  0  8G04G08G09G16G26G27G28G31            
  21254806.563 6  21254816.223 9 111694754.594 6  87034911.068 9  21254816.22748
  20931689.727 6  20931703.313 9 109996771.973 6  85711955.140 9  20931702.21149
  23401052.289 4  23401065.766 8 122973348.335 4  95823453.765 8  23401065.25847
  21229757.242 6                 111563119.313 6  86932329.22647  21229764.73447
  22652523.430 5  22652538.941 9 119039814.821 5  92758124.322 9  22652538.67248
  19854107.164 7  19854116.535 9 104334030.599 7  81299254.626 9  19854116.53149
  23852305.031 3  23852326.844 8 125344707.189 3  97671005.751 8  23852325.85246
  23263996.188 4  23264017.270 8 122253116.939 4  95261998.340 8  23264016.73447
 23  3 10  3  1  2.0000000  0  8G04G08G09G16G26G27G28G31            
  21254770.391 6  21254780.023 9 111694564.131 6  87034762.649 9  21254779.83248
  20931352.695 6  20931366.344 9 109995000.989 6  85710575.156 9  20931365.11349
  23400701.688 4  23400715.934 8 122971509.579 4  95822020.973 8  23400715.54747
  21230037.523 6                 111564591.941 6  86933476.73247  21230045.10247
  22652936.180 6  22652952.137 9 119041986.093 6  92759816.217 9  22652951.87147
  19854175.203 7  19854185.063 9 104334390.090 7  81299534.753 9  19854184.93449
  23852851.250 3  23852873.152 8 125347578.728 3  97673243.315 8  23852872.30146
  23264465.133 4  23264486.047 8 122255579.376 4  95263917.124 8  23264485.27047
 23  3 10  3  1  3.0000000  0  8G04G08G09G16G26G27G28G31            
  21254734.234 6  21254743.883 9 111694374.429 6  87034614.828 9  21254743.68848
  20931015.852 6  20931029.438 9 109993230.677 6  85709195.694 9  20931028.37949
  23400351.805 4  23400366.191 8 122969671.394 4  95820588.620 8  23400365.63747
  21230318.000 6                 111566064.830 6  86934624.42647  21230325.38747
  22653349.922 6  22653365.289 9 119044157.490 6  92761508.215 9  22653365.10247
  19854243.938 7  19854253.543 9 104334750.417 7  81299815.521 9  19854253.57449
  23853397.453 3  23853419.617 8 125350450.682 3  97675481.203 8  23853418.76246
  23264933.430 4  23264954.543 8 122258042.198 4  95265836.195 8  23264954.02347
 23  3 10  3  1  4.0000000  0  8G04G08G09G16G26G27G28G31            
  21254698.117 6  21254707.777 9 111694185.522 6  87034467.623 9  21254707.78148
  20930679.391 6  20930692.543 9 109991461.050 6  85707816.761 9  20930691.48049
  23400002.570 4  23400016.527 8 122967833.889 4  95819156.800 8  23400015.97347
  21230598.328 6                 111567537.999 6  86935772.34247  21230605.85547
  22653762.508 6  22653778.523 9 119046329.018 6  92763200.300 9  22653778.40247
  19854312.906 7  19854322.410 9 104335111.556 7  81300096.924 9  19854322.18449
  23853943.898 3  23853966.578 8 125353323.054 3  97677719.419 8  23853965.33246
  23265402.586 5  23265423.102 8 122260505.459 5  95267755.616 8  23265422.85247
 23  3 10  3  1  5.0000000  0  8G04G08G09G16G26G27G28G31            
  21254662.500 6  21254672.156 9 111693997.638 6  87034321.216 9  21254671.97748
  20930342.648 6  20930355.910 9 109989692.347 6  85706438.559 9  20930354.82449
  23399653.328 3  23399667.109 8 122965997.230 3  95817725.643 8  23399666.51247
  21230878.719 6                 111569011.692 6  86936920.67547  21230886.18847
  22654175.813 5  22654191.980 9 119048500.919 5  92764892.675 9  22654191.64847
  19854381.547 7  19854391.434 9 104335473.759 7  81300379.168 9  19854391.06649
  23854490.648 3  23854513.109 8 125356196.052 3  97679958.127 8  23854512.01246
  23265871.320 5  23265891.953 8 122262969.374 5  95269675.553 8  23265891.69147
 23  3 10  3  1  6.0000000  0  8G04G08G09G16G26G27G28G31            
  21254626.945 6  21254636.688 9 111693810.521 6  87034175.399 9  21254636.47748
  20930006.094 6  20930019.359 9 109987924.322 6  85705060.884 9  20930018.53549
  23399303.484 3  23399317.867 8 122964161.189 3  95816294.970 8  23399317.45347
  21231159.086 6                 111570485.631 6  86938069.18847  21231166.61747
  22654589.742 5  22654605.117 9 119050672.911 5  92766585.123 9  22654605.07847
  19854450.758 7  19854460.422 9 104335836.773 7  81300662.029 9  19854460.09849
  23855037.617 3  23855060.027 8 125359069.514 3  97682197.199 8  23855058.79746
  23266340.055 5  23266361.078 8 122265433.710 5  95271595.814 8  23266360.64846
 23  3 10  3  1  7.0000000  0  8G04G08G09G16G26G27G28G31            
  21254591.453 6  21254601.254 9 111693624.223 6  87034030.229 9  21254601.17647
  20929670.008 6  20929683.336 9 109986156.989 6  85703683.747 9  20929682.28949
  23398954.164 3  23398968.602 8 122962325.769 3  95814864.775 8  23398968.27047
  21231439.633 6                 111571959.846 6  86939217.92447  21231447.06347
  22655002.922 6  22655018.609 9 119052845.062 6  92768277.702 9  22655018.45747
  19854519.813 7  19854529.695 9 104336200.605 7  81300945.530 9  19854529.36749
  23855584.023 3  23855606.891 8 125361943.377 3  97684436.563 8  23855605.65245
  23266809.195 5  23266830.223 8 122267898.471 5  95273516.402 8  23266829.81347
 23  3 10  3  1  8.0000000  0  8G04G08G09G16G26G27G28G31            
  21254556.023 6  21254566.020 9 111693438.820 6  87033885.760 9  21254565.85948
  20929333.422 6  20929347.352 9 109984390.484 6  85702307.258 9  20929346.15249
  23398605.359 3  23398619.766 8 122960491.165 3  95813435.212 8  23398619.16847
  21231720.211 6                 111573434.483 6  86940366.98747  21231727.78547
  22655416.563 6  22655432.125 9 119055017.475 6  92769970.484 9  22655431.72347
  19854588.922 7  19854599.117 9 104336565.396 7  81301229.786 9  19854598.66849
  23856131.313 3  23856153.719 8 125364817.819 3  97686676.396 8  23856152.65245
  23267278.555 5  23267299.234 8 122270363.751 5  95275437.403 8  23267298.93847
 23  3 10  3  1  9.0000000  0  8G04G08G09G16G26G27G28G31            
  21254521.141 6  21254530.883 9 111693254.184 6  87033741.879 9  21254530.57848
  20928997.789 6  20929011.371 9 109982624.657 6  85700931.290 9  20929010.27749
  23398256.125 3  23398270.672 8 122958657.107 3  95812006.078 8  23398270.14147
  21232000.953 6                 111574909.331 6  86941516.22347  21232008.52347
  22655830.031 6  22655845.520 9 119057189.993 6  92771663.342 9  22655845.17247
  19854658.836 7  19854668.527 9 104336930.998 7  81301514.666 9  19854668.30549
  23856677.852 3  23856700.563 8 125367692.691 3  97688916.557 8  23856699.87945
  23267747.391 5  23267768.488 8 122272829.457 5  95277358.722 8  23267768.05147
 23  3 10  3  1 10.0000000  0  8G04G08G09G16G26G27G28G31            
  21254486.109 6  21254495.738 9 111693070.500 6  87033598.742 9  21254495.65248
  20928661.844 6  20928675.254 9 109980859.664 6  85699555.978 9  20928674.49249
  23397907.828 3  23397921.578 8 122956823.867 3  95810577.584 8  23397921.36347
  21232281.727 6                 111576384.657 6  86942665.82447  21232289.26247
  22656243.266 6  22656259.117 9 119059362.784 6  92773356.415 9  22656258.70347
  19854728.492 7  19854738.527 9 104337297.565 7  81301800.300 9  19854738.09449
  23857225.336 2  23857247.809 8 125370568.050 2  97691157.097 8  23857247.11745
  23268216.664 5  23268237.773 8 122275295.735 5  95279280.493 8  23268237.22747
 23  3 10  3  1 11.0000000  0  8G04G08G09G16G26G27G28G31            
  21254451.234 6  21254461.016 9 111692887.637 6  87033456.247 9  21254460.81648
  20928326.234 6  20928339.500 9 109979095.356 6  85698181.194 9  20928338.68449
  23397558.453 3  23397572.914 8 122954991.300 3  95809149.613 8  23397572.54347
  21232562.734 6                 111577860.256 6  86943815.63347  21232569.85947
  22656656.734 6  22656672.637 9 119061535.720 6  92775049.601 9  22656672.43047
  19854798.094 7  19854808.254 9 104337664.986 7  81302086.597 9  19854808.00449
  23857772.430 2  23857795.184 8 125373443.946 2  97693398.062 8  23857794.46545
  23268686.477 5  23268707.219 8 122277762.461 5  95281202.619 8  23268706.60547
 23  3 10  3  1 12.0000000  0  8G04G08G09G16G26G27G28G31            
  21254416.883 6  21254426.344 9 111692705.750 6  87033314.512 9  21254425.96548
  20927990.391 6  20928003.957 9 109977331.958 6  85696807.119 9  20928003.19149
  23397209.602 2  23397224.441 8 122953159.570 2  95807722.301 8  23397223.87147
  21232843.352 6                 111579336.355 6  86944965.84447  21232850.96947
  22657069.680 6  22657086.113 9 119063709.032 6  92776743.081 9  22657086.21947
  19854868.539 7  19854878.188 9 104338033.440 7  81302373.705 9  19854877.91849
  23858320.156 2  23858342.430 8 125376320.480 2  97695639.517 8  23858341.75445
  23269155.484 5  23269176.824 8 122280229.831 5  95283125.244 8  23269176.15647
 23  3 10  3  1 13.0000000  0  8G04G08G09G16G26G27G28G31            
  21254382.141 6  21254391.875 9 111692524.601 6  87033173.357 9  21254391.57848
  20927655.102 6  20927668.422 9 109975569.156 6  85695433.513 9  20927667.57049
  23396861.180 3  23396876.082 8 122951328.340 3  95806295.368 8  23396875.45747
  21233124.242 6                 111580812.654 6  86946116.20347  21233131.98847
  22657483.375 6  22657499.676 9 119065882.367 6  92778436.579 9  22657499.76648
  19854938.836 7  19854948.531 9 104338402.632 7  81302661.380 9  19854948.15649
  23858867.852 2  23858889.691 8 125379197.330 2  97697881.223 8  23858889.18045
  23269624.617 5  23269646.324 8 122282697.526 5  95285048.127 8  23269645.63347
 23  3 10  3  1 14.0000000  0  8G04G08G09G16G26G27G28G31            
  21254347.891 6  21254357.551 9 111692344.310 6  87033032.860 9  21254357.28548
  20927319.617 6  20927333.418 9 109973807.106 6  85694060.489 9  20927332.43049
  23396513.203 3  23396527.691 8 122949497.879 3  95804869.035 8  23396527.09847
  21233405.250 6                 111582289.292 6  86947266.81847  21233412.82847
  22657897.539 6  22657913.316 9 119068055.926 6  92780130.251 9  22657913.27747
  19855009.031 7  19855018.938 9 104338772.738 7  81302949.776 9  19855018.48849
  23859415.445 2  23859437.223 8 125382074.686 2  97700123.316 8  23859436.84845
  23270095.109 5  23270115.988 8 122285165.729 5  95286971.398 8  23270115.19547
 23  3 10  3  1 15.0000000  0  8G04G08G09G16G26G27G28G31            
  21254313.500 6  21254323.305 9 111692164.649 6  87032892.861 9  21254323.15648
  20926984.125 6  20926998.125 9 109972045.571 6  85692687.866 9  20926997.15249
  23396165.328 3  23396179.426 8 122947667.879 3  95803443.072 8  23396178.88747
  21233686.695 6                 111583766.038 6  86948417.53547  21233693.85947
  22658310.945 6  22658326.902 9 119070229.460 6  92781823.903 9  22658326.91848
  19855079.328 7  19855089.586 9 104339143.509 7  81303238.688 9  19855089.09049
  23859962.148 2  23859984.719 8 125384952.307 2  97702365.626 8  23859984.53145
  23270564.383 5  23270585.289 8 122287634.202 5  95288894.884 8  23270584.79347
 23  3 10  3  1 16.0000000  0  8G04G08G09G16G26G27G28G31            
  21254279.563 6  21254289.336 9 111691985.870 6  87032753.548 9  21254289.03148
  20926649.359 6  20926663.070 9 109970284.854 6  85691315.878 9  20926662.19549
  23395816.531 3  23395831.320 8 122945838.613 3  95802017.669 8  23395830.98447
  21233967.383 6                 111585243.188 6  86949568.55947  21233975.06347
  22658724.383 6  22658740.523 9 119072403.207 6  92783517.722 9  22658740.70747
  19855150.523 7  19855160.563 9 104339515.205 7  81303528.322 9  19855159.90249
  23860509.742 2  23860532.273 8 125387830.479 2  97704608.357 8  23860532.13745
  23271034.141 5  23271055.082 8 122290103.200 5  95290818.769 8  23271054.36347
 23  3 10  3  1 17.0000000  0  8G04G08G09G16G26G27G28G31            
  21254245.984 6  21254255.594 9 111691807.887 6  87032614.853 9  21254255.29348
  20926314.008 6  20926328.070 9 109968524.779 6  85689944.401 9  20926327.31649
  23395469.133 3  23395483.262 8 122944009.957 3  95800592.741 8  23395483.02047
  21234248.828 6                 111586720.563 6  86950719.75447  21234256.06647
  22659138.086 6  22659154.051 9 119074577.068 6  92785211.638 9  22659154.43847
  19855221.156 7  19855231.375 9 104339887.690 7  81303818.568 9  19855230.66449
  23861057.969 2  23861080.059 8 125390709.053 2  97706851.408 8  23861079.80945
  23271504.273 5  23271525.008 8 122292572.624 5  95292742.999 8  23271524.25847
 23  3 10  3  1 18.0000000  0  8G04G08G09G16G26G27G28G31            
  21254211.617 6  21254221.824 9 111691630.723 6  87032476.798 9  21254221.61748
  20925979.648 6  20925993.242 9 109966765.427 6  85688573.471 9  20925992.49249
  23395120.531 3  23395135.316 8 122942182.016 3  95799168.376 8  23395135.25047
  21234529.914 6                 111588198.277 6  86951871.21747  21234537.22347
  22659552.047 6  22659567.875 9 119076751.131 6  92786905.699 9  22659568.12947
  19855292.578 7  19855302.484 9 104340261.063 7  81304109.499 9  19855301.73449
  23861605.641 3  23861627.801 8 125393588.074 3  97709094.811 8  23861627.41045
  23271974.297 5  23271995.039 8 122295042.476 5  95294667.562 8  23271994.16446
 23  3 10  3  1 19.0000000  0  8G04G08G09G16G26G27G28G31            
  21254178.531 6  21254188.434 9 111691454.522 6  87032339.496 9  21254187.96148
  20925644.961 6  20925658.484 9 109965006.946 6  85687203.232 9  20925657.89849
  23394773.500 3  23394787.734 8 122940354.850 3  95797744.618 8  23394787.49247
  21234810.766 6                 111589676.447 6  86953023.03647  21234818.62547
  22659965.875 6  22659981.938 9 119078925.470 6  92788599.979 9  22659981.93447
  19855363.602 7  19855373.563 9 104340635.425 7  81304401.211 9  19855372.95349
  23862153.609 3  23862176.066 8 125396467.752 3  97711338.720 8  23862175.48845
  23272444.828 5  23272465.277 8 122297512.960 5  95296592.619 8  23272464.11746
 23  3 10  3  1 20.0000000  0  8G04G08G09G16G26G27G28G31            
  21254144.797 6  21254155.113 9 111691279.042 6  87032202.753 9  21254154.48448
  20925310.266 6  20925324.238 9 109963249.068 6  85685833.449 9  20925323.38749
  23394425.680 3  23394440.180 8 122938528.222 3  95796321.271 8  23394439.82847
  21235092.523 6                 111591154.806 6  86954174.99247  21235099.82047
  22660379.289 6  22660395.582 9 119081099.888 6  92790294.319 9  22660395.52047
  19855434.859 7  19855445.063 9 104341010.532 7  81304693.498 9  19855444.33249
  23862702.531 2  23862723.754 8 125399347.761 2  97713582.873 8  23862723.44545
  23272914.898 5  23272935.242 8 122299983.788 5  95298517.938 8  23272934.33247
 23  3 10  3  1 21.0000000  0  8G04G08G09G16G26G27G28G31            
  21254111.516 6  21254121.863 9 111691104.375 6  87032066.650 9  21254121.27348
  20924975.719 6  20924989.770 9 109961491.906 6  85684464.239 9  20924989.16049
  23394078.219 3  23394092.750 8 122936702.314 3  95794898.490 8  23394092.53547
  21235373.945 6                 111592633.483 6  86955327.21547  21235381.17247
  22660793.070 5  22660809.309 9 119083274.449 5  92791988.773 9  22660809.44147
  19855506.609 7  19855516.523 9 104341386.503 7  81304986.470 9  19855515.82049
  23863250.828 3  23863272.117 8 125402228.238 3  97715827.411 8  23863271.52345
  23273385.648 5  23273405.750 8 122302455.025 5  95300443.573 8  23273404.52347
 23  3 10  3  1 22.0000000  0  8G04G08G09G16G26G27G28G31            
  21254079.203 6  21254088.715 9 111690930.549 6  87031931.195 9  21254088.31648
  20924641.938 6  20924655.426 9 109959735.459 6  85683095.580 9  20924654.82849
  23393731.227 3  23393745.293 8 122934877.044 3  95793476.199 8  23393745.27747
  21235655.250 6                 111594112.450 6  86956479.65447  21235662.53947
  22661206.797 5  22661223.129 9 119085449.192 5  92793683.375 9  22661223.29347
  19855578.266 7  19855588.238 9 104341763.333 7  81305280.099 9  19855587.64149
  23863799.602 3  23863820.219 8 125405109.163 3  97718072.299 8  23863819.81345
  23273855.578 5  23273876.039 8 122304926.762 5  95302369.607 8  23273874.68447
 23  3 10  3  1 23.0000000  0  8G04G08G09G16G26G27G28G31            
  21254045.727 6  21254055.828 9 111690757.604 6  87031796.427 9  21254055.35548
  20924307.234 6  20924321.496 9 109957979.810 6  85681727.532 9  20924320.62549
  23393384.102 3  23393398.129 8 122933052.512 3  95792054.486 8  23393398.00047
  21235936.828 6                 111595591.806 6  86957632.39247  21235943.95347
  22661621.133 5  22661637.000 9 119087624.169 5  92795378.142 9  22661637.15647
  19855650.000 7  19855660.078 9 104342141.077 7  81305574.440 9  19855659.48049
  23864346.984 3  23864368.457 8 125407990.614 3  97720317.586 8  23864368.35245
  23274326.063 5  23274346.430 8 122307399.016 5  95304296.035 8  23274345.23847
 23  3 10  3  1 24.0000000  0  8G04G08G09G16G26G27G28G31            
  21254012.938 6  21254022.938 9 111690585.172 6  87031662.068 9  21254022.45348
  20923973.266 6  20923987.539 9 109956224.570 6  85680359.820 9  20923986.73049
  23393036.484 4  23393050.887 8 122931228.366 4  95790633.066 8  23393050.82047
  21236218.258 6                 111597071.184 6  86958785.15047  21236225.51647
  22662035.195 5  22662050.598 9 119089799.002 5  92797072.808 9  22662051.10547
  19855722.008 7  19855732.129 9 104342519.387 7  81305869.224 9  19855731.44949
  23864895.141 3  23864916.754 8 125410872.228 3  97722562.999 8  23864916.62145
  23274796.617 5  23274816.723 8 122309871.419 5  95306222.579 8  23274815.80547
 23  3 10  3  1 25.0000000  0  8G04G08G09G16G26G27G28G31            
  21253980.055 6  21253990.387 9 111690413.432 6  87031528.237 9  21253989.84848
  20923639.742 6  20923653.594 9 109954469.873 6  85678992.524 9  20923652.66449
  23392689.789 4  23392703.719 8 122929404.675 4  95789212.013 8  23392703.93448
  21236500.086 6                 111598550.687 6  86959938.00647  21236506.88347
  22662449.023 5  22662464.551 9 119091973.837 5  92798767.468 9  22662464.84847
  19855794.336 7  19855804.227 9 104342898.400 7  81306164.565 9  19855803.56349
  23865444.352 3  23865465.242 8 125413754.137 3  97724808.654 8  23865464.95345
  23275266.875 5  23275287.422 8 122312344.120 5  95308149.358 8  23275286.20747
 23  3 10  3  1 26.0000000  0  8G04G08G09G16G26G27G28G31            
  21253947.570 6  21253957.879 9 111690242.670 6  87031395.176 9  21253957.34448
  20923306.141 6  20923319.691 9 109952716.094 6  85677625.945 9  20923318.91849
  23392343.648 4  23392356.879 8 122927581.885 4  95787791.647 8  23392357.10948
  21236781.688 6                 111600030.690 6  86961091.25047  21236788.62947
  22662862.680 5  22662878.469 9 119094149.024 5  92800462.411 9  22662878.71147
  19855866.500 7  19855876.711 9 104343278.431 7  81306460.681 9  19855875.81649
  23865992.508 3  23866013.941 8 125416636.660 3  97727054.782 8  23866013.33645
  23275737.867 5  23275757.949 8 122314817.472 5  95310076.643 8  23275756.64847
 23  3 10  3  1 27.0000000  0  8G04G08G09G16G26G27G28G31            
  21253915.242 6  21253925.445 9 111690072.815 6  87031262.813 9  21253925.12548
  20922972.102 6  20922986.258 9 109950963.127 6  85676259.998 9  20922985.41049
  23391996.422 4  23392010.371 8 122925759.812 4  95786371.854 8  23392010.38348
  21237063.195 6                 111601511.060 6  86962244.78547  21237070.39147
  22663276.602 5  22663292.820 9 119096324.437 5  92802157.528 9  22663292.65648
  19855939.008 7  19855949.086 9 104343659.382 7  81306757.528 9  19855948.43049
  23866540.734 3  23866562.434 8 125419519.794 3  97729301.396 8  23866562.08245
  23276208.883 5  23276228.902 8 122317291.340 5  95312004.338 8  23276227.30147
 23  3 10  3  1 28.0000000  0  8G04G08G09G16G26G27G28G31            
  21253883.406 6  21253893.648 9 111689903.706 6  87031131.040 9  21253892.91047
  20922638.672 6  20922652.617 9 109949210.822 6  85674894.565 9  20922651.96949
  23391649.453 4  23391663.809 8 122923938.352 4  95784952.527 8  23391663.63748
  21237344.695 6                 111602991.681 6  86963398.51347  21237352.32447
  22663690.758 5  22663706.566 9 119098499.959 5  92803852.735 9  22663706.73047
  19856011.688 7  19856021.836 9 104344041.171 7  81307055.015 9  19856021.00449
  23867089.148 3  23867111.066 8 125422403.241 3  97731548.239 8  23867110.79345
  23276679.352 5  23276699.609 8 122319765.584 5  95313932.317 8  23276698.12147
 23  3 10  3  1 29.0000000  0  8G04G08G09G16G26G27G28G31            
  21253851.586 6  21253861.594 9 111689735.608 6  87031000.047 9  21253860.82047
  20922305.203 6  20922319.535 9 109947459.374 6  85673529.804 9  20922318.75849
  23391303.281 3  23391317.133 8 122922117.701 3  95783533.852 8  23391317.28947
  21237626.336 6                 111604472.800 6  86964552.63547  21237634.06347
  22664105.305 5  22664120.684 9 119100675.795 5  92805548.176 9  22664120.73847
  19856084.203 7  19856094.648 9 104344423.953 7  81307353.292 9  19856093.85949
  23867638.906 3  23867660.164 8 125425287.381 3  97733795.623 8  23867659.45346
  23277150.273 5  23277170.504 8 122322240.465 5  95315860.794 8  23277168.91047
 23  3 10  3  1 30.0000000  0  8G04G08G09G16G26G27G28G31            
  21253819.375 6  21253829.586 9 111689568.185 6  87030869.586 9  21253828.89147
  20921972.383 6  20921986.375 9 109945708.545 6  85672165.519 9  20921985.58649
  23390956.781 3  23390970.719 8 122920297.608 3  95782115.598 8  23390970.93847
  21237908.656 6                 111605954.086 6  86965706.87047  21237915.94947
  22664518.359 5  22664534.609 9 119102851.688 5  92807243.663 9  22664534.77347
  19856157.609 7  19856167.676 9 104344807.471 7  81307652.134 9  19856166.90649
  23868187.102 3  23868208.961 8 125428171.793 3  97736043.228 8  23868208.35246
  23277621.625 5  23277641.254 8 122324715.669 5  95317789.524 8  23277639.76647
 23  3 10  3  1 31.0000000  0  8G04G08G09G16G26G27G28G31            
  21253787.469 6  21253797.773 9 111689401.615 6  87030739.786 9  21253797.27047
  20921639.484 6  20921653.352 9 109943958.432 6  85670801.800 9  20921652.44149
  23390610.391 4  23390624.457 8 122918478.209 4  95780697.893 8  23390624.73447
  21238190.609 6                 111607435.685 6  86966861.35847  21238197.69947
  22664932.664 5  22664948.723 9 119105027.748 5  92808939.284 9  22664949.03547
  19856230.570 7  19856240.844 9 104345191.849 7  81307951.648 9  19856240.10549
  23868736.898 3  23868757.754 8 125431056.712 3  97738291.223 8  23868757.39545
  23278092.422 5  23278112.352 8 122327191.373 5  95319718.643 8  23278110.77347
 23  3 10  3  1 32.0000000  0  8G04G08G09G16G26G27G28G31            
  21253755.734 6  21253766.508 9 111689235.809 6  87030610.584 9  21253765.81347
  20921306.766 6  20921320.703 9 109942208.996 6  85669438.610 9  20921319.74249
  23390264.195 4  23390278.789 8 122916659.416 4  95779280.649 8  23390278.63748
  21238472.375 6                 111608917.529 6  86968016.05547  21238479.68447
  22665346.516 6  22665362.895 9 119107203.924 6  92810635.000 9  22665363.18447
  19856303.508 7  19856313.949 9 104345577.042 7  81308251.794 9  19856313.37549
  23869285.773 3  23869306.824 8 125433942.056 3  97740539.549 8  23869306.43445
  23278564.031 5  23278583.789 8 122329667.444 5  95321648.047 8  23278581.87947
 23  3 10  3  1 33.0000000  0  8G04G08G09G16G26G27G28G31            
  21253724.438 6  21253735.023 9 111689070.661 6  87030481.901 9  21253734.46148
  20920973.609 6  20920987.723 9 109940460.111 6  85668075.830 9  20920986.85949
  23389918.172 4  23389932.789 8 122914841.136 4  95777863.810 8  23389932.85547
  21238754.453 6                 111610399.521 6  86969170.84847  21238761.71947
  22665760.711 5  22665776.984 9 119109380.073 5  92812330.694 9  22665777.22347
  19856377.484 7  19856387.254 9 104345962.895 7  81308552.449 9  19856386.70749
  23869834.563 3  23869856.090 8 125436827.667 3  97742788.080 8  23869855.33245
  23279034.953 5  23279055.277 8 122332143.809 5  95323577.669 8  23279053.12147
 23  3 10  3  1 34.0000000  0  8G04G08G09G16G26G27G28G31            
  21253693.492 6  21253703.535 9 111688906.373 6  87030353.883 9  21253703.01648
  20920640.867 6  20920655.008 9 109938712.030 6  85666713.690 9  20920654.23449
  23389572.328 4  23389587.090 8 122913023.550 4  95776447.505 8  23389586.78548
  21239036.375 6                 111611881.907 6  86970325.95347  21239043.92247
  22666175.516 5  22666190.980 9 119111556.473 5  92814026.571 9  22666191.38747
  19856450.969 7  19856461.211 9 104346349.692 7  81308853.855 9  19856460.40249
  23870383.906 4  23870405.352 8 125439713.833 4  97745037.040 8  23870404.49645
  23279505.938 5  23279526.340 8 122334620.727 5  95325507.733 8  23279524.40247
 23  3 10  3  1 35.0000000  0  8G04G08G09G16G26G27G28G31            
  21253662.375 6  21253672.297 9 111688742.786 6  87030226.409 9  21253671.80948
  20920308.242 6  20920322.406 9 109936964.503 6  85665351.990 9  20920321.80949
  23389227.164 3  23389241.230 8 122911206.509 3  95775031.637 8  23389240.87147
  21239318.672 6                 111613364.424 6  86971481.15847  21239325.89847
  22666588.891 6  22666605.344 9 119113732.899 6  92815722.480 9  22666605.44547
  19856524.875 7  19856534.621 9 104346737.219 7  81309155.819 9  19856534.20749
  23870933.250 4  23870954.672 8 125442600.283 4  97747286.224 8  23870953.92246
  23279977.164 5  23279997.816 8 122337097.928 5  95327438.010 8  23279995.88347
 23  3 10  3  1 36.0000000  0  8G04G08G09G16G26G27G28G31            
  21253631.688 6  21253641.594 9 111688580.144 6  87030099.672 9  21253640.87148
  20919976.164 6  20919989.789 9 109935217.823 6  85663990.946 9  20919989.31649
  23388881.219 3  23388895.691 8 122909390.288 3  95773616.402 8  23388895.36348
  21239601.344 6                 111614847.376 6  86972636.69647  21239608.05947
  22667003.438 6  22667019.582 9 119115909.585 6  92817418.589 9  22667019.58247
  19856598.656 7  19856608.719 9 104347125.687 7  81309458.515 9  19856608.17249
  23871482.648 4  23871504.121 8 125445487.307 4  97749535.857 8  23871503.31346
  23280448.859 5  23280469.242 8 122339575.715 5  95329368.745 8  23280467.37147
 23  3 10  3  1 37.0000000  0  8G04G08G09G16G26G27G28G31            
  21253600.313 6  21253610.535 9 111688418.335 6  87029973.582 9  21253610.35948
  20919643.875 6  20919657.703 9 109933471.882 6  85662630.468 9  20919656.99249
  23388535.328 4  23388550.184 9 122907574.693 4  95772201.646 9  23388549.87548
  21239882.922 6                 111616330.657 6  86973792.51047  21239890.43847
  22667417.172 6  22667433.746 9 119118086.446 6  92819114.836 9  22667433.84447
  19856672.664 7  19856682.613 9 104347515.029 7  81309761.900 9  19856682.18049
  23872032.500 4  23872053.754 8 125448374.825 4  97751785.864 8  23872052.68446
  23280921.375 5  23280941.031 8 122342053.959 5  95331299.834 8  23280938.91447
 23  3 10  3  1 38.0000000  0  8G04G08G09G16G26G27G28G31            
  21253570.508 6  21253580.094 9 111688257.206 6  87029848.030 9  21253579.77748
  20919311.695 6  20919325.465 9 109931726.514 6  85661270.444 9  20919324.95749
  23388189.711 3  23388204.902 8 122905759.684 3  95770787.358 8  23388204.30948
  21240165.242 6                 111617814.103 6  86974948.43647  21240172.70347
  22667832.070 6  22667847.992 9 119120263.370 6  92820811.126 9  22667848.05947
  19856747.023 7  19856757.148 9 104347905.115 7  81310065.863 9  19856756.42649
  23872581.195 3  23872602.914 8 125451262.619 3  97754036.094 8  23872602.26246
  23281392.570 5  23281412.590 8 122344532.517 5  95333231.181 8  23281410.45346
 23  3 10  3  1 39.0000000  0  8G04G08G09G16G26G27G28G31            
  21253539.086 6  21253549.449 9 111688096.910 6  87029723.125 9  21253549.28548
  20918979.953 6  20918993.656 9 109929981.868 6  85659910.980 9  20918993.02049
  23387844.523 3  23387859.715 9 122903945.313 3  95769373.558 9  23387859.03548
  21240447.875 6                 111619297.861 6  86976104.61347  21240455.12147
  22668246.531 6  22668262.324 9 119122440.424 6  92822507.524 9  22668262.42647
  19856821.531 7  19856831.445 9 104348296.032 7  81310370.474 9  19856830.94549
  23873131.125 3  23873152.781 8 125454150.977 3  97756286.760 8  23873152.00046
  23281864.539 5  23281884.145 8 122347011.536 5  95335162.884 8  23281882.12547
 23  3 10  3  1 40.0000000  0  8G04G08G09G16G26G27G28G31            
  21253509.102 6  21253519.250 9 111687937.584 6  87029598.967 9  21253518.98448
  20918647.875 6  20918661.965 9 109928238.103 6  85658552.201 9  20918660.97349
  23387499.477 3  23387514.453 9 122902131.743 3  95767960.387 9  23387513.99248
  21240729.891 6                 111620782.061 6  86977261.12247  21240737.59047
  22668660.328 5  22668676.758 9 119124617.799 5  92824204.170 9  22668676.69947
  19856895.758 7  19856906.250 9 104348687.956 7  81310675.867 9  19856905.53949
  23873681.367 3  23873702.473 8 125457039.852 3  97758537.817 8  23873701.80946
  23282336.156 5  23282356.102 8 122349491.174 5  95337095.057 8  23282353.89847
 23  3 10  3  1 41.0000000  0  8G04G08G09G16G26G27G28G31            
  21253478.859 6  21253489.148 9 111687779.166 6  87029475.530 9  21253488.86748
  20918316.336 6  20918330.281 9 109926495.134 6  85657194.055 9  20918329.47749
  23387155.188 4  23387169.539 8 122900318.961 4  95766547.838 8  23387169.00048
  21241012.969 6                 111622266.697 6  86978417.98647  21241019.97747
  22669074.391 5  22669091.016 9 119126795.428 5  92825901.013 9  22669090.96547
  19856970.727 7  19856980.902 9 104349080.862 7  81310982.025 9  19856980.38349
  23874230.914 4  23874252.078 8 125459929.312 4  97760789.344 8  23874251.72746
  23282807.148 5  23282828.117 8 122351971.344 5  95339027.658 8  23282825.80947
 23  3 10  3  1 42.0000000  0  8G04G08G09G16G26G27G28G31            
  21253449.039 6  21253458.965 9 111687621.546 6  87029352.697 9  21253458.93047
  20917985.133 6  20917998.570 9 109924752.857 6  85655836.431 9  20917997.85549
  23386810.047 3  23386824.617 8 122898506.807 3  95765135.772 8  23386824.24247
  21241294.734 6                 111623751.566 6  86979575.03047  21241302.59047
  22669489.133 5  22669505.531 9 119128973.188 5  92827597.956 9  22669505.18447
  19857045.461 7  19857055.664 9 104349474.530 7  81311288.774 9  19857055.29749
  23874780.711 4  23874802.113 8 125462819.200 4  97763041.201 8  23874801.74245
  23283279.172 5  23283300.316 8 122354451.924 5  95340960.564 8  23283297.84846
 23  3 10  3  1 43.0000000  0  8G04G08G09G16G26G27G28G31            
  21253419.109 6  21253429.125 9 111687464.560 6  87029230.371 9  21253428.91848
  20917653.359 6  20917667.039 9 109923011.096 6  85654479.224 9  20917666.26249
  23386465.008 4  23386479.879 8 122896695.146 4  95763724.088 8  23386479.60947
  21241577.859 6                 111625236.598 6  86980732.20647  21241585.10247
  22669903.969 5  22669920.070 9 119131150.938 5  92829294.891 9  22669919.62147
  19857120.703 7  19857130.820 9 104349868.933 7  81311596.103 9  19857130.39149
  23875330.820 4  23875351.938 8 125465709.363 4  97765293.271 8  23875351.77345
  23283751.453 5  23283772.125 8 122356932.788 5  95342893.707 8  23283769.84447
 23  3 10  3  1 44.0000000  0  8G04G08G09G16G26G27G28G31            
  21253389.680 6  21253399.563 9 111687308.377 6  87029108.670 9  21253399.32048
  20917321.969 6  20917335.539 9 109921270.005 6  85653122.530 9  20917335.10249
  23386120.922 4  23386135.164 8 122894884.087 4  95762312.865 8  23386134.87948
  21241860.617 6                 111626721.884 6  86981889.55647  21241867.79747
  22670318.781 6  22670334.395 9 119133328.808 6  92830991.931 9  22670334.18847
  19857195.570 7  19857206.105 9 104350264.128 7  81311904.044 9  19857205.75049
  23875880.500 4  23875902.027 8 125468599.956 4  97767545.685 8  23875902.00445
  23284223.813 5  23284244.582 8 122359414.094 5  95344827.198 8  23284242.14547
 23  3 10  3  1 45.0000000  0  8G04G08G09G16G26G27G28G31            
  21253360.125 6  21253369.992 9 111687152.925 6  87028987.536 9  21253369.73448
  20916990.859 6  20917004.148 9 109919529.592 6  85651766.359 9  20917003.77349
  23385776.688 4  23385790.559 8 122893073.633 4  95760902.115 8  23385790.27748
  21242143.445 6                 111628207.415 6  86983047.10547  21242150.71947
  22670732.914 5  22670748.715 9 119135506.759 5  92832689.030 9  22670748.81347
  19857271.453 7  19857281.375 9 104350660.090 7  81312212.587 9  19857280.93849
  23876430.500 4  23876452.262 8 125471490.928 4  97769798.381 8  23876452.13345
  23284696.281 5  23284716.930 8 122361895.766 5  95346760.966 8  23284714.45747
 23  3 10  3  1 46.0000000  0  8G04G08G09G16G26G27G28G31            
  21253330.305 6  21253340.699 9 111686998.346 6  87028867.081 9  21253340.36347
  20916659.703 6  20916673.359 9 109917789.924 6  85650410.776 9  20916672.84449
  23385431.891 4  23385446.484 9 122891263.910 4  95759491.953 9  23385445.96148
  21242425.500 6                 111629693.269 6  86984204.90247  21242433.49647
  22671147.070 5  22671163.254 9 119137684.935 5  92834386.293 9  22671163.46947
  19857346.578 7  19857357.012 9 104351056.961 7  81312521.832 9  19857356.53549
  23876981.188 3  23877002.418 8 125474382.389 3  97772051.476 8  23877002.48445
  23285168.789 5  23285189.199 8 122364377.928 5  95348695.108 8  23285186.78946
 23  3 10  3  1 47.0000000  0  8G04G08G09G16G26G27G28G31            
  21253301.367 6  21253311.359 9 111686844.479 6  87028747.177 9  21253311.18848
  20916328.852 6  20916342.152 9 109916050.881 6  85649055.678 9  20916341.95749
  23385087.367 3  23385102.145 9 122889454.752 3  95758082.221 9  23385101.59048
  21242708.742 6                 111631179.314 6  86985362.87747  21242716.29747
  22671561.336 5  22671578.141 9 119139863.140 5  92836083.586 9  22671578.00847
  19857422.375 7  19857432.594 9 104351454.591 7  81312831.664 9  19857432.29749
  23877531.164 3  23877553.105 8 125477274.214 3  97774304.851 8  23877552.71146
  23285641.195 5  23285661.551 8 122366860.438 5  95350629.527 8  23285659.31347
 23  3 10  3  1 48.0000000  0  8G04G08G09G16G26G27G28G31            
  21253272.359 6  21253282.230 9 111686691.382 6  87028627.882 9  21253282.01648
  20915998.047 6  20916011.836 9 109914312.457 6  85647701.070 9  20916011.15249
  23384743.289 3  23384757.926 9 122887646.164 3  95756672.936 9  23384757.32848
  21242991.109 6                 111632665.613 6  86986521.03947  21242999.09447
  22671976.234 5  22671992.211 9 119142041.472 5  92837780.983 9  22671992.44547
  19857498.117 7  19857508.195 9 104351853.003 7  81313142.114 9  19857508.07049
  23878081.492 3  23878103.105 8 125480166.445 3  97776558.545 8  23878103.09446
  23286113.758 5  23286133.898 8 122369343.341 5  95352564.257 8  23286131.79347
 23  3 10  3  1 49.0000000  0  8G04G08G09G16G26G27G28G31            
  21253243.602 6  21253253.156 9 111686539.162 6  87028509.258 9  21253253.05948
  20915667.602 6  20915680.980 9 109912574.830 6  85646347.082 9  20915680.46949
  23384399.500 3  23384413.746 9 122885838.350 3  95755264.249 9  23384413.39848
  21243274.289 6                 111634152.292 6  86987679.48947  21243281.93047
  22672390.156 5  22672406.828 9 119144220.010 5  92839478.534 9  22672407.03147
  19857574.227 6  19857584.488 9 104352252.340 6  81313453.281 9  19857584.09849
  23878630.828 3  23878653.477 8 125483059.168 3  97778812.611 8  23878653.62146
  23286585.867 5  23286606.582 8 122371826.762 5  95354499.395 8  23286604.31347
 23  3 10  3  1 50.0000000  0  8G04G08G09G16G26G27G28G31            
  21253214.852 6  21253224.641 9 111686387.696 6  87028391.238 9  21253224.20348
  20915337.125 6  20915350.594 9 109910837.859 6  85644993.593 9  20915349.78149
  23384055.672 3  23384069.984 9 122884031.135 3  95753856.039 9  23384069.41848
  21243557.344 6                 111635639.196 6  86988838.10047  21243564.79347
  22672805.680 6  22672821.293 9 119146398.657 6  92841176.173 9  22672821.41847
  19857650.063 7  19857660.594 9 104352652.451 7  81313765.059 9  19857660.34049
  23879181.461 3  23879204.121 8 125485952.294 3  97781067.000 8  23879204.20746
  23287058.352 5  23287079.180 8 122374310.568 5  95356434.835 8  23287077.03947
 23  3 10  3  1 51.0000000  0  8G04G08G09G16G26G27G28G31            
  21253185.938 6  21253195.691 9 111686237.153 6  87028273.933 9  21253195.62548
  20915006.273 6  20915020.484 9 109909101.708 6  85643640.744 9  20915019.47749
  23383711.820 3  23383726.250 9 122882224.656 3  95752448.397 9  23383725.43448
  21243840.719 6                 111637126.514 6  86989997.04947  21243847.88347
  22673219.727 6  22673236.055 9 119148577.561 6  92842874.010 9  22673236.07847
  19857726.477 7  19857736.996 9 104353053.541 7  81314077.597 9  19857736.69949
  23879732.484 3  23879754.977 8 125488846.000 3  97783321.831 8  23879754.84445
  23287530.984 5  23287552.070 8 122376794.961 5  95358370.719 8  23287549.78946
 23  3 10  3  1 52.0000000  0  8G04G08G09G16G26G27G28G31            
  21253157.633 6  21253167.520 9 111686087.512 6  87028157.328 9  21253167.18448
  20914675.914 6  20914690.063 9 109907366.383 6  85642288.551 9  20914689.37149
  23383367.852 3  23383382.504 9 122880418.951 3  95751041.352 9  23383382.02348
  21244123.781 6                 111638614.214 6  86991156.29747  21244130.90647
  22673634.477 5  22673650.902 9 119150756.719 5  92844572.047 9  22673650.87947
  19857803.320 7  19857813.375 9 104353455.538 7  81314390.842 9  19857813.14849
  23880283.477 3  23880305.605 8 125491740.225 3  97785577.071 8  23880305.67645
  23288004.055 5  23288024.855 8 122379279.833 5  95360306.982 8  23288022.43046
 23  3 10  3  1 53.0000000  0  8G04G08G09G16G26G27G28G31            
  21253129.023 6  21253138.949 9 111685938.729 6  87028041.388 9  21253138.93848
  20914346.172 6  20914359.973 9 109905631.789 6  85640936.917 9  20914359.22349
  23383024.867 4  23383039.336 9 122878613.896 4  95749634.813 9  23383038.65648
  21244406.539 6                 111640102.257 6  86992315.81447  21244413.96947
  22674049.492 6  22674065.727 9 119152936.037 6  92846270.212 9  22674065.59047
  19857879.617 7  19857890.035 9 104353858.450 7  81314704.794 9  19857889.82049
  23880834.367 3  23880856.070 8 125494634.955 3  97787832.706 8  23880856.44145
  23288476.578 5  23288497.844 8 122381765.222 5  95362243.650 8  23288495.28146
 23  3 10  3  1 54.0000000  0  8G04G08G09G16G26G27G28G31            
  21253101.211 6  21253110.699 9 111685790.645 6  87027925.997 9  21253110.86348
  20914016.070 6  20914030.117 9 109903897.782 6  85639585.745 9  20914029.14149
  23382681.219 4  23382695.973 8 122876809.455 4  95748228.759 8  23382695.33247
  21244689.820 6                 111641590.499 6  86993475.47247  21244697.13347
  22674464.227 5  22674480.328 9 119155115.437 5  92847968.441 9  22674480.20347
  19857956.984 7  19857966.871 9 104354262.078 7  81315019.313 9  19857966.60949
  23881384.289 2  23881407.047 8 125497530.007 2  97790088.592 8  23881407.44145
  23288949.367 5  23288970.621 8 122384250.974 5  95364180.582 8  23288968.07046
 23  3 10  3  1 55.0000000  0  8G04G08G09G16G26G27G28G31            
  21253072.859 6  21253082.758 9 111685643.479 6  87027811.323 9  21253082.83248
  20913686.516 6  20913700.266 9 109902164.611 6  85638235.229 9  20913699.17649
  23382337.859 4  23382352.668 8 122875005.766 4  95746823.291 8  23382352.12948
  21244973.445 6                 111643079.108 6  86994635.43647  21244980.42647
  22674879.086 6  22674895.020 9 119157295.078 6  92849666.850 9  22674895.09047
  19858033.516 7  19858043.934 9 104354666.646 7  81315334.556 9  19858043.69549
  23881936.609 2  23881957.996 8 125500425.613 2  97792344.916 8  23881958.43446
  23289422.477 5  23289443.590 8 122386737.215 5  95366117.921 8  23289441.17646
 23  3 10  3  1 56.0000000  0  8G04G08G09G16G26G27G28G31            
  21253045.359 6  21253054.883 9 111685497.033 6  87027697.200 9  21253054.88348
  20913356.977 6  20913370.383 9 109900432.044 6  85636885.167 9  20913369.50449
  23381994.734 4  23382009.852 8 122873202.594 4  95745418.226 8  23382008.90648
  21245256.891 6                 111644567.948 6  86995795.57147  21245263.66047
  22675293.992 6  22675309.801 9 119159474.793 6  92851365.322 9  22675309.86347
  19858110.469 7  19858120.801 9 104355071.987 7  81315650.401 9  19858120.78549
  23882487.398 2  23882509.191 8 125503321.580 2  97794601.523 8  23882509.40246
  23289895.461 5  23289916.773 8 122389223.864 5  95368055.563 8  23289914.37946
 23  3 10  3  1 57.0000000  0  8G04G08G09G16G26G27G28G31            
  21253017.539 6  21253027.191 9 111685351.364 6  87027583.681 9  21253027.22348
  20913026.961 6  20913040.867 9 109898700.161 6  85635535.648 9  20913040.00449
  23381651.789 4  23381666.480 9 122871400.103 4  95744013.689 9  23381666.04348
  21245540.078 6                 111646057.033 6  86996955.88747  21245547.09447
  22675708.523 6  22675724.785 9 119161654.603 6  92853063.864 9  22675724.81647
  19858188.156 7  19858198.090 9 104355478.119 7  81315966.864 9  19858198.16049
  23883038.570 2  23883060.484 8 125506217.985 2  97796858.456 8  23883060.57846
  23290368.797 5  23290390.008 8 122391710.869 5  95369993.490 8  23290387.73846
 23  3 10  3  1 58.0000000  0  8G04G08G09G16G26G27G28G31            
  21252989.609 6  21252999.527 9 111685206.692 6  87027470.950 9  21252999.63348
  20912697.719 6  20912711.582 9 109896969.151 6  85634186.815 9  20912710.59049
  23381309.633 4  23381323.383 9 122869598.413 4  95742609.776 9  23381323.04748
  21245823.633 6                 111647546.612 6  86998116.59747  21245830.58647
  22676123.148 6  22676139.727 9 119163834.745 6  92854762.669 9  22676139.71547
  19858265.844 7  19858275.703 9 104355885.300 7  81316284.146 9  19858275.51649
  23883589.523 2  23883611.668 8 125509114.947 2  97799115.831 8  23883611.94546
  23290842.477 5  23290863.309 8 122394198.517 5  95371931.915 8  23290861.01246
 23  3 10  3  1 59.0000000  0  8G04G08G09G16G26G27G28G31            
  21252962.859 6  21252972.379 9 111685062.640 6  87027358.705 9  21252972.06648
  20912368.844 6  20912382.121 9 109895238.691 6  85632838.408 9  20912381.24649
  23380966.516 4  23380981.008 9 122867797.242 4  95741206.271 9  23380980.39148
  21246106.781 6                 111649036.286 6  86999277.36547  21246114.07047
  22676538.070 6  22676554.523 9 119166014.895 6  92856461.482 9  22676554.46947
  19858343.375 7  19858353.461 9 104356293.145 7  81316601.944 9  19858353.13349
  23884141.242 2  23884163.148 8 125512012.290 2  97801373.512 8  23884163.23846
  23291316.086 5  23291336.875 8 122396686.458 5  95373870.566 8  23291334.53947
 23  3 10  3  2  0.0000000  0  8G04G08G09G16G26G27G28G31            
  21252935.055 6  21252944.938 9 111684919.362 6  87027247.056 9  21252944.86348
  20912039.594 6  20912052.934 9 109893508.873 6  85631490.499 9  20912052.17649
  23380623.609 4  23380638.258 9 122865996.634 4  95739803.196 9  23380637.59048
  21246390.117 6                 111650526.205 6  87000438.33447  21246397.64547
  22676953.211 6  22676969.215 9 119168195.109 6  92858160.337 9  22676969.51247
  19858421.164 7  19858431.242 9 104356701.752 7  81316920.339 9  19858430.98849
  23884692.633 2  23884714.621 8 125514909.896 2  97803631.397 8  23884714.59446
  23291789.523 5  23291810.465 8 122399174.772 5  95375809.527 8  23291808.07446
 23  3 10  3  2  1.0000000  0  8G04G08G09G16G26G27G28G31            
  21252907.781 6  21252917.992 9 111684776.935 6  87027136.069 9  21252917.89848
  20911710.461 6  20911723.785 9 109891779.859 6  85630143.216 9  20911723.00049
  23380281.930 4  23380295.605 9 122864196.772 4  95738400.697 9  23380295.07448
  21246673.445 6                 111652016.476 6  87001599.58747  21246681.28547
  22677367.977 6  22677384.137 9 119170375.547 6  92859859.366 9  22677384.45747
  19858498.531 7  19858509.090 9 104357111.274 7  81317239.447 9  19858508.83649
  23885243.875 2  23885266.152 8 125517808.122 2  97805889.745 8  23885266.19545
  23292263.234 5  23292284.223 8 122401663.608 5  95377748.871 8  23292281.72746
 23  3 10  3  2  2.0000000  0  8G04G08G09G16G26G27G28G31            
  21252880.766 6  21252891.047 9 111684635.422 6  87027025.791 9  21252890.93048
  20911381.250 6  20911395.016 9 109890051.650 6  85628796.566 9  20911394.46549
  23379939.078 4  23379953.316 9 122862397.628 4  95736998.763 9  23379952.64148
  21246957.398 6                 111653507.127 6  87002761.14047  21246964.91447
  22677782.625 5  22677798.996 9 119172556.204 5  92861558.566 9  22677799.55147
  19858577.258 7  19858586.977 9 104357521.725 7  81317559.278 9  19858587.01649
  23885795.633 2  23885817.949 8 125520706.866 2  97808148.503 8  23885817.80145
  23292737.094 5  23292758.313 8 122404152.945 5  95379688.609 8  23292755.54747
 23  3 10  3  2  3.0000000  0  8G04G08G09G16G26G27G28G31            
  21252854.141 6  21252864.395 9 111684494.550 6  87026916.025 9  21252864.17648
  20911052.609 6  20911066.070 9 109888323.940 6  85627450.297 9  20911065.70749
  23379596.664 4  23379610.953 9 122860598.981 4  95735597.229 9  23379610.35948
  21247241.086 6                 111654997.888 6  87003922.77147  21247248.55947
  22678197.844 6  22678214.203 9 119174736.853 6  92863257.771 9  22678214.30147
  19858655.383 7  19858665.305 9 104357932.870 7  81317879.646 9  19858665.27749
  23886347.406 1  23886369.340 8 125523605.806 1  97810407.420 8  23886369.43445
  23293210.438 5  23293231.961 8 122406642.553 5  95381628.565 8  23293229.38747
 23  3 10  3  2  4.0000000  0  8G04G08G09G16G26G27G28G31            
  21252828.125 6  21252837.410 9 111684354.705 6  87026807.050 9  21252837.60948
  20910724.445 6  20910737.586 9 109886597.176 6  85626104.771 9  20910736.98849
  23379254.609 4  23379268.816 9 122858801.212 4  95734196.366 9  23379268.32048
  21247525.180 6                 111656489.186 6  87005084.80647  21247532.23447
  22678612.664 5  22678629.141 9 119176917.889 5  92864957.272 9  22678629.34047
  19858734.156 7  19858743.977 9 104358345.048 7  81318200.820 9  19858743.69149
  23886898.898 1  23886921.465 8 125526505.455 1  97812666.907 8  23886921.09445
  23293684.570 5  23293705.578 8 122409132.834 5  95383569.042 8  23293703.47746
 23  3 10  3  2  5.0000000  0  8G04G08G09G16G26G27G28G31            
  21252801.000 6  21252811.246 9 111684215.609 6  87026698.657 9  21252811.10548
  20910395.672 6  20910409.359 9 109884871.083 6  85624759.762 9  20910408.48849
  23378911.852 3  23378926.719 9 122857004.052 3  95732795.979 9  23378926.62948
  21247809.141 6                 111657980.717 6  87006247.04447  21247816.04747
  22679027.898 5  22679044.219 9 119179099.003 5  92866656.830 9  22679044.34047
  19858812.141 7  19858822.563 9 104358758.032 7  81318522.625 9  19858822.33649
  23887449.547 1  23887473.055 8 125529405.493 1  97814926.670 8  23887472.93045
  23294158.820 5  23294179.531 8 122411623.527 5  95385509.846 8  23294177.43047
 23  3 10  3  2  6.0000000  0  8G04G08G09G16G26G27G28G31            
  21252775.203 6  21252784.699 9 111684077.353 6  87026590.919 9  21252784.98448
  20910067.297 6  20910080.828 9 109883145.660 6  85623415.280 9  20910080.21149
  23378570.609 4  23378584.758 8 122855207.578 4  95731396.130 8  23378584.68048
  21248092.750 6                 111659472.535 6  87007409.50347  21248100.00447
  22679442.969 5  22679459.445 9 119181280.287 5  92868356.520 9  22679459.43847
  19858890.773 7  19858901.176 9 104359171.855 7  81318845.087 9  19858901.10549
  23888002.469 1  23888024.703 8 125532306.065 1  97817186.865 8  23888024.99245
  23294632.234 5  23294653.273 8 122414114.658 5  95387450.982 8  23294651.46946
 23  3 10  3  2  7.0000000  0  8G04G08G09G16G26G27G28G31            
  21252748.750 6  21252758.852 9 111683939.952 6  87026483.851 9  21252758.59448
  20909738.852 6  20909752.750 9 109881421.005 6  85622071.402 9  20909751.85949
  23378228.594 4  23378242.723 8 122853411.806 4  95729996.825 8  23378242.72348
  21248376.492 6                 111660964.721 6  87008572.24647  21248384.03147
  22679858.094 5  22679874.660 9 119183461.809 5  92870056.398 9  22679874.55147
  19858969.703 7  19858980.105 9 104359586.604 7  81319168.269 9  19858980.00849
  23888554.813 1  23888576.859 8 125535207.069 1  97819447.392 8  23888577.15245
  23295106.367 5  23295127.234 8 122416606.258 5  95389392.491 8  23295125.71946
 23  3 10  3  2  8.0000000  0  8G04G08G09G16G26G27G28G31            
  21252722.805 6  21252732.789 9 111683803.253 6  87026377.319 9  21252732.64548
  20909410.875 6  20909424.754 9 109879696.961 6  85620727.986 9  20909423.98849
  23377886.742 3  23377901.223 9 122851616.561 3  95728597.939 9  23377901.01648
  21248660.633 6                 111662457.077 6  87009735.11647  21248667.94547
  22680273.594 6  22680289.504 9 119185643.307 6  92871756.254 9  22680289.80147
  19859048.734 7  19859059.184 9 104360002.050 7  81319491.983 9  19859059.15249
  23889107.219 1  23889128.957 8 125538108.313 1  97821708.123 8  23889129.21945
  23295580.969 5  23295601.613 8 122419098.196 5  95391334.268 8  23295600.09446
 23  3 10  3  2  9.0000000  0  8G04G08G09G16G26G27G28G31            
  21252696.734 6  21252706.793 9 111683667.257 6  87026271.342 9  21252706.71948
  20909083.063 6  20909096.906 9 109877973.558 6  85619385.077 9  20909095.94949
  23377545.867 4  23377559.992 9 122849821.870 4  95727199.476 9  23377559.64848
  21248944.828 6                 111663949.637 6  87010898.15047  21248951.86747
  22680688.305 5  22680704.840 9 119187824.892 5  92873456.182 9  22680704.88747
  19859128.109 7  19859138.410 9 104360418.254 7  81319816.300 9  19859138.19549
  23889659.773 1  23889681.086 8 125541010.063 1  97823969.231 8  23889681.40645
  23296055.117 5  23296076.047 8 122421590.507 5  95393276.308 8  23296074.36747
 23  3 10  3  2 10.0000000  0  8G04G08G09G16G26G27G28G31            
  21252671.117 6  21252681.137 9 111683532.053 6  87026165.987 9  21252681.00848
  20908754.844 6  20908768.863 9 109876250.802 6  85618042.674 9  20908768.00449
  23377204.102 4  23377218.789 9 122848027.818 4  95725801.522 9  23377218.40648
  21249228.539 6                 111665442.445 6  87012061.37047  21249235.82447
  22681103.664 6  22681120.000 9 119190006.597 6  92875156.209 9  22681119.95747
  19859207.625 7  19859217.688 9 104360835.265 7  81320141.242 9  19859217.53549
  23890211.172 1  23890233.273 8 125543912.161 1  97826230.611 8  23890233.66845
  23296529.484 5  23296550.535 8 122424083.221 5  95395218.688 8  23296548.87547
 23  3 10  3  2 11.0000000  0  8G04G08G09G16G26G27G28G31            
  21252645.570 6  21252655.750 9 111683397.746 6  87026061.326 9  21252655.57048
  20908427.344 6  20908440.988 9 109874528.852 6  85616700.890 9  20908440.34049
  23376862.813 4  23376877.629 9 122846234.518 4  95724404.139 9  23376877.30148
  21249512.961 6                 111666935.646 6  87013224.89647  21249519.91847
  22681519.211 5  22681535.074 9 119192188.534 5  92876856.413 9  22681535.09847
  19859287.070 7  19859297.344 9 104361253.212 7  81320466.922 9  19859297.14849
  23890764.117 1  23890785.574 8 125546814.847 1  97828492.446 8  23890786.03545
  23297003.859 5  23297025.059 8 122426576.464 5  95397161.479 8  23297023.38347
 23  3 10  3  2 12.0000000  0  8G04G08G09G16G26G27G28G31            
  21252620.141 6  21252630.215 9 111683264.101 6  87025957.179 9  21252629.99648
  20908100.156 6  20908113.578 9 109872807.460 6  85615359.553 9  20908112.73449
  23376521.766 4  23376536.383 9 122844441.729 4  95723007.158 9  23376536.21948
  21249797.227 6                 111668429.000 6  87014388.55647  21249804.14547
  22681934.023 6  22681950.348 9 119194370.502 6  92878556.637 9  22681950.37547
  19859366.602 7  19859377.008 9 104361671.868 7  81320793.146 9  19859376.64849
  23891315.617 1  23891338.168 8 125549717.725 1  97830754.422 8  23891338.55545
  23297478.492 5  23297499.473 8 122429070.011 5  95399104.510 8  23297498.10947
 23  3 10  3  2 13.0000000  0  8G04G08G09G16G26G27G28G31            
  21252594.938 6  21252605.023 9 111683131.232 6  87025853.644 9  21252604.71148
  20907772.180 6  20907785.879 9 109871086.746 6  85614018.736 9  20907785.30949
  23376180.789 4  23376195.367 9 122842649.553 4  95721610.665 9  23376195.16448
  21250081.289 6                 111669922.602 6  87015552.38847  21250088.50047
  22682349.734 6  22682365.609 9 119196552.550 6  92880256.920 9  22682365.57447
  19859446.805 7  19859456.738 9 104362091.307 7  81321119.980 9  19859456.58249
  23891868.992 1  23891890.895 8 125552621.099 1  97833016.793 8  23891891.02745
  23297953.055 5  23297973.922 8 122431563.965 5  95401047.848 8  23297973.00847
 23  3 10  3  2 14.0000000  0  8G04G08G09G16G26G27G28G31            
  21252569.445 6  21252579.836 9 111682999.233 6  87025750.784 9  21252579.47348
  20907445.102 6  20907458.715 9 109869366.799 6  85612678.517 9  20907457.79349
  23375839.711 4  23375854.262 9 122840858.108 4  95720214.730 9  23375854.23848
  21250365.766 6                 111671416.566 6  87016716.52347  21250372.83247
  22682764.883 6  22682780.707 9 119198734.817 6  92881957.382 9  22682780.74247
  19859526.719 7  19859536.789 9 104362511.661 7  81321447.523 9  19859536.64849
  23892421.906 1  23892443.527 8 125555524.957 1  97835279.540 8  23892443.59845
  23298427.945 5  23298448.613 8 122434058.395 5  95402991.568 8  23298447.77047
 23  3 10  3  2 15.0000000  0  8G04G08G09G16G26G27G28G31            
  21252544.484 6  21252554.578 9 111682867.899 6  87025648.448 9  21252554.54348
  20907117.531 6  20907131.145 9 109867647.419 6  85611338.751 9  20907130.83649
  23375498.867 4  23375513.797 9 122839067.203 4  95718819.229 9  23375513.48048
  21250650.148 6                 111672910.696 6  87017880.77147  21250657.27047
  22683180.219 6  22683196.141 9 119200917.111 6  92883657.855 9  22683196.01247
  19859606.727 7  19859616.789 9 104362932.694 7  81321775.603 9  19859616.63749
  23892973.781 1  23892996.000 8 125558429.152 1  97837542.562 8  23892996.23045
  23298902.578 5  23298923.531 8 122436553.161 5  95404935.555 8  23298922.57447
 23  3 10  3  2 16.0000000  0  8G04G08G09G16G26G27G28G31            
  21252519.883 6  21252529.941 9 111682737.317 6  87025546.693 9  21252529.78148
  20906790.367 6  20906804.270 9 109865928.702 6  85609999.485 9  20906803.64149
  23375158.023 3  23375173.223 9 122837276.869 3  95717424.166 9  23375172.83648
  21250934.242 6                 111674405.041 6  87019045.19047  21250941.44547
  22683595.180 6  22683611.195 9 119203099.469 6  92885358.388 9  22683611.35247
  19859687.031 7  19859697.246 9 104363354.532 7  81322104.309 9  19859696.85949
  23893527.281 1  23893549.121 8 125561333.679 1  97839805.843 8  23893548.85945
  23299378.141 5  23299398.469 8 122439048.302 5  95406879.810 8  23299397.43847
 23  3 10  3  2 17.0000000  0  8G04G08G09G16G26G27G28G31            
  21252495.156 6  21252505.219 9 111682607.666 6  87025445.661 9  21252505.14548
  20906463.766 6  20906477.355 9 109864210.781 6  85608660.852 9  20906476.85949
  23374817.734 3  23374832.434 9 122835487.287 3  95716029.685 9  23374832.42248
  21251218.742 6                 111675899.803 6  87020209.93047  21251225.73847
  22684010.102 6  22684026.723 9 119205282.112 6  92887059.138 9  22684026.65247
  19859766.781 7  19859777.441 9 104363777.332 7  81322433.766 9  19859777.20349
  23894080.141 1  23894101.953 8 125564238.752 1  97842069.555 8  23894101.65645
  23299852.586 5  23299873.203 8 122441543.998 5  95408824.514 8  23299872.50047
 23  3 10  3  2 18.0000000  0  8G04G08G09G16G26G27G28G31            
  21252470.891 6  21252480.730 9 111682478.753 6  87025345.209 9  21252480.48448
  20906137.188 6  20906150.785 9 109862493.524 6  85607322.733 9  20906150.08649
  23374477.180 4  23374492.195 8 122833698.331 4  95714635.698 8  23374491.87148
  21251503.172 6                 111677394.813 6  87021374.87147  21251510.24647
  22684425.859 6  22684442.254 9 119207464.850 6  92888759.959 9  22684441.87547
  19859848.047 7  19859858.168 9 104364200.897 7  81322763.813 9  19859857.90649
  23894631.852 1  23894654.977 8 125567144.341 1  97844333.646 8  23894654.37145
  23300327.703 5  23300348.063 8 122444040.068 5  95410769.499 8  23300347.70747
 23  3 10  3  2 19.0000000  0  8G04G08G09G16G26G27G28G31            
  21252446.430 6  21252456.156 9 111682350.570 6  87025245.324 9  21252456.29348
  20905810.391 6  20905823.969 9 109860776.887 6  85605985.099 9  20905823.25449
  23374136.711 3  23374151.723 8 122831909.903 3  95713242.122 8  23374151.62948
  21251787.313 6                 111678889.994 6  87022539.93947  21251794.78547
  22684841.273 6  22684857.660 9 119209647.625 6  92890460.816 9  22684857.28947
  19859928.914 7  19859938.805 9 104364625.223 7  81323094.453 9  19859938.64549
  23895185.328 1  23895208.070 8 125570050.144 1  97846597.913 8  23895207.39845
  23300802.836 5  23300823.406 8 122446536.487 5  95412714.757 8  23300822.91447
 23  3 10  3  2 20.0000000  0  8G04G08G09G16G26G27G28G31            
  21252421.695 6  21252431.914 9 111682223.273 6  87025146.132 9  21252431.96548
  20905483.477 6  20905497.777 9 109859061.023 6  85604648.061 9  20905496.78549
  23373797.180 3  23373811.352 9 122830122.245 3  95711849.150 9  23373811.50848
  21252072.016 6                 111680385.560 6  87023705.31247  21252079.37547
  22685256.984 6  22685273.023 9 119211830.631 6  92892161.852 9  22685272.82847
  19860010.156 7  19860019.777 9 104365050.487 7  81323425.819 9  19860019.48849
  23895738.281 1  23895761.035 8 125572956.530 1  97848862.627 8  23895760.55945
  23301277.883 5  23301298.797 8 122449033.430 5  95414660.432 8  23301298.22347
 23  3 10  3  2 21.0000000  0  8G04G08G09G16G26G27G28G31            
  21252397.844 6  21252407.805 9 111682096.752 6  87025047.543 9  21252408.10248
  20905157.586 6  20905171.234 9 109857345.874 6  85603311.581 9  20905170.24649
  23373457.016 3  23373471.453 9 122828335.212 3  95710456.657 9  23373471.45748
  21252356.641 6                 111681881.390 6  87024870.88747  21252363.91847
  22685672.641 6  22685688.215 9 119214013.763 6  92893862.984 9  22685688.20347
  19860090.742 7  19860101.023 9 104365476.534 7  81323757.809 9  19860100.59849
  23896291.133 1  23896313.984 8 125575863.372 1  97851127.690 8  23896313.68845
  23301752.992 5  23301774.043 8 122451530.776 5  95416606.414 8  23301773.61747
 23  3 10  3  2 22.0000000  0  8G04G08G09G16G26G27G28G31            
  21252374.086 6  21252384.102 9 111681970.931 6  87024949.491 9  21252384.04748
  20904831.453 6  20904844.855 9 109855631.285 6  85601975.549 9  20904844.02749
  23373117.508 3  23373131.383 9 122826548.724 3  95709064.586 9  23373131.37948
  21252642.000 6                 111683377.381 6  87026036.60347  21252648.67647
  22686087.672 6  22686103.582 9 119216196.921 6  92895564.146 9  22686103.50447
  19860171.789 7  19860182.203 9 104365903.305 7  81324090.358 9  19860181.93449
  23896845.094 1  23896867.406 8 125578770.461 1  97853392.956 8  23896866.97745
  23302228.133 5  23302249.160 8 122454028.472 5  95418552.672 8  23302248.87547
 23  3 10  3  2 23.0000000  0  8G04G08G09G16G26G27G28G31            
  21252350.438 6  21252360.258 9 111681845.959 6  87024852.117 9  21252360.12948
  20904504.992 6  20904518.879 9 109853917.493 6  85600640.135 9  20904517.94549
  23372777.406 3  23372791.484 9 122824762.939 3  95707673.065 9  23372791.47348
  21252926.555 6                 111684873.708 6  87027202.57247  21252933.54747
  22686503.383 6  22686519.293 9 119218380.289 6  92897265.465 9  22686519.03547
  19860253.531 7  19860263.383 9 104366330.968 7  81324423.602 9  19860263.16049
  23897397.781 2  23897420.695 8 125581678.101 2  97855658.643 8  23897420.31645
  23302703.195 5  23302724.758 8 122456526.643 5  95420499.307 8  23302724.28547
 23  3 10  3  2 24.0000000  0  8G04G08G09G16G26G27G28G31            
  21252326.664 6  21252336.598 9 111681721.807 6  87024755.368 9  21252336.64148
  20904179.672 6  20904192.742 9 109852204.394 6  85599305.242 9  20904191.80949
  23372437.953 4  23372451.973 9 122822977.807 4  95706282.053 9  23372451.89548
  21253211.039 6                 111686370.328 6  87028368.78047  21253218.30947
  22686919.109 6  22686934.715 9 119220563.797 6  92898966.886 9  22686934.53147
  19860335.125 7  19860344.988 9 104366759.482 7  81324757.508 9  19860344.75849
  23897950.922 1  23897973.789 8 125584586.112 1  97857924.631 8  23897973.84045
  23303178.617 5  23303200.344 8 122459025.265 5  95422446.288 8  23303199.92647
 23  3 10  3  2 25.0000000  0  8G04G08G09G16G26G27G28G31            
  21252303.117 6  21252313.035 9 111681598.495 6  87024659.275 9  21252313.09048
  20903853.219 6  20903867.043 9 109850492.002 6  85597970.915 9  20903866.08249
  23372098.234 4  23372112.355 9 122821193.364 4  95704891.576 9  23372112.31348
  21253495.734 6                 111687867.267 6  87029535.22647  21253503.34847
  22687334.414 6  22687350.230 9 119222747.500 6  92900668.455 9  22687350.00847
  19860416.523 7  19860426.672 9 104367188.881 7  81325092.097 9  19860426.41449
  23898504.242 2  23898527.402 8 125587494.700 2  97860191.062 8  23898527.16045
  23303654.617 5  23303675.871 8 122461524.358 5  95424393.630 8  23303675.58647
 23  3 10  3  2 26.0000000  0  8G04G08G09G16G26G27G28G31            
  21252280.234 6  21252290.031 9 111681476.043 6  87024563.860 9  21252289.68048
  20903527.766 6  20903541.367 9 109848780.400 6  85596637.200 9  20903540.43049
  23371758.820 3  23371773.121 9 122819409.655 3  95703501.682 9  23371772.91448
  21253781.023 6                 111689364.578 6  87030701.95647  21253788.25447
  22687749.742 6  22687766.047 9 119224931.396 6  92902370.193 9  22687765.68047
  19860498.523 7  19860508.742 9 104367619.151 7  81325427.375 9  19860508.23849
  23899057.547 1  23899080.977 8 125590403.763 1  97862457.884 8  23899080.82045
  23304129.758 5  23304151.438 8 122464023.927 5  95426341.355 8  23304151.37947
 23  3 10  3  2 27.0000000  0  8G04G08G09G16G26G27G28G31            
  21252256.750 6  21252266.688 9 111681354.401 6  87024469.072 9  21252266.57048
  20903202.375 6  20903215.750 9 109847069.506 6  85595304.036 9  20903214.82449
  23371419.188 3  23371433.566 9 122817626.564 3  95702112.266 9  23371433.50448
  21254066.375 5                 111690862.178 5  87031868.91447  21254073.28947
  22688165.539 6  22688181.547 9 119227115.467 6  92904072.049 9  22688181.23447
  19860580.305 7  19860590.688 9 104368050.273 7  81325763.313 9  19860590.38749
  23899611.492 1  23899634.895 8 125593313.238 1  97864725.013 8  23899634.62545
  23304606.156 5  23304627.340 8 122466523.979 5  95428289.447 8  23304627.13347
 23  3 10  3  2 28.0000000  0  8G04G08G09G16G26G27G28G31            
  21252233.898 6  21252243.723 9 111681233.595 6  87024374.938 9  21252243.57448
  20902876.953 6  20902890.340 9 109845359.335 6  85593971.431 9  20902889.32449
  23371079.953 3  23371094.215 9 122815844.173 3  95700723.383 9  23371094.32048
  21254350.930 6                 111692360.063 6  87033036.09147  21254358.32847
  22688581.055 6  22688597.004 9 119229299.660 6  92905774.006 9  22688596.73847
  19860662.859 7  19860672.738 9 104368482.243 7  81326099.908 9  19860672.52349
  23900165.133 2  23900188.703 8 125596223.203 2  97866992.518 8  23900188.39146
  23305081.953 5  23305103.078 8 122469024.453 5  95430237.862 8  23305103.10247
 23  3 10  3  2 29.0000000  0  8G04G08G09G16G26G27G28G31            
  21252210.953 6  21252220.918 9 111681113.495 6  87024281.349 9  21252220.82448
  20902551.281 6  20902565.000 9 109843649.759 6  85592639.295 9  20902564.12549
  23370741.242 3  23370754.973 9 122814062.354 3  95699334.964 9  23370755.20748
  21254635.945 5                 111693858.193 5  87034203.46147  21254643.21147
  22688996.953 6  22689012.738 9 119231483.930 6  92907476.020 9  22689012.43047
  19860745.094 7  19860755.246 9 104368914.960 7  81326437.086 9  19860754.86349
  23900719.094 2  23900742.477 8 125599133.459 2  97869260.251 8  23900742.14545
  23305558.109 5  23305578.945 8 122471525.310 5  95432186.575 8  23305579.17647
 23  3 10  3  2 30.0000000  0  8G04G08G09G16G26G27G28G31            
  21252188.383 6  21252198.316 9 111680994.111 6  87024188.318 9  21252197.93047
  20902226.367 6  20902239.754 9 109841940.780 6  85591307.621 9  20902238.76249
  23370402.109 3  23370416.094 8 122812281.079 3  95697946.953 8  23370416.27748
  21254921.445 5                 111695356.443 5  87035370.92847  21254928.19147
  22689412.117 6  22689428.387 9 119233668.262 6  92909178.096 9  22689428.01247
  19860827.453 7  19860837.586 9 104369348.420 7  81326774.850 9  19860837.50049
  23901273.578 2  23901296.422 8 125602044.139 2  97871528.326 8  23901295.90246
  23306033.719 5  23306054.906 8 122474026.486 5  95434135.546 8  23306055.17247
 23  3 10  3  2 31.0000000  0  8G04G08G09G16G26G27G28G31            
  21252165.742 6  21252175.867 9 111680875.413 6  87024095.817 9  21252175.43448
  20901901.133 6  20901914.781 9 109840232.397 6  85589976.417 9  20901913.89849
  23370062.938 3  23370077.258 9 122810500.334 3  95696559.359 9  23370077.47748
  21255206.383 5                 111696854.912 5  87036538.56147  21255213.38747
  22689827.875 6  22689844.121 9 119235852.611 6  92910880.172 9  22689843.64847
  19860910.336 7  19860920.410 9 104369782.616 7  81327113.181 9  19860920.01249
  23901828.078 2  23901850.266 8 125604955.075 2  97873796.602 8  23901849.83245
  23306510.320 5  23306531.145 8 122476527.988 5  95436084.770 8  23306531.18447
 23  3 10  3  2 32.0000000  0  8G04G08G09G16G26G27G28G31            
  21252142.969 6  21252153.320 9 111680757.496 6  87024003.927 9  21252152.91048
  20901575.789 6  20901589.652 9 109838524.678 6  85588645.726 9  20901588.89549
  23369724.438 3  23369738.586 9 122808720.246 3  95695172.279 9  23369738.73848
  21255491.438 5                 111698353.606 5  87037706.37747  21255498.52047
  22690243.625 6  22690259.621 9 119238037.080 6  92912582.343 9  22690259.41447
  19860993.031 7  19861002.992 9 104370217.604 7  81327452.138 9  19861002.86749
  23902381.797 2  23902404.324 8 125607866.460 2  97876065.202 8  23902403.77745
  23306985.758 5  23307007.383 8 122479029.896 5  95438034.298 8  23307007.26247
 23  3 10  3  2 33.0000000  0  8G04G08G09G16G26G27G28G31            
  21252120.813 6  21252131.043 9 111680640.430 6  87023912.714 9  21252130.60548
  20901251.180 6  20901264.793 9 109836817.754 6  85587315.654 9  20901264.04749
  23369386.031 3  23369399.918 9 122806940.857 3  95693785.741 9  23369400.16448
  21255777.297 5                 111699852.685 5  87038874.49147  21255783.92247
  22690659.422 6  22690675.617 9 119240221.774 6  92914284.689 9  22690675.12147
  19861076.195 7  19861086.098 9 104370653.500 7  81327791.795 9  19861085.78549
  23902936.359 2  23902958.563 8 125610778.308 2  97878334.181 8  23902957.73445
  23307461.508 5  23307483.418 8 122481532.328 5  95439984.248 8  23307483.68447
 23  3 10  3  2 34.0000000  0  8G04G08G09G16G26G27G28G31            
  21252099.164 6  21252108.531 9 111680524.064 6  87023822.038 9  21252108.60948
  20900926.594 6  20900940.172 9 109835111.391 6  85585986.022 9  20900939.33649
  23369046.656 3  23369061.371 9 122805161.961 3  95692399.584 9  23369061.54748
  21256062.539 5                 111701351.909 5  87040042.71147  21256069.20347
  22691075.250 6  22691091.195 9 119242406.457 6  92915987.031 9  22691090.89547
  19861159.250 7  19861169.336 9 104371090.112 7  81328132.011 9  19861168.85949
  23903490.656 2  23903512.602 8 125613690.562 2  97880603.480 8  23903511.91845
  23307938.219 5  23307959.570 8 122484035.035 5  95441934.406 8  23307960.10947
 23  3 10  3  2 35.0000000  0  8G04G08G09G16G26G27G28G31            
  21252076.320 6  21252086.820 9 111680408.568 6  87023732.031 9  21252086.62548
  20900602.031 6  20900615.629 9 109833405.771 6  85584656.963 9  20900614.73449
  23368708.680 3  23368722.883 9 122803383.847 3  95691014.048 9  23368723.13748
  21256347.438 5                 111702851.471 5  87041211.20647  21256354.65247
  22691490.820 6  22691507.367 9 119244591.358 6  92917689.540 9  22691506.60947
  19861242.359 7  19861252.297 9 104371527.589 7  81328472.897 9  19861252.21149
  23904044.641 2  23904066.621 8 125616603.233 2  97882873.104 8  23904066.34445
  23308414.227 5  23308436.168 8 122486538.270 5  95443884.979 8  23308436.48447
 23  3 10  3  2 36.0000000  0  8G04G08G09G16G26G27G28G31            
  21252054.813 6  21252065.016 9 111680293.900 6  87023642.667 9  21252064.84848
  20900277.570 6  20900291.301 9 109831700.890 6  85583328.485 9  20900290.51649
  23368370.195 3  23368384.840 9 122801606.388 3  95689629.010 9  23368384.97348
  21256632.773 5                 111704351.353 5  87042379.92447  21256640.00847
  22691906.617 6  22691923.195 9 119246776.408 6  92919392.165 9  22691922.55547
  19861325.859 7  19861335.688 9 104371965.951 7  81328814.470 9  19861335.58249
  23904598.773 2  23904620.816 8 125619516.405 2  97885143.112 8  23904620.72345
  23308891.523 5  23308912.664 8 122489041.966 5  95445835.912 8  23308913.03147
 23  3 10  3  2 37.0000000  0  8G04G08G09G16G26G27G28G31            
  21252033.414 6  21252043.352 9 111680179.935 6  87023553.868 9  21252043.03948
  20899953.570 6  20899967.043 9 109829996.627 6  85582000.492 9  20899966.25049
  23368032.727 3  23368046.910 9 122799829.446 3  95688244.375 9  23368046.72748
  21256918.602 5                 111705851.435 5  87043548.82847  21256925.55947
  22692322.781 6  22692339.023 9 119248961.542 6  92921094.859 9  22692338.28947
  19861409.172 7  19861419.633 9 104372405.045 7  81329156.623 9  19861419.14149
  23905153.414 2  23905175.094 8 125622429.896 2  97887413.376 8  23905175.07845
  23309367.633 5  23309389.188 8 122491546.000 5  95447787.099 8  23309389.48047
 23  3 10  3  2 38.0000000  0  8G04G08G09G16G26G27G28G31            
  21252011.844 6  21252021.660 9 111680066.764 6  87023465.674 9  21252021.60248
  20899629.133 6  20899643.125 9 109828293.094 6  85580673.064 9  20899642.30149
  23367693.625 3  23367709.152 9 122798053.189 3  95686860.280 9  23367708.77348
  21257203.633 5                 111707351.785 5  87044717.93547  21257211.09447
  22692738.727 6  22692754.656 9 119251146.813 6  92922797.656 9  22692754.18047
  19861492.695 7  19861503.086 9 104372844.994 7  81329499.440 9  19861502.88749
  23905708.117 2  23905729.602 8 125625343.847 2  97889683.995 8  23905729.58645
  23309844.008 5  23309865.688 8 122494050.479 5  95449738.636 8  23309866.00847
 23  3 10  3  2 39.0000000  0  8G04G08G09G16G26G27G28G31            
  21251990.086 6  21252000.379 9 111679954.607 6  87023378.282 9  21252000.15248
  20899305.258 6  20899318.754 9 109826590.426 6  85579346.308 9  20899318.14149
  23367356.086 3  23367370.898 9 122796277.789 3  95685476.852 9  23367371.01648
  21257489.617 5                 111708852.650 5  87045887.44347  21257496.65247
  22693154.453 6  22693170.734 9 119253332.414 6  92924500.711 9  22693170.06347
  19861577.039 7  19861587.012 9 104373285.950 7  81329843.039 9  19861586.76249
  23906262.445 2  23906284.125 8 125628258.430 2  97891955.098 8  23906284.15645
  23310320.906 5  23310342.387 8 122496555.573 5  95451690.668 8  23310342.54747
 23  3 10  3  2 40.0000000  0  8G04G08G09G16G26G27G28G31            
  21251968.961 6  21251978.930 9 111679843.224 6  87023291.479 9  21251978.78548
  20898981.266 6  20898994.652 9 109824888.420 6  85578020.073 9  20898994.26249
  23367018.391 3  23367033.215 9 122794503.000 3  95684093.896 9  23367033.29348
  21257775.313 5                 111710353.716 5  87047057.10047  21257782.33647
  22693570.828 6  22693586.742 9 119255518.130 6  92926203.859 9  22693586.12547
  19861660.938 7  19861671.160 9 104373727.728 7  81330187.279 9  19861670.90249
  23906817.133 2  23906838.875 8 125631173.427 2  97894226.528 8  23906838.91845
  23310797.945 5  23310819.422 8 122499061.055 5  95453642.984 8  23310819.21147
 23  3 10  3  2 41.0000000  0  8G04G08G09G16G26G27G28G31            
  21251948.211 6  21251958.125 9 111679732.476 6  87023205.178 9  21251957.87148
  20898657.367 6  20898671.258 9 109823187.003 6  85576694.285 9  20898670.45349
  23366681.781 3  23366695.703 8 122792728.703 3  95682711.332 8  23366695.61348
  21258060.789 5                 111711854.925 5  87048226.86947  21258067.99247
  22693986.227 6  22694002.699 9 119257703.850 6  92927907.007 9  22694002.08247
  19861745.188 7  19861755.258 9 104374170.171 7  81330532.039 9  19861754.98049
  23907371.484 3  23907393.938 8 125634088.669 3  97896498.153 8  23907393.59845
  23311274.359 5  23311296.016 8 122501566.863 5  95455595.564 8  23311296.12947
 23  3 10  3  2 42.0000000  0  8G04G08G09G16G26G27G28G31            
  21251927.227 6  21251937.363 9 111679622.569 6  87023119.538 9  21251937.22348
  20898333.672 6  20898347.563 9 109821486.309 6  85575369.070 9  20898346.73049
  23366343.617 3  23366358.352 8 122790955.127 3  95681329.322 8  23366358.04748
  21258346.227 5                 111713356.475 5  87049396.89847  21258353.54747
  22694402.719 6  22694418.699 9 119259889.731 6  92929610.277 9  22694418.01647
  19861829.758 7  19861839.625 9 104374613.503 7  81330877.485 9  19861839.35949
  23907927.328 3  23907948.609 8 125637004.466 3  97898770.199 8  23907948.42245
  23311751.570 5  23311772.785 8 122504073.102 5  95457548.471 8  23311773.21947
 23  3 10  3  2 43.0000000  0  8G04G08G09G16G26G27G28G31            
  21251906.469 6  21251916.492 9 111679513.444 6  87023034.501 9  21251916.32048
  20898010.094 6  20898023.980 9 109819786.293 6  85574044.386 9  20898023.46949
  23366006.422 3  23366020.961 8 122789182.123 3  95679947.761 8  23366020.63748
  21258632.617 5                 111714858.250 5  87050567.10747  21258639.28147
  22694818.203 6  22694834.633 9 119262075.716 6  92931313.635 9  22694834.09047
  19861913.977 7  19861924.078 9 104375057.604 7  81331223.542 9  19861924.03549
  23908481.992 2  23908503.773 8 125639920.576 2  97901042.493 8  23908503.20345
  23312228.344 5  23312249.977 8 122506579.732 5  95459501.692 8  23312250.13747
 23  3 10  3  2 44.0000000  0  8G04G08G09G16G26G27G28G31            
  21251885.867 6  21251895.871 9 111679405.087 6  87022950.062 9  21251895.72348
  20897686.883 6  20897700.645 9 109818086.992 6  85572720.252 9  20897700.02749
  23365669.531 3  23365683.672 9 122787409.767 3  95678566.697 9  23365683.44948
  21258918.227 5                 111716360.314 5  87051737.54147  21258925.10547
  22695234.320 6  22695250.414 9 119264261.821 6  92933017.084 9  22695250.15247
  19861998.656 7  19862008.832 9 104375502.529 7  81331570.240 9  19862008.58249
  23909037.406 2  23909058.625 8 125642837.138 2  97903315.153 8  23909058.25045
  23312705.359 5  23312727.078 8 122509086.785 5  95461455.237 8  23312727.23047
 23  3 10  3  2 45.0000000  0  8G04G08G09G16G26G27G28G31            
  21251865.352 6  21251875.262 9 111679297.513 6  87022866.232 9  21251875.12548
  20897363.852 6  20897377.266 9 109816388.324 6  85571396.617 9  20897376.82849
  23365331.875 3  23365346.371 9 122785638.040 3  95677186.134 9  23365346.28948
  21259204.156 5                 111717862.625 5  87052908.18147  21259210.87147
  22695650.445 6  22695666.551 9 119266448.077 6  92934720.650 9  22695666.16847
  19862083.539 7  19862093.676 9 104375948.262 7  81331917.550 9  19862093.38749
  23909591.258 2  23909613.582 8 125645754.139 2  97905588.149 8  23909613.49645
  23313182.805 5  23313204.234 8 122511594.284 5  95463409.128 8  23313204.33247
 23  3 10  3  2 46.0000000  0  8G04G08G09G16G26G27G28G31            
  21251845.141 6  21251855.113 9 111679190.817 6  87022783.089 9  21251854.82848
  20897040.984 6  20897054.582 9 109814690.446 6  85570073.607 9  20897053.78949
  23364994.914 3  23365009.527 9 122783867.070 3  95675806.163 9  23365009.19148
  21259489.688 5                 111719365.306 5  87054079.10447  21259496.91047
  22696066.281 6  22696082.574 9 119268634.503 6  92936424.354 9  22696082.24647
  19862168.570 7  19862178.641 9 104376394.926 7  81332265.604 9  19862178.44549
  23910147.094 2  23910168.949 8 125648671.600 2  97907861.497 8  23910168.60245
  23313659.781 5  23313681.582 8 122514102.260 5  95465363.400 8  23313681.58247
 23  3 10  3  2 47.0000000  0  8G04G08G09G16G26G27G28G31            
  21251825.117 6  21251834.941 9 111679084.890 6  87022700.550 9  21251834.55148
  20896717.516 6  20896731.633 9 109812993.239 6  85568751.105 9  20896730.77349
  23364657.633 3  23364672.570 9 122782096.676 3  95674426.630 9  23364672.32048
  21259775.977 5                 111720868.221 5  87055250.20047  21259782.82047
  22696482.492 6  22696498.715 9 119270821.073 6  92938128.163 9  22696498.36747
  19862253.695 7  19862263.715 9 104376842.368 7  81332614.261 9  19862263.58649
  23910701.195 2  23910724.258 8 125651589.525 2  97910135.212 8  23910723.84845
  23314137.305 5  23314159.020 8 122516610.622 5  95467317.973 8  23314158.91847
 23  3 10  3  2 48.0000000  0  8G04G08G09G16G26G27G28G31            
  21251804.930 6  21251814.957 9 111678979.669 6  87022618.553 9  21251814.68448
  20896394.898 6  20896408.715 9 109811296.620 6  85567429.072 9  20896407.96949
  23364320.563 3  23364335.750 9 122780326.871 3  95673047.564 9  23364335.59848
  21260061.906 5                 111722371.321 5  87056421.44447  21260068.95747
  22696898.398 6  22696914.555 9 119273007.658 6  92939831.988 9  22696914.49247
  19862339.109 7  19862348.906 9 104377290.537 7  81332963.479 9  19862348.87949
  23911256.625 2  23911279.363 8 125654507.711 2  97912409.124 8  23911279.09845
  23314614.695 5  23314636.039 8 122519119.337 5  95469272.817 8  23314636.24247
 23  3 10  3  2 49.0000000  0  8G04G08G09G16G26G27G28G31            
  21251785.266 6  21251795.188 9 111678875.268 6  87022537.197 9  21251794.91448
  20896072.063 6  20896086.043 9 109809600.739 6  85566107.605 9  20896085.10549
  23363983.531 3  23363999.031 9 122778557.697 3  95671668.998 9  23363999.04348
  21260348.281 5                 111723874.763 5  87057592.94847  21260355.01647
  22697314.742 6  22697330.883 9 119275194.421 6  92941535.941 9  22697330.59447
  19862424.547 7  19862434.367 9 104377739.584 7  81333313.380 9  19862434.37549
  23911813.234 2  23911834.852 8 125657426.426 2  97914683.457 8  23911834.50045
  23315092.609 5  23315113.375 8 122521628.510 5  95471228.025 8  23315113.65247
 23  3 10  3  2 50.0000000  0  8G04G08G09G16G26G27G28G31            
  21251765.508 6  21251775.539 9 111678771.568 6  87022456.386 9  21251775.09048
  20895749.586 6  20895763.219 9 109807905.432 6  85564786.594 9  20895762.47349
  23363647.961 3  23363662.586 9 122776789.080 3  95670290.854 9  23363662.40648
  21260634.625 5                 111725378.319 5  87058764.54547  21260641.17247
  22697730.758 6  22697747.102 9 119277381.225 6  92943239.945 9  22697746.67247
  19862510.172 7  19862520.090 9 104378189.337 7  81333663.840 9  19862519.91449
  23912367.844 2  23912390.094 8 125660345.459 2  97916958.034 8  23912389.95345
  23315569.367 5  23315590.992 8 122524138.016 5  95473183.477 8  23315591.14147
 23  3 10  3  2 51.0000000  0  8G04G08G09G16G26G27G28G31            
  21251745.688 6  21251755.715 9 111678668.649 6  87022376.186 9  21251755.61748
  20895426.930 6  20895440.996 9 109806210.796 6  85563466.096 9  20895440.25449
  23363311.164 3  23363326.250 9 122775021.118 3  95668913.226 9  23363325.87548
  21260920.656 5                 111726882.156 5  87059936.36247  21260927.60247
  22698147.086 6  22698163.270 9 119279568.142 6  92944944.025 9  22698162.93047
  19862596.086 7  19862605.777 9 104378639.898 7  81334014.926 9  19862605.64149
  23912923.094 2  23912945.723 8 125663264.887 2  97919232.924 8  23912945.52345
  23316047.258 5  23316068.895 8 122526647.922 5  95475139.257 8  23316068.59447
 23  3 10  3  2 52.0000000  0  8G04G08G09G16G26G27G28G31            
  21251726.367 6  21251736.656 9 111678566.632 6  87022296.684 9  21251736.14548
  20895104.914 6  20895118.293 9 109804517.008 6  85562146.269 9  20895117.87949
  23362974.969 3  23362989.941 9 122773253.864 3  95667536.140 9  23362989.60248
  21261206.805 5                 111728386.366 5  87061108.47047  21261213.65647
  22698563.070 6  22698579.438 9 119281755.301 6  92946648.295 9  22698578.93447
  19862681.648 7  19862691.672 9 104379091.403 7  81334366.743 9  19862691.49249
  23913478.313 1  23913501.402 8 125666184.845 1  97921508.239 8  23913501.21145
  23316525.258 5  23316546.734 8 122529158.359 5  95477095.439 8  23316546.33247
 23  3 10  3  2 53.0000000  0  8G04G08G09G16G26G27G28G31            
  21251706.977 6  21251717.316 9 111678465.159 6  87022217.608 9  21251716.87548
  20894782.438 6  20894796.004 9 109802823.645 6  85560826.769 9  20894795.31349
  23362638.609 3  23362653.656 9 122771487.028 3  95666159.390 9  23362653.41448
  21261492.938 5                 111729890.627 5  87062280.61447  21261499.89547
  22698979.391 6  22698995.383 9 119283942.352 6  92948352.489 9  22698995.14547
  19862767.688 7  19862777.738 9 104379543.485 7  81334719.009 9  19862777.51649
  23914035.203 1  23914057.129 8 125669105.008 1  97923783.693 8  23914057.04745
  23317002.914 5  23317024.469 8 122531668.963 5  95479051.760 8  23317024.03947
 23  3 10  3  2 54.0000000  0  8G04G08G09G16G26G27G28G31            
  21251688.250 6  21251697.891 9 111678364.648 6  87022139.286 9  21251697.75847
  20894460.570 6  20894474.141 9 109801131.139 6  85559507.932 9  20894473.48449
  23362302.313 2  23362317.727 8 122769721.030 2  95664783.288 8  23362317.45748
  21261779.133 5                 111731395.309 5  87063453.10447  21261786.22747
  22699395.727 5  22699411.867 9 119286129.689 5  92950056.902 9  22699411.52747
  19862853.945 7  19862863.973 9 104379996.554 7  81335072.054 9  19862863.81649
  23914589.797 1  23914612.863 8 125672025.757 1  97926059.605 8  23914612.77045
  23317480.969 5  23317502.352 8 122534180.194 5  95481008.561 8  23317501.99647
 23  3 10  3  2 55.0000000  0  8G04G08G09G16G26G27G28G31            
  21251668.633 6  21251678.840 9 111678264.838 6  87022061.515 9  21251678.73847
  20894138.633 6  20894152.227 9 109799439.229 6  85558189.564 9  20894151.58649
  23361966.641 3  23361981.531 8 122767955.564 3  95663407.608 8  23361981.40248
  21262065.734 5                 111732900.190 5  87064625.73447  21262072.67647
  22699812.203 6  22699828.215 9 119288317.105 6  92951761.373 9  22699827.67647
  19862940.383 7  19862950.289 9 104380450.354 7  81335425.658 9  19862950.14549
  23915146.773 1  23915168.727 8 125674946.844 1  97928335.797 8  23915168.57045
  23317959.539 5  23317980.051 8 122536691.720 5  95482965.600 8  23317980.02347
 23  3 10  3  2 56.0000000  0  8G04G08G09G16G26G27G28G31            
  21251650.461 6  21251660.070 9 111678165.853 6  87021984.383 9  21251659.88747
  20893816.578 6  20893830.469 9 109797748.026 6  85556871.749 9  20893829.37549
  23361630.305 2  23361645.520 9 122766190.745 2  95662032.432 9  23361645.44148
  21262352.055 5                 111734405.368 5  87065798.59647  21262359.10547
  22700227.930 6  22700244.207 9 119290504.637 6  92953465.933 9  22700244.16047
  19863026.945 7  19863036.781 9 104380905.004 7  81335779.927 9  19863036.55949
  23915702.523 1  23915724.453 8 125677868.387 1  97930612.332 8  23915724.40245
  23318437.063 5  23318457.801 8 122539203.722 5  95484923.003 8  23318458.06347
 23  3 10  3  2 57.0000000  0  8G04G08G09G16G26G27G28G31            
  21251631.656 6  21251641.320 9 111678067.822 6  87021907.989 9  21251641.27348
  20893495.227 6  20893508.715 9 109796057.675 6  85555554.596 9  20893507.78549
  23361294.727 3  23361309.969 9 122764426.749 3  95660657.903 9  23361309.60548
  21262638.828 5                 111735910.986 5  87066971.80047  21262645.51647
  22700644.453 6  22700660.551 9 119292692.476 6  92955170.738 9  22700660.86347
  19863113.430 7  19863123.523 9 104381360.639 7  81336134.970 9  19863123.20349
  23916258.266 2  23916280.637 8 125680790.546 2  97932889.331 8  23916280.53545
  23318914.508 5  23318935.945 8 122541716.307 5  95486880.858 8  23318936.00447
 23  3 10  3  2 58.0000000  0  8G04G08G09G16G26G27G28G31            
  21251612.844 6  21251622.906 9 111677970.425 6  87021832.088 9  21251622.70748
  20893173.398 6  20893186.965 9 109794367.881 6  85554237.875 9  20893186.02749
  23360959.570 2  23360974.609 9 122762663.266 2  95659283.765 9  23360974.07448
  21262925.156 5                 111737416.709 5  87068145.09347  21262932.07847
  22701061.133 6  22701076.902 9 119294880.324 6  92956875.549 9  22701077.07047
  19863200.555 7  19863210.336 9 104381816.964 7  81336490.542 9  19863210.00049
  23916814.313 2  23916836.719 8 125683712.952 2  97935166.536 8  23916836.63745
  23319393.273 5  23319414.051 8 122544229.155 5  95488838.922 8  23319414.13747
 23  3 10  3  2 59.0000000  0  8G04G08G09G16G26G27G28G31            
  21251594.375 6  21251604.633 9 111677873.795 6  87021756.790 9  21251604.33248
  20892852.180 6  20892865.684 9 109792678.741 6  85552921.653 9  20892864.73849
  23360624.383 2  23360639.090 9 122760900.354 2  95657910.060 9  23360638.37948
  21263212.000 5                 111738922.678 5  87069318.56447  21263218.69547
  22701477.164 6  22701493.563 9 119297068.218 6  92958580.387 9  22701493.30547
  19863287.242 7  19863297.230 9 104382274.051 7  81336846.710 9  19863297.04349
  23917370.813 2  23917392.926 8 125686635.694 2  97937443.998 8  23917392.95745
  23319871.055 5  23319892.469 8 122546742.411 5  95490797.299 8  23319892.35247
 23  3 10  3  3  0.0000000  0  8G04G08G09G16G26G27G28G31            
  21251576.305 6  21251586.270 9 111677777.836 6  87021682.014 9  21251586.18448
  20892530.555 6  20892544.258 9 109790990.178 6  85551605.895 9  20892543.51649
  23360288.789 3  23360303.629 9 122759137.951 3  95656536.769 9  23360302.96148
  21263498.078 5                 111740428.790 5  87070492.16447  21263505.28947
  22701893.617 6  22701910.016 9 119299256.161 6  92960285.264 9  22701909.61347
  19863374.555 7  19863384.453 9 104382731.852 7  81337203.442 9  19863384.14149
  23917927.984 2  23917949.465 8 125689558.831 2  97939721.781 8  23917949.14545
  23320349.352 5  23320370.766 8 122549255.951 5  95492755.913 8  23320370.71947
 23  3 10  3  3  1.0000000  0  8G04G08G09G16G26G27G28G31            
  21251558.148 6  21251567.930 9 111677682.793 6  87021607.951 9  21251567.98848
  20892209.078 6  20892223.063 9 109789302.418 6  85550290.761 9  20892222.18449
  23359953.250 3  23359968.273 9 122757376.379 3  95655164.113 9  23359967.80148
  21263784.961 5                 111741935.324 5  87071666.08347  21263792.10947
  22702310.125 6  22702326.305 9 119301444.330 6  92961990.330 9  22702326.17647
  19863461.422 7  19863471.844 9 104383190.598 7  81337560.899 9  19863471.35249
  23918484.195 2  23918505.711 8 125692482.497 2  97941999.966 8  23918505.52345
  23320827.773 5  23320849.285 8 122551770.059 5  95494714.960 8  23320849.20347
 23  3 10  3  3  2.0000000  0  8G04G08G09G16G26G27G28G31            
  21251540.125 6  21251550.207 9 111677588.519 6  87021534.487 9  21251550.02748
  20891888.258 6  20891902.176 9 109787615.388 6  85548976.193 9  20891901.12149
  23359618.305 2  23359633.113 9 122755615.388 2  95653791.923 9  23359632.64548
  21264071.844 5                 111743442.112 5  87072840.19547  21264078.96147
  22702726.016 6  22702742.664 9 119303632.668 6  92963695.514 9  22702742.68447
  19863549.352 7  19863559.309 9 104383650.165 7  81337919.004 9  19863558.78149
  23919040.367 2  23919062.336 8 125695406.578 2  97944278.479 8  23919062.05146
  23321306.133 5  23321327.672 8 122554284.568 5  95496674.316 8  23321327.59047
 23  3 10  3  3  3.0000000  0  8G04G08G09G16G26G27G28G31            
  21251521.906 6  21251532.559 9 111677495.092 6  87021461.685 9  21251532.20348
  20891567.273 6  20891581.313 9 109785929.036 6  85547662.155 9  20891580.33649
  23359283.773 3  23359298.066 9 122753855.129 3  95652420.294 9  23359297.68048
  21264358.352 5                 111744949.185 5  87074014.53947  21264365.80947
  22703142.625 6  22703159.105 9 119305821.143 6  92965400.813 9  22703159.21947
  19863636.758 7  19863646.898 9 104384110.583 7  81338277.766 9  19863646.47349
  23919596.789 3  23919618.973 8 125698331.126 3  97946557.358 8  23919618.61746
  23321784.609 5  23321806.266 8 122556799.542 5  95498634.035 8  23321806.11347
 23  3 10  3  3  4.0000000  0  8G04G08G09G16G26G27G28G31            
  21251504.836 6  21251514.723 9 111677402.320 6  87021389.396 9  21251514.57448
  20891246.055 6  20891260.438 9 109784243.288 6  85546348.586 9  20891259.55549
  23358948.891 3  23358963.227 9 122752095.289 3  95651048.986 9  23358962.77748
  21264645.828 6                 111746456.446 6  87075189.03047  21264652.53147
  22703559.766 5  22703575.992 9 119308009.600 5  92967106.099 9  22703575.74247
  19863724.273 7  19863734.617 9 104384571.685 7  81338637.070 9  19863734.14549
  23920154.180 3  23920175.254 8 125701255.942 3  97948836.441 8  23920175.23446
  23322262.938 5  23322285.043 8 122559314.805 5  95500593.973 8  23322284.68047
 23  3 10  3  3  5.0000000  0  8G04G08G09G16G26G27G28G31            
  21251487.141 6  21251497.277 9 111677310.437 6  87021317.785 9  21251497.26247
  20890925.734 6  20890939.730 9 109782558.284 6  85545035.598 9  20890938.93049
  23358613.375 3  23358628.520 8 122750336.272 3  95649678.325 8  23358628.14848
  21264932.359 5                 111747964.025 5  87076363.75547  21264939.37147
  22703975.828 6  22703992.500 9 119310198.308 6  92968811.577 9  22703992.34847
  19863812.383 7  19863822.848 9 104385033.703 7  81338997.083 9  19863822.01249
  23920710.383 3  23920731.902 8 125704181.254 3  97951115.899 8  23920731.81646
  23322742.180 5  23322763.680 8 122561830.593 5  95502554.342 8  23322763.52047
 23  3 10  3  3  6.0000000  0  8G04G08G09G16G26G27G28G31            
  21251469.609 6  21251479.797 9 111677219.373 6  87021246.823 9  21251479.77747
  20890605.602 6  20890619.215 9 109780874.049 6  85543723.207 9  20890618.43049
  23358279.148 2  23358293.961 8 122748577.927 2  95648308.184 8  23358293.51247
  21265218.945 6                 111749471.926 6  87077538.74047  21265226.30547
  22704392.117 5  22704408.906 9 119312387.178 5  92970517.180 9  22704408.96147
  19863900.539 7  19863910.500 9 104385496.578 7  81339357.771 9  19863910.13349
  23921267.617 3  23921288.578 8 125707107.103 3  97953395.794 8  23921288.61745
  23323220.883 5  23323242.199 8 122564346.834 5  95504515.050 8  23323242.38747
 23  3 10  3  3  7.0000000  0  8G04G08G09G16G26G27G28G31            
  21251452.656 6  21251462.656 9 111677129.128 6  87021176.501 9  21251462.51247
  20890285.484 6  20890298.977 9 109779190.483 6  85542411.343 9  20890297.97349
  23357944.859 2  23357959.355 8 122746820.211 2  95646938.535 8  23357958.96147
  21265506.414 6                 111750980.105 6  87078713.94047  21265513.23847
  22704809.102 5  22704825.809 9 119314576.181 5  92972222.890 9  22704825.63347
  19863988.898 7  19863998.820 9 104385960.287 7  81339719.103 9  19863998.29749
  23921824.023 3  23921845.504 8 125710033.339 3  97955675.977 8  23921845.40645
  23323699.305 5  23323721.148 8 122566863.493 5  95506476.083 8  23323721.46947
 23  3 10  3  3  8.0000000  0  8G04G08G09G16G26G27G28G31            
  21251435.734 6  21251445.914 9 111677039.585 6  87021106.726 9  21251445.50847
  20889965.453 6  20889978.754 9 109777507.544 6  85541099.965 9  20889977.78149
  23357611.039 3  23357624.852 8 122745063.062 3  95645569.330 8  23357624.66047
  21265793.195 6                 111752488.513 6  87079889.30747  21265800.17247
  22705224.938 5  22705242.367 9 119316765.276 5  92973928.668 9  22705242.03147
  19864077.281 7  19864087.145 9 104386424.757 7  81340081.029 9  19864086.70349
  23922381.086 3  23922402.383 8 125712959.955 3  97957956.452 8  23922402.38746
  23324178.367 5  23324200.270 8 122569380.528 5  95508437.421 8  23324200.52347
 23  3 10  3  3  9.0000000  0  8G04G08G09G16G26G27G28G31            
  21251418.234 6  21251429.047 9 111676950.703 6  87021037.447 9  21251428.68448
  20889645.078 6  20889658.375 9 109775825.126 6  85539788.996 9  20889657.57849
  23357275.961 2  23357290.828 8 122743306.374 2  95644200.494 8  23357290.50048
  21266080.633 6                 111753996.999 6  87081064.74447  21266087.19147
  22705641.633 5  22705658.813 9 119318954.313 5  92975634.410 9  22705658.53947
  19864165.805 7  19864175.723 9 104386889.882 7  81340443.464 9  19864175.19149
  23922937.875 3  23922959.301 8 125715886.857 3  97960237.151 8  23922959.32446
  23324657.883 5  23324679.074 8 122571897.837 5  95510398.956 8  23324679.41847
 23  3 10  3  3 10.0000000  0  8G04G08G09G16G26G27G28G31            
  21251401.938 6  21251412.184 9 111676862.634 6  87020968.817 9  21251411.96948
  20889324.789 6  20889338.551 9 109774143.477 6  85538478.624 9  20889337.49249
  23356941.813 2  23356956.828 8 122741550.434 2  95642832.223 8  23356956.31648
  21266367.766 6                 111755505.829 6  87082240.45247  21266374.39147
  22706058.398 5  22706075.629 9 119321143.537 5  92977340.286 9  22706075.37547
  19864254.563 7  19864264.238 9 104387355.872 7  81340806.575 9  19864263.85949
  23923495.211 3  23923516.453 8 125718814.219 3  97962518.212 8  23923516.28946
  23325136.945 5  23325158.133 8 122574415.606 5  95512360.850 8  23325158.47347
 23  3 10  3  3 11.0000000  0  8G04G08G09G16G26G27G28G31            
  21251385.031 6  21251395.758 9 111676775.317 6  87020900.783 9  21251395.37147
  20889005.359 6  20889018.586 9 109772462.481 6  85537168.758 9  20889017.53149
  23356608.086 3  23356622.656 8 122739795.058 3  95641464.400 8  23356622.30948
  21266654.453 6                 111757014.872 6  87083416.32847  21266661.54747
  22706475.039 5  22706492.070 9 119323332.856 5  92979046.229 9  22706492.02047
  19864343.195 7  19864352.973 9 104387822.643 7  81341170.283 9  19864352.67649
  23924051.922 3  23924073.535 8 125721741.903 3  97964799.525 8  23924073.35946
  23325616.375 5  23325637.223 8 122576933.741 5  95514323.033 8  23325637.58647
 23  3 10  3  3 12.0000000  0  8G04G08G09G16G26G27G28G31            
  21251368.781 6  21251379.000 9 111676688.715 6  87020833.293 9  21251378.96947
  20888685.328 6  20888698.594 9 109770782.082 6  85535859.360 9  20888697.67249
  23356273.469 3  23356288.652 9 122738040.274 3  95640097.036 9  23356288.36348
  21266942.125 6                 111758524.083 6  87084592.32747  21266948.84047
  22706891.781 5  22706908.754 9 119325522.223 5  92980752.217 9  22706908.82047
  19864432.117 7  19864442.078 9 104388290.145 7  81341534.573 9  19864441.56649
  23924609.508 4  23924630.613 8 125724669.994 4  97967081.152 8  23924630.51246
  23326095.406 5  23326116.516 8 122579452.256 5  95516285.512 8  23326116.70747
 23  3 10  3  3 13.0000000  0  8G04G08G09G16G26G27G28G31            
  21251352.094 6  21251362.824 9 111676602.994 6  87020766.496 9  21251362.74247
  20888365.656 6  20888378.953 9 109769102.458 6  85534550.567 9  20888378.06349
  23355940.305 3  23355954.863 9 122736286.171 3  95638730.206 9  23355954.51648
  21267229.211 5                 111760033.665 5  87085768.63047  21267236.09847
  22707308.422 5  22707325.387 9 119327711.795 5  92982458.366 9  22707325.51247
  19864521.180 7  19864531.230 9 104388758.563 7  81341899.584 9  19864530.73449
  23925166.609 4  23925188.059 8 125727598.595 4  97969363.174 8  23925187.81646
  23326574.609 5  23326595.637 8 122581971.247 5  95518248.358 8  23326595.99247
 23  3 10  3  3 14.0000000  0  8G04G08G09G16G26G27G28G31            
  21251335.508 6  21251346.746 9 111676517.935 6  87020700.206 9  21251346.46148
  20888046.492 6  20888059.684 9 109767423.423 6  85533242.236 9  20888058.61349
  23355606.234 3  23355620.996 9 122734532.601 3  95637363.787 9  23355620.84848
  21267516.570 5                 111761543.420 5  87086945.06847  21267523.28947
  22707725.258 5  22707741.820 9 119329901.395 5  92984164.535 9  22707742.12947
  19864610.609 7  19864620.293 9 104389227.691 7  81342265.140 9  19864619.99649
  23925724.477 4  23925745.410 8 125730527.465 4  97971645.408 8  23925745.13346
  23327054.102 5  23327075.340 8 122584490.530 5  95520211.437 8  23327075.27047
 23  3 10  3  3 15.0000000  0  8G04G08G09G16G26G27G28G31            
  21251319.852 6  21251330.773 9 111676433.644 6  87020634.525 9  21251330.53547
  20887726.758 6  20887740.258 9 109765744.999 6  85531934.375 9  20887739.17249
  23355272.828 2  23355287.293 8 122732779.687 2  95635997.875 8  23355287.45348
  21267803.453 5                 111763053.376 5  87088121.64247  21267810.78147
  22708141.977 6  22708158.754 9 119332091.089 6  92985870.776 9  22708158.97747
  19864700.188 7  19864709.848 9 104389697.604 7  81342631.305 9  19864709.43049
  23926282.266 4  23926302.445 8 125733456.760 4  97973927.981 8  23926302.63746
  23327532.891 5  23327554.801 8 122587010.247 5  95522174.854 8  23327554.80547
 23  3 10  3  3 16.0000000  0  8G04G08G09G16G26G27G28G31            
  21251303.977 6  21251314.781 9 111676350.179 6  87020569.487 9  21251314.63748
  20887407.359 6  20887420.910 9 109764067.289 6  85530627.071 9  20887419.72749
  23354939.336 3  23354954.063 8 122731027.436 3  95634632.477 8  23354954.11348
  21268091.258 5                 111764563.672 5  87089298.50247  21268098.09047
  22708558.492 5  22708575.465 9 119334280.951 5  92987577.149 9  22708575.76247
  19864789.734 7  19864799.406 9 104390168.356 7  81342998.120 9  19864798.93449
  23926839.836 4  23926860.367 8 125736386.496 4  97976210.896 8  23926860.19146
  23328013.039 5  23328034.242 8 122589530.388 5  95524138.605 8  23328034.06647
 23  3 10  3  3 17.0000000  0  8G04G08G09G16G26G27G28G31            
  21251288.523 6  21251299.016 9 111676267.570 6  87020505.112 9  21251298.95347
  20887088.242 6  20887101.914 9 109762390.386 6  85529320.395 9  20887100.66449
  23354606.086 3  23354620.719 8 122729275.882 3  95633267.635 8  23354620.89148
  21268378.125 5                 111766074.296 5  87090475.60247  21268385.62547
  22708975.047 5  22708992.203 9 119336471.006 5  92989283.668 9  22708992.42247
  19864879.320 7  19864889.285 9 104390640.016 7  81343365.643 9  19864888.75449
  23927397.352 4  23927417.887 8 125739316.759 4  97978494.222 8  23927417.77046
  23328492.547 5  23328514.160 8 122592051.010 5  95526102.723 8  23328513.68047
 23  3 10  3  3 18.0000000  0  8G04G08G09G16G26G27G28G31            
  21251273.148 6  21251283.430 9 111676185.789 6  87020441.377 9  21251283.21148
  20886769.477 6  20886782.953 9 109760714.226 6  85528014.298 9  20886781.74649
  23354273.266 3  23354287.625 8 122727524.994 3  95631903.298 8  23354287.71547
  21268665.328 5                 111767585.219 5  87091652.95447  21268673.41847
  22709391.750 5  22709408.758 9 119338661.216 5  92990990.321 9  22709409.36347
  19864969.289 7  19864979.152 9 104391112.518 7  81343733.829 9  19864978.66049
  23927954.484 4  23927975.324 8 125742247.450 4  97980777.895 8  23927975.31346
  23328972.742 5  23328993.793 8 122594572.147 5  95528067.243 8  23328993.35547
 23  3 10  3  3 19.0000000  0  8G04G08G09G16G26G27G28G31            
  21251257.383 6  21251268.129 9 111676104.664 6  87020378.163 9  21251267.81347
  20886450.211 6  20886464.004 9 109759038.559 6  85526708.590 9  20886462.84449
  23353939.805 3  23353954.609 8 122725774.610 3  95630539.361 8  23353954.59048
  21268953.313 5                 111769096.263 5  87092830.39247  21268960.97347
  22709808.805 5  22709825.684 9 119340851.424 5  92992696.973 9  22709826.13747
  19865059.391 7  19865069.117 9 104391585.697 7  81344102.536 9  19865068.62949
  23928512.109 4  23928532.984 8 125745178.440 4  97983061.778 8  23928532.94146
  23329452.773 5  23329473.582 8 122597093.509 5  95530031.937 8  23329472.96547
 23  3 10  3  3 20.0000000  0  8G04G08G09G16G26G27G28G31            
  21251242.125 6  21251252.848 9 111676024.300 6  87020315.546 9  21251252.44147
  20886131.609 6  20886145.230 9 109757363.599 6  85525403.433 9  20886144.06349
  23353606.914 3  23353621.680 8 122724024.891 3  95629175.954 8  23353621.64548
  21269240.969 5                 111770607.551 5  87094008.01347  21269248.51247
  22710226.133 5  22710242.594 9 119343041.764 5  92994403.720 9  22710243.04347
  19865149.164 7  19865159.320 9 104392059.687 7  81344471.875 9  19865158.88349
  23929069.367 4  23929090.750 8 125748109.820 4  97985345.961 8  23929090.69146
  23329932.445 5  23329953.332 8 122599615.293 5  95531996.959 8  23329952.92247
 23  3 10  3  3 21.0000000  0  8G04G08G09G16G26G27G28G31            
  21251226.828 6  21251237.504 9 111675944.762 6  87020253.563 9  21251237.31348
  20885812.805 6  20885826.531 9 109755689.377 6  85524098.842 9  20885825.25449
  23353273.781 3  23353288.828 8 122722275.784 3  95627813.020 8  23353288.86348
  21269528.500 5                 111772119.162 5  87095185.89047  21269536.28147
  22710642.484 5  22710659.301 9 119345232.230 5  92996110.574 9  22710659.83247
  19865240.156 7  19865249.820 9 104392534.527 7  81344841.879 9  19865249.30549
  23929627.836 4  23929648.813 8 125751041.670 4  97987630.531 8  23929648.48046
  23330412.766 5  23330433.113 8 122602137.533 5  95533962.339 8  23330432.85547
 23  3 10  3  3 22.0000000  0  8G04G08G09G16G26G27G28G31            
  21251212.164 6  21251222.445 9 111675865.969 6  87020192.160 9  21251222.23447
  20885494.219 6  20885507.895 9 109754015.795 6  85522794.757 9  20885506.65649
  23352941.422 3  23352955.914 8 122720527.291 3  95626450.542 8  23352955.97748
  21269816.148 5                 111773630.977 5  87096363.93547  21269823.81647
  22711059.211 5  22711076.145 9 119347422.791 5  92997817.488 9  22711076.81347
  19865330.438 7  19865340.457 9 104393010.129 7  81345212.478 9  19865339.79349
  23930185.359 4  23930207.215 8 125753973.904 4  97989915.396 8  23930206.52746
  23330892.414 5  23330913.559 8 122604660.138 5  95535927.998 8  23330912.88747
 23  3 10  3  3 23.0000000  0  8G04G08G09G16G26G27G28G31            
  21251197.117 6  21251207.758 9 111675787.986 6  87020131.391 9  21251207.45348
  20885175.922 6  20885189.676 9 109752342.914 6  85521491.209 9  20885188.33249
  23352608.805 3  23352623.160 8 122718779.433 3  95625088.570 8  23352623.26248
  21270103.813 5                 111775143.078 5  87097542.18447  21270111.68447
  22711476.242 5  22711492.875 9 119349613.506 5  92999524.534 9  22711493.71147
  19865421.117 7  19865430.973 9 104393486.579 7  81345583.734 9  19865430.53149
  23930743.828 4  23930764.832 8 125756906.528 4  97992200.564 8  23930764.67246
  23331372.852 5  23331393.793 8 122607183.194 5  95537894.016 8  23331392.91047
 23  3 10  3  3 24.0000000  0  8G04G08G09G16G26G27G28G31            
  21251182.547 6  21251193.031 9 111675710.759 6  87020071.217 9  21251192.82047
  20884857.813 6  20884871.355 9 109750670.732 6  85520188.212 9  20884870.17649
  23352276.914 3  23352290.543 9 122717032.275 3  95623727.141 9  23352290.71948
  21270391.563 5                 111776655.438 5  87098720.64647  21270399.52347
  22711893.141 5  22711909.941 9 119351804.308 5  93001231.640 9  22711910.47347
  19865512.063 7  19865521.824 9 104393963.826 7  81345955.615 9  19865521.31649
  23931302.180 4  23931323.004 8 125759839.592 4  97994486.080 8  23931322.60546
  23331852.852 5  23331874.098 8 122609706.642 5  95539860.335 8  23331873.01247
 23  3 10  3  3 25.0000000  0  8G04G08G09G16G26G27G28G31            
  21251168.250 6  21251178.625 9 111675634.467 6  87020011.765 9  21251178.23048
  20884539.570 6  20884553.355 9 109748999.357 6  85518885.842 9  20884552.02349
  23351944.297 3  23351958.176 9 122715285.832 3  95622366.288 9  23351958.42248
  21270679.719 5                 111778168.194 5  87099899.40947  21270687.61347
  22712309.680 5  22712326.766 9 119353995.380 5  93002938.966 9  22712327.54347
  19865602.813 7  19865612.750 9 104394442.015 7  81346328.234 9  19865612.40649
  23931860.297 4  23931881.324 8 125762773.219 4  97996772.021 8  23931880.90646
  23332333.117 5  23332354.453 8 122612230.625 5  95541827.082 8  23332353.38747
 23  3 10  3  3 26.0000000  0  8G04G08G09G16G26G27G28G31            
  21251153.477 6  21251164.160 9 111675558.989 6  87019952.946 9  21251163.77748
  20884221.961 6  20884235.434 9 109747328.719 6  85517584.044 9  20884234.10249
  23351612.375 3  23351625.758 8 122713540.056 3  95621005.941 8  23351626.14548
  21270967.625 5                 111779681.249 5  87101078.40947  21270975.61747
  22712727.219 6  22712743.641 9 119356186.616 6  93004646.407 9  22712744.37947
  19865694.227 7  19865703.930 9 104394921.051 7  81346701.510 9  19865703.52049
  23932418.406 4  23932439.504 8 125765707.300 4  97999058.319 8  23932439.14845
  23332813.930 6  23332834.734 8 122614755.067 6  95543794.177 8  23332833.57047
 23  3 10  3  3 27.0000000  0  8G04G08G09G16G26G27G28G31            
  21251139.320 6  21251150.215 9 111675484.281 6  87019894.720 9  21251149.74247
  20883904.195 6  20883917.668 9 109745658.780 6  85516282.806 9  20883916.16449
  23351280.359 3  23351293.785 8 122711794.950 3  95619646.112 8  23351294.11348
  21271255.906 5                 111781194.571 5  87102257.61847  21271263.47347
  22713143.992 6  22713160.832 9 119358377.984 6  93006353.952 9  22713161.37547
  19865785.398 7  19865795.105 9 104395400.918 7  81347075.424 9  19865794.79749
  23932976.477 4  23932998.145 8 125768641.788 4  98001344.935 8  23932997.39845
  23333294.313 5  23333315.125 8 122617279.941 5  95545761.609 8  23333313.94547
 23  3 10  3  3 28.0000000  0  8G04G08G09G16G26G27G28G31            
  21251125.422 6  21251136.051 9 111675410.352 6  87019837.115 9  21251135.66448
  20883586.234 6  20883600.012 9 109743989.453 6  85514982.029 9  20883598.57449
  23350947.875 4  23350961.996 8 122710050.433 4  95618286.753 8  23350961.99648
  21271543.641 5                 111782708.116 5  87103436.99847  21271551.53947
  22713561.539 6  22713577.730 9 119360569.427 6  93008061.568 9  22713578.37547
  19865877.227 7  19865886.754 9 104395881.555 7  81347449.949 9  19865886.45349
  23933535.016 4  23933556.816 8 125771576.633 4  98003631.840 8  23933555.89145
  23333774.938 5  23333795.613 8 122619805.191 5  95547729.339 8  23333794.56347
 23  3 10  3  3 29.0000000  0  8G04G08G09G16G26G27G28G31            
  21251111.875 6  21251122.215 9 111675337.132 6  87019780.058 9  21251121.75047
  20883268.398 6  20883282.293 9 109742320.729 6  85513681.723 9  20883280.84849
  23350616.352 3  23350630.141 8 122708306.459 3  95616927.814 8  23350630.13748
  21271831.531 5                 111784221.864 5  87104616.53547  21271839.82047
  22713978.469 5  22713994.727 9 119362760.948 5  93009769.243 9  22713995.30547
  19865968.438 7  19865978.449 9 104396362.938 7  81347825.049 9  19865977.92649
  23934094.305 4  23934115.609 8 125774511.880 4  98005919.040 8  23934114.28145
  23334255.391 5  23334276.258 8 122622330.791 5  95549697.343 8  23334275.50047
 23  3 10  3  3 30.0000000  0  8G04G08G09G16G26G27G28G31            
  21251098.141 6  21251108.395 9 111675264.791 6  87019723.684 9  21251108.14147
  20882951.508 6  20882965.043 9 109740652.811 6  85512382.049 9  20882963.44949
  23350284.570 3  23350298.313 8 122706563.265 3  95615569.479 8  23350298.51248
  21272119.961 5                 111785735.947 5  87105796.33447  21272127.82047
  22714395.219 5  22714411.887 9 119364952.677 5  93011477.063 9  22714412.33647
  19866060.281 7  19866070.109 9 104396845.230 7  81348200.863 9  19866069.83649
  23934652.797 4  23934674.273 8 125777447.600 4  98008206.611 8  23934672.66845
  23334736.234 5  23334756.875 8 122624856.904 5  95551665.747 8  23334756.13347
 23  3 10  3  3 31.0000000  0  8G04G08G09G16G26G27G28G31            
  21251084.586 6  21251094.477 9 111675193.300 6  87019667.973 9  21251094.53547
  20882634.141 6  20882647.816 9 109738985.651 6  85511082.964 9  20882646.19149
  23349953.016 3  23349966.699 8 122704820.755 3  95614211.677 8  23349966.79348
  21272407.609 5                 111787250.402 5  87106976.42947  21272415.93847
  22714812.656 6  22714829.113 9 119367144.616 6  93013185.058 9  22714829.22347
  19866152.258 7  19866162.125 9 104397328.408 7  81348577.357 9  19866161.74649
  23935211.031 4  23935232.895 8 125780383.830 4  98010494.579 8  23935231.26245
  23335217.070 6  23335237.723 8 122627383.497 6  95553634.518 8  23335236.90647
 23  3 10  3  3 32.0000000  0  8G04G08G09G16G26G27G28G31            
  21251070.719 6  21251081.230 9 111675122.494 6  87019612.799 9  21251081.03547
  20882317.375 6  20882330.973 9 109737319.021 6  85509784.289 9  20882329.14849
  23349621.563 3  23349635.227 8 122703078.745 3  95612854.259 8  23349635.28148
  21272696.711 5                 111788764.961 5  87108156.61347  21272704.00847
  22715229.633 6  22715246.313 9 119369336.532 6  93014893.045 9  22715246.31347
  19866244.438 7  19866254.086 9 104397812.286 7  81348954.401 9  19866253.78949
  23935770.734 4  23935791.672 8 125783320.374 4  98012782.796 8  23935790.08645
  23335697.383 6  23335718.605 8 122629910.362 6  95555603.499 8  23335717.82847
 23  3 10  3  3 33.0000000  0  8G04G08G09G16G26G27G28G31            
  21251057.844 6  21251067.957 9 111675052.298 6  87019558.100 9  21251067.69148
  20882000.063 6  20882013.578 9 109735652.927 6  85508486.037 9  20882012.08649
  23349290.203 4  23349303.965 8 122701337.279 4  95611497.277 8  23349303.88348
  21272984.805 6                 111790279.652 6  87109336.89547  21272992.39547
  22715646.719 6  22715663.332 9 119371528.458 6  93016601.030 9  22715663.28147
  19866336.719 7  19866346.328 9 104398296.807 7  81349331.952 9  19866345.96949
  23936329.500 4  23936350.137 8 125786257.183 4  98015071.225 8  23936348.82045
  23336178.219 5  23336199.617 8 122632437.518 5  95557572.714 8  23336198.63747
 23  3 10  3  3 34.0000000  0  8G04G08G09G16G26G27G28G31            
  21251044.516 6  21251054.527 9 111674983.005 6  87019504.096 9  21251054.60948
  20881682.977 6  20881697.039 9 109733987.639 6  85507188.405 9  20881695.40249
  23348958.016 4  23348972.566 8 122699596.523 4  95610140.841 8  23348972.45348
  21273273.109 5                 111791794.713 5  87110517.45347  21273280.75447
  22716063.820 6  22716080.383 9 119373720.575 6  93018309.155 9  22716080.43047
  19866428.992 7  19866438.789 9 104398782.271 7  81349710.234 9  19866438.55549
  23936888.688 4  23936908.871 8 125789194.508 4  98017360.045 8  23936907.86345
  23336659.273 5  23336680.586 8 122634965.241 5  95559542.370 8  23336679.56647
 23  3 10  3  3 35.0000000  0  8G04G08G09G16G26G27G28G31            
  21251031.320 6  21251041.430 9 111674914.509 6  87019450.718 9  21251041.50848
  20881366.102 6  20881380.180 9 109732323.043 6  85505891.325 9  20881378.55949
  23348628.375 4  23348641.461 8 122697856.381 4  95608784.891 8  23348641.33248
  21273561.219 5                 111793310.054 5  87111698.23447  21273569.26247
  22716481.086 6  22716497.492 9 119375912.854 6  93020017.413 9  22716497.68847
  19866521.359 7  19866531.469 9 104399268.557 7  81350089.155 9  19866530.99649
  23937447.484 4  23937467.859 8 125792132.263 4  98019649.189 8  23937466.78545
  23337139.969 5  23337161.691 8 122637493.341 5  95561512.317 8  23337160.64147
 23  3 10  3  3 36.0000000  0  8G04G08G09G16G26G27G28G31            
  21251018.219 6  21251028.590 9 111674846.698 6  87019397.876 9  21251028.49248
  20881049.781 6  20881063.449 9 109730659.021 6  85504594.690 9  20881061.86349
  23348297.016 4  23348310.371 8 122696116.803 4  95607429.376 8  23348310.23448
  21273850.344 5                 111794825.501 5  87112879.11347  21273857.65647
  22716898.648 6  22716914.801 9 119378105.134 6  93021725.668 9  22716914.74647
  19866614.555 7  19866624.141 9 104399755.526 7  81350468.606 9  19866623.60949
  23938006.438 4  23938026.973 8 125795070.305 4  98021938.555 8  23938025.74245
  23337621.250 5  23337642.613 8 122640021.738 5  95563482.495 8  23337641.75847
 23  3 10  3  3 37.0000000  0  8G04G08G09G16G26G27G28G31            
  21251005.992 6  21251015.914 9 111674779.557 6  87019345.555 9  21251015.69948
  20880733.469 6  20880747.016 9 109728995.602 6  85503298.512 9  20880745.30949
  23347966.273 4  23347979.320 9 122694377.751 4  95606074.268 9  23347979.23448
  21274137.891 5                 111796341.146 5  87114060.13947  21274146.01247
  22717315.320 6  22717331.984 9 119380297.413 6  93023433.936 9  22717331.87147
  19866707.086 7  19866716.746 9 104400243.220 7  81350848.631 9  19866716.47349
  23938565.289 4  23938585.977 8 125798008.677 4  98024228.179 8  23938584.77346
  23338103.023 5  23338123.855 8 122642550.468 5  95565452.935 8  23338122.87947
 23  3 10  3  3 38.0000000  0  8G04G08G09G16G26G27G28G31            
  21250992.859 6  21251003.453 9 111674713.281 6  87019293.920 9  21251003.18048
  20880417.031 6  20880430.777 9 109727332.950 6  85502002.943 9  20880429.03949
  23347635.398 4  23347648.645 8 122692639.413 4  95604719.721 8  23347648.63348
  21274426.844 5                 111797857.115 5  87115241.40547  21274434.53147
  22717732.508 6  22717749.234 9 119382489.918 6  93025142.370 9  22717749.35547
  19866799.922 7  19866809.484 9 104400731.799 7  81351229.348 9  19866809.46949
  23939124.117 4  23939145.402 8 125800947.563 4  98026518.229 8  23939144.02346
  23338584.281 5  23338605.203 8 122645079.681 5  95567423.750 8  23338604.18847
 23  3 10  3  3 39.0000000  0  8G04G08G09G16G26G27G28G31            
  21250980.883 6  21250990.836 9 111674647.913 6  87019242.971 9  21250990.65248
  20880100.609 6  20880114.492 9 109725671.125 6  85500708.022 9  20880112.74249
  23347304.875 4  23347318.137 8 122690901.840 4  95603365.763 8  23347317.76648
  21274714.938 5                 111799373.484 5  87116422.99147  21274723.14847
  22718150.016 6  22718166.125 9 119384682.667 6  93026850.995 9  22718166.67647
  19866893.125 7  19866902.719 9 104401221.325 7  81351610.788 9  19866902.54749
  23939683.234 4  23939704.957 8 125803886.976 4  98028808.678 8  23939703.41445
  23339065.523 6  23339086.609 8 122647609.450 6  95569394.997 8  23339085.60947
 23  3 10  3  3 40.0000000  0  8G04G08G09G16G26G27G28G31            
  21250968.617 6  21250978.496 9 111674583.261 6  87019192.601 9  21250978.22748
  20879784.117 6  20879798.438 9 109724009.904 6  85499413.572 9  20879796.89149
  23346974.766 5  23346987.387 8 122689164.833 5  95602012.249 8  23346987.20748
  21275003.867 5                 111800890.077 5  87117604.75447  21275011.82447
  22718568.078 6  22718583.363 9 119386875.488 6  93028559.678 9  22718583.95347
  19866986.695 7  19866996.266 9 104401711.603 7  81351992.825 9  19866995.95749
  23940243.156 4  23940264.305 8 125806826.738 4  98031099.390 8  23940262.84445
  23339546.969 6  23339567.863 8 122650139.547 6  95571366.505 8  23339567.04347
 23  3 10  3  3 41.0000000  0  8G04G08G09G16G26G27G28G31            
  21250955.914 6  21250966.406 9 111674519.354 6  87019142.791 9  21250966.07448
  20879468.773 6  20879482.398 9 109722349.332 6  85498119.613 9  20879480.77349
  23346643.531 4  23346657.184 8 122687428.430 4  95600659.208 8  23346656.83648
  21275292.688 5                 111802406.855 5  87118786.64547  21275300.41447
  22718985.016 6  22719000.551 9 119389068.366 6  93030268.402 9  22719001.02747
  19867079.734 7  19867089.535 9 104402202.641 7  81352375.450 9  19867089.46549
  23940802.742 4  23940823.707 8 125809766.861 4  98033390.396 8  23940822.37145
  23340028.070 5  23340049.418 8 122652670.027 5  95573338.312 8  23340048.48047
 23  3 10  3  3 42.0000000  0  8G04G08G09G16G26G27G28G31            
  21250944.523 6  21250954.160 9 111674456.253 6  87019093.623 9  21250953.89547
  20879152.648 6  20879166.375 9 109720689.467 6  85496826.221 9  20879164.91849
  23346312.992 4  23346326.820 8 122685692.733 4  95599306.717 8  23346326.79348
  21275581.086 5                 111803923.955 5  87119968.79747  21275589.19947
  22719401.844 6  22719417.898 9 119391261.423 6  93031977.261 9  22719418.20747
  19867173.734 7  19867183.078 9 104402694.522 7  81352758.737 9  19867183.09449
  23941362.188 4  23941383.488 8 125812707.421 4  98035681.743 8  23941382.16845
  23340509.750 5  23340530.945 8 122655200.993 5  95575310.494 8  23340530.32047
 23  3 10  3  3 43.0000000  0  8G04G08G09G16G26G27G28G31            
  21250932.484 6  21250942.242 9 111674393.896 6  87019045.034 9  21250942.10948
  20878836.867 6  20878850.738 9 109719030.235 6  85495533.319 9  20878849.30549
  23345983.516 4  23345996.680 8 122683957.549 4  95597954.622 8  23345996.49648
  21275869.953 5                 111805441.213 5  87121151.07647  21275877.94147
  22719819.234 6  22719835.484 9 119393454.517 6  93033686.156 9  22719835.37547
  19867266.930 7  19867276.848 9 104403187.146 7  81353142.592 9  19867276.87149
  23941921.914 4  23941943.383 8 125815648.369 4  98037973.395 8  23941941.82045
  23340991.500 6  23341012.844 8 122657732.269 6  95577282.922 8  23341012.05147
 23  3 10  3  3 44.0000000  0  8G04G08G09G16G26G27G28G31            
  21250920.484 6  21250930.617 9 111674332.254 6  87018996.998 9  21250930.43448
  20878521.469 6  20878534.813 9 109717371.630 6  85494240.902 9  20878533.68849
  23345652.750 4  23345666.789 8 122682222.955 4  95596602.993 8  23345666.43448
  21276158.648 5                 111806958.722 5  87122333.55547  21276166.58647
  22720236.531 6  22720252.789 9 119395647.692 6  93035395.107 9  22720252.66047
  19867360.813 7  19867370.656 9 104403680.526 7  81353527.043 9  19867370.77749
  23942480.719 4  23942502.867 8 125818589.669 4  98040265.336 8  23942501.54346
  23341474.000 6  23341494.258 8 122660263.890 6  95579255.623 8  23341493.72347
 23  3 10  3  3 45.0000000  0  8G04G08G09G16G26G27G28G31            
  21250908.945 6  21250919.352 9 111674271.476 6  87018949.624 9  21250918.99648
  20878205.914 6  20878219.453 9 109715713.769 6  85492949.066 9  20878218.30149
  23345322.719 4  23345336.770 8 122680489.106 4  95595251.938 8  23345336.50448
  21276447.313 5                 111808476.528 5  87123516.25147  21276455.35947
  22720653.719 6  22720670.230 9 119397841.047 6  93037104.209 9  22720670.10247
  19867455.000 7  19867464.871 9 104404174.798 7  81353912.193 9  19867464.87549
  23943040.289 4  23943062.430 8 125821531.438 4  98042557.636 8  23943061.34445
  23341955.430 6  23341976.250 8 122662796.017 6  95581228.711 8  23341975.46947
 23  3 10  3  3 46.0000000  0  8G04G08G09G16G26G27G28G31            
  21250897.547 6  21250907.844 9 111674211.607 6  87018902.974 9  21250907.40648
  20877890.188 6  20877903.996 9 109714056.772 6  85491657.901 9  20877902.91049
  23344993.430 4  23345007.219 8 122678756.016 4  95593901.481 8  23345006.77348
  21276736.961 5                 111809994.782 5  87124699.30447  21276744.18847
  22721071.328 6  22721087.707 9 119400034.690 6  93038813.527 9  22721087.53947
  19867549.211 7  19867559.242 9 104404670.030 7  81354298.088 9  19867559.08649
  23943601.203 4  23943622.184 8 125824473.813 4  98044850.387 8  23943621.22345
  23342437.133 6  23342458.059 8 122665328.710 6  95583202.233 8  23342457.52347
 23  3 10  3  3 47.0000000  0  8G04G08G09G16G26G27G28G31            
  21250886.406 6  21250896.684 9 111674152.549 6  87018856.948 9  21250896.30548
  20877575.430 6  20877588.898 9 109712400.424 6  85490367.243 9  20877587.96949
  23344664.109 4  23344677.500 8 122677023.553 4  95592551.505 8  23344676.98048
  21277025.367 5                 111811513.247 5  87125882.52147  21277033.14547
  22721488.813 6  22721504.977 9 119402228.442 6  93040522.939 9  22721505.00847
  19867643.297 7  19867653.582 9 104405166.068 7  81354684.604 9  19867653.42249
  23944160.391 3  23944182.164 8 125827416.581 3  98047143.443 8  23944181.13745
  23342919.516 6  23342940.047 9 122667861.817 6  95585176.086 9  23342939.68847
 23  3 10  3  3 48.0000000  0  8G04G08G09G16G26G27G28G31            
  21250875.758 6  21250885.402 9 111674094.364 6  87018811.602 9  21250885.25448
  20877260.203 6  20877274.164 9 109710744.888 6  85489077.218 9  20877272.87149
  23344333.492 4  23344347.695 8 122675291.818 4  95591202.112 8  23344347.40648
  21277315.039 5                 111813032.091 5  87127066.04547  21277322.23447
  22721906.297 5  22721922.375 9 119404422.428 5  93042232.526 9  22721922.39147
  19867738.383 7  19867748.020 9 104405663.030 7  81355071.848 9  19867747.82849
  23944721.234 3  23944742.219 8 125830359.858 3  98049436.922 8  23944741.36345
  23343401.789 6  23343422.461 9 122670395.412 6  95587150.324 9  23343421.92647
 23  3 10  3  3 49.0000000  0  8G04G08G09G16G26G27G28G31            
  21250864.984 6  21250874.574 9 111674036.940 6  87018766.858 9  21250874.29748
  20876945.219 6  20876959.164 9 109709090.022 6  85487787.715 9  20876957.94949
  23344004.719 4  23344018.328 8 122673560.730 4  95589853.213 8  23344017.85548
  21277603.539 5                 111814551.172 5  87128249.74647  21277611.41047
  22722323.570 5  22722340.086 9 119406616.518 5  93043942.199 9  22722339.84047
  19867832.945 7  19867842.781 9 104406160.775 7  81355459.709 9  19867842.61349
  23945281.531 3  23945302.254 8 125833303.541 3  98051730.721 8  23945301.62945
  23343883.664 6  23343904.875 9 122672929.450 6  95589124.906 9  23343904.00047
 23  3 10  3  3 50.0000000  0  8G04G08G09G16G26G27G28G31            
  21250854.055 6  21250863.637 9 111673980.424 6  87018722.814 9  21250863.54348
  20876630.219 6  20876644.137 9 109707435.938 6  85486498.821 9  20876643.39149
  23343675.281 4  23343689.078 8 122671830.396 4  95588504.893 8  23343688.73048
  21277892.484 5                 111816070.648 5  87129433.73847  21277900.52747
  22722741.422 5  22722757.859 9 119408810.833 5  93045652.047 9  22722757.33247
  19867927.906 7  19867937.656 9 104406659.449 7  81355848.280 9  19867937.57049
  23945842.078 4  23945862.617 8 125836247.740 4  98054024.897 8  23945861.90245
  23344365.867 5  23344386.801 9 122675463.972 5  95591099.853 9  23344386.27747
 23  3 10  3  3 51.0000000  0  8G04G08G09G16G26G27G28G31            
  21250843.430 6  21250853.219 9 111673924.564 6  87018679.279 9  21250852.91048
  20876315.617 6  20876329.488 9 109705782.444 6  85485210.384 9  20876328.45749
  23343346.258 4  23343359.887 8 122670100.567 4  95587156.958 8  23343359.60548
  21278181.766 5                 111817590.251 5  87130617.82047  21278189.57847
  22723158.680 5  22723175.352 9 119411005.164 5  93047361.904 9  22723174.81347
  19868022.938 7  19868032.680 9 104407158.817 7  81356237.401 9  19868032.59849
  23946402.672 3  23946422.883 8 125839192.282 3  98056319.347 8  23946422.18845
  23344848.188 6  23344869.402 9 122677998.833 6  95593075.071 9  23344868.55947
 23  3 10  3  3 52.0000000  0  8G04G08G09G16G26G27G28G31            
  21250833.016 6  21250842.523 9 111673869.464 6  87018636.347 9  21250842.26248
  20876001.016 6  20876014.887 9 109704129.598 6  85483922.452 9  20876014.13749
  23343016.531 4  23343030.926 8 122668371.360 4  95585809.534 8  23343030.56648
  21278470.773 5                 111819110.101 5  87131802.12547  21278478.67647
  22723575.977 5  22723592.965 9 119413199.590 5  93049071.833 9  22723592.50447
  19868118.461 7  19868127.969 9 104407658.960 7  81356627.119 9  19868127.76249
  23946962.555 3  23946983.305 8 125842137.178 3  98058614.064 8  23946982.54345
  23345330.438 5  23345351.625 9 122680534.060 5  95595050.580 9  23345350.93047
 23  3 10  3  3 53.0000000  0  8G04G08G09G16G26G27G28G31            
  21250822.453 6  21250832.359 9 111673815.242 6  87018594.092 9  21250831.96548
  20875686.625 6  20875700.617 9 109702477.497 6  85482635.109 9  20875699.80549
  23342688.195 4  23342702.105 8 122666642.850 4  95584462.654 8  23342701.59448
  21278760.086 5                 111820630.300 5  87132986.69147  21278768.05547
  22723993.383 5  22724010.520 9 119415394.208 5  93050781.916 9  22724010.02047
  19868213.516 7  19868223.367 9 104408160.020 7  81357017.559 9  19868223.16849
  23947521.500 3  23947543.578 8 125845082.588 3  98060909.211 8  23947543.00045
  23345812.813 5  23345834.293 9 122683069.792 5  95597026.473 9  23345833.59847
 23  3 10  3  3 54.0000000  0  8G04G08G09G16G26G27G28G31            
  21250812.094 6  21250822.434 9 111673761.810 6  87018552.461 9  21250821.78948
  20875372.727 6  20875386.352 9 109700826.132 6  85481348.325 9  20875385.60549
  23342358.844 4  23342373.230 8 122664915.027 4  95583116.282 8  23342372.78548
  21279049.508 5                 111822150.781 5  87134171.47947  21279057.33647
  22724411.930 5  22724428.281 8 119417588.988 5  93052492.128 8  22724427.82447
  19868309.016 7  19868318.828 9 104408661.908 7  81357408.642 9  19868318.54749
  23948082.656 3  23948104.457 8 125848028.443 3  98063204.687 8  23948103.37145
  23346295.531 6  23346317.043 8 122685605.992 6  95599002.728 8  23346316.25847
 23  3 10  3  3 55.0000000  0  8G04G08G09G16G26G27G28G31            
  21250802.617 6  21250812.391 9 111673709.146 6  87018511.414 9  21250811.57048
  20875058.641 6  20875072.047 9 109699175.395 6  85480062.047 9  20875071.57049
  23342031.156 4  23342044.414 8 122663187.799 4  95581770.390 8  23342044.16848
  21279338.938 5                 111823671.467 5  87135356.42047  21279346.65247
  22724829.789 5  22724846.082 9 119419783.860 5  93054202.405 9  22724845.32447
  19868404.859 7  19868414.523 9 104409164.562 7  81357800.312 9  19868414.35249
  23948643.695 3  23948665.023 8 125850974.625 3  98065500.418 8  23948664.02745
  23346778.531 6  23346799.930 8 122688142.514 6  95600979.238 8  23346798.93847
 23  3 10  3  3 56.0000000  0  8G04G08G09G16G26G27G28G31            
  21250791.734 6  21250802.449 9 111673657.222 6  87018470.941 9  21250801.75048
  20874744.344 6  20874758.465 9 109697525.320 6  85478776.276 9  20874757.55549
  23341702.102 4  23341715.934 8 122661461.191 4  95580424.988 8  23341715.56348
  21279628.102 5                 111825192.381 5  87136541.54447  21279636.09447
  22725247.539 5  22725263.617 9 119421978.805 5  93055912.741 9  22725262.92647
  19868500.578 7  19868510.332 9 104409668.003 7  81358192.605 9  19868510.16849
  23949205.000 3  23949225.832 8 125853921.231 3  98067796.500 8  23949224.80945
  23347261.570 6  23347282.773 8 122690679.439 6  95602956.060 8  23347281.66847
 23  3 10  3  3 57.0000000  0  8G04G08G09G16G26G27G28G31            
  21250782.852 6  21250792.766 9 111673606.069 6  87018431.085 9  21250792.23448
  20874430.781 6  20874444.477 9 109695875.916 6  85477491.020 9  20874443.75449
  23341373.102 4  23341387.664 9 122659735.182 4  95579080.043 9  23341387.12548
  21279917.570 5                 111826713.562 5  87137726.87647  21279925.62147
  22725665.070 5  22725681.473 9 119424173.854 5  93057623.160 9  22725680.50447
  19868596.477 7  19868606.348 9 104410172.244 7  81358585.520 9  19868605.95749
  23949764.719 2  23949786.480 8 125856868.253 2  98070092.882 8  23949785.65245
  23347744.156 6  23347765.332 8 122693216.764 6  95604933.200 8  23347764.48447
 23  3 10  3  3 58.0000000  0  8G04G08G09G16G26G27G28G31            
  21250773.156 6  21250783.047 9 111673555.470 6  87018391.660 9  21250782.53948
  20874116.180 6  20874130.703 9 109694226.995 6  85476206.150 9  20874130.03149
  23341045.609 4  23341059.230 9 122658009.597 4  95577735.436 9  23341058.89148
  21280206.984 5                 111828234.775 5  87138912.24047  21280214.87147
  22726082.453 5  22726099.090 9 119426368.822 5  93059333.516 9  22726098.12147
  19868692.516 7  19868702.578 9 104410677.075 7  81358978.889 9  19868702.03949
  23950325.570 2  23950347.402 8 125859815.447 2  98072389.388 8  23950346.48445
  23348227.180 5  23348248.305 9 122695754.292 5  95606910.490 9  23348247.32047
 23  3 10  3  3 59.0000000  0  8G04G08G09G16G26G27G28G31            
  21250763.313 6  21250773.504 9 111673505.778 6  87018352.930 9  21250773.23848
  20873803.047 6  20873817.172 9 109692578.844 6  85474921.877 9  20873816.28949
  23340717.773 5  23340730.832 9 122656284.752 5  95576391.398 9  23340730.71148
  21280497.055 5                 111829756.317 5  87140097.86447  21280504.36747
  22726500.227 5  22726516.785 9 119428564.020 5  93061044.049 9  22726515.97747
  19868788.703 7  19868798.598 9 104411182.812 7  81359372.966 9  19868798.28149
  23950887.156 2  23950908.273 8 125862763.160 2  98074686.300 8  23950907.48845
  23348709.891 5  23348731.383 9 122698292.298 5  95608888.164 9  23348730.30547
 23  3 10  3  4  0.0000000  0  8G04G08G09G16G26G27G28G31            
  21250753.938 6  21250764.117 9 111673456.803 6  87018314.766 9  21250763.89848
  20873489.820 6  20873503.484 9 109690931.324 6  85473638.096 9  20873502.90649
  23340389.266 4  23340402.840 9 122654560.481 4  95575047.804 9  23340402.59448
  21280786.594 5                 111831278.097 5  87141283.66147  21280793.89547
  22726918.391 6  22726934.254 9 119430759.257 6  93062754.611 9  22726933.80547
  19868885.320 7  19868894.859 9 104411689.312 7  81359767.637 9  19868894.59049
  23951448.070 2  23951469.254 8 125865711.267 2  98076983.527 8  23951468.58645
  23349192.867 5  23349214.215 9 122700830.731 5  95610866.173 9  23349213.46947
 23  3 10  3  4  1.0000000  0  8G04G08G09G16G26G27G28G31            
  21250744.664 6  21250755.254 9 111673408.475 6  87018277.101 9  21250754.59448
  20873176.352 6  20873190.383 9 109689284.341 6  85472354.738 9  20873189.46549
  23340061.109 5  23340074.676 9 122652836.707 5  95573704.605 9  23340074.69548
  21281076.125 5                 111832799.979 5  87142469.53747  21281083.47747
  22727335.891 5  22727351.832 9 119432954.489 5  93064465.174 9  22727351.55547
  19868981.516 7  19868991.328 9 104412196.472 7  81360162.824 9  19868991.06649
  23952009.391 2  23952030.492 8 125868659.593 2  98079280.923 8  23952029.43045
  23349675.703 5  23349697.254 9 122703369.384 5  95612844.341 9  23349696.52747
 23  3 10  3  4  2.0000000  0  8G04G08G09G16G26G27G28G31            
  21250735.477 6  21250745.996 9 111673360.945 6  87018240.068 9  21250745.63348
  20872862.711 6  20872876.918 9 109687638.073 6  85471071.934 9  20872876.20749
  23339732.891 4  23339747.047 9 122651113.609 4  95572361.941 9  23339746.80548
  21281364.922 5                 111834322.176 5  87143655.66947  21281373.18047
  22727753.492 6  22727770.039 9 119435149.894 6  93066175.872 9  22727769.32847
  19869078.266 7  19869087.871 9 104412704.489 7  81360558.687 9  19869087.69949
  23952569.898 2  23952591.660 8 125871608.382 2  98081578.673 8  23952590.45345
  23350159.063 5  23350180.453 9 122705908.495 5  95614822.870 9  23350179.70747
 23  3 10  3  4  3.0000000  0  8G04G08G09G16G26G27G28G31            
  21250726.656 6  21250737.344 9 111673314.145 6  87018203.596 9  21250736.74648
  20872549.844 6  20872563.617 9 109685992.461 6  85469789.642 9  20872563.02749
  23339405.055 4  23339419.383 9 122649391.080 4  95571019.704 9  23339419.00048
  21281655.297 5                 111835844.558 5  87144841.94147  21281662.82047
  22728172.008 6  22728187.680 9 119437345.329 6  93067886.589 9  22728187.11347
  19869174.969 7  19869184.641 9 104413213.231 7  81360955.104 9  19869184.58649
  23953131.727 2  23953152.891 8 125874557.546 2  98083876.728 8  23953151.54345
  23350642.281 5  23350663.734 9 122708447.944 5  95616801.663 9  23350662.87947
 23  3 10  3  4  4.0000000  0  8G04G08G09G16G26G27G28G31            
  21250717.977 6  21250728.246 9 111673268.097 6  87018167.711 9  21250728.11348
  20872236.484 6  20872250.762 9 109684347.490 6  85468507.850 9  20872250.05149
  23339077.453 5  23339091.828 9 122647669.163 5  95569677.954 9  23339091.36748
  21281945.266 5                 111837367.169 5  87146028.40447  21281952.40247
  22728589.461 6  22728605.430 9 119439540.872 6  93069597.393 9  22728604.84447
  19869271.883 7  19869281.684 9 104413722.776 7  81361352.152 9  19869281.50849
  23953692.750 2  23953713.855 8 125877507.121 2  98086175.093 8  23953712.80545
  23351125.477 5  23351146.926 9 122710987.767 5  95618780.748 9  23351146.08647
 23  3 10  3  4  5.0000000  0  8G04G08G09G16G26G27G28G31            
  21250709.555 6  21250719.609 9 111673222.832 6  87018132.438 9  21250719.47748
  20871923.852 6  20871937.805 9 109682703.190 6  85467226.579 9  20871937.32049
  23338749.750 5  23338763.977 8 122645947.858 5  95568336.674 8  23338763.92648
  21282234.578 5                 111838890.031 5  87147215.04447  21282242.04747
  22729006.664 6  22729023.418 9 119441736.504 6  93071308.272 9  22729022.72347
  19869369.047 7  19869378.930 9 104414233.090 7  81361749.798 9  19869378.60949
  23954254.813 2  23954275.285 8 125880457.058 2  98088473.748 8  23954274.10945
  23351609.102 5  23351630.035 9 122713528.036 5  95620760.179 9  23351629.41447
 23  3 10  3  4  6.0000000  0  8G04G08G09G16G26G27G28G31            
  21250700.867 6  21250711.320 9 111673178.289 6  87018097.723 9  21250710.91048
  20871611.164 6  20871625.223 9 109681059.537 6  85465945.822 9  20871624.26649
  23338422.680 5  23338436.602 8 122644227.142 5  95566995.866 8  23338436.53548
  21282524.531 5                 111840413.107 5  87148401.85447  21282531.78147
  22729424.711 6  22729441.309 8 119443932.240 6  93073019.225 8  22729440.49647
  19869466.211 7  19869476.008 9 104414744.206 7  81362148.068 9  19869475.85549
  23954815.586 2  23954836.457 7 125883407.374 2  98090772.706 7  23954835.62545
  23352092.695 5  23352113.559 8 122716068.631 5  95622739.864 8  23352112.89547
 23  3 10  3  4  7.0000000  0  8G04G08G09G16G26G27G28G31            
  21250692.656 6  21250702.574 9 111673134.432 6  87018063.545 9  21250702.48848
  20871298.547 6  20871312.477 9 109679416.511 6  85464665.527 9  20871311.73849
  23338095.555 5  23338109.227 8 122642506.992 5  95565655.487 8  23338109.17648
  21282814.094 5                 111841936.323 5  87149588.75847  21282821.46547
  22729842.852 6  22729859.145 9 119446127.992 6  93074730.187 9  22729858.25447
  19869563.617 7  19869573.352 9 104415256.003 7  81362546.868 9  19869573.05949
  23955377.586 2  23955398.078 8 125886358.003 2  98093071.900 8  23955397.02345
  23352576.461 6  23352597.117 8 122718609.561 6  95624719.817 8  23352596.45747
 23  3 10  3  4  8.0000000  0  8G04G08G09G16G26G27G28G31            
  21250684.773 6  21250694.902 9 111673091.535 6  87018030.111 9  21250694.42648
  20870985.867 6  20870999.895 9 109677774.289 6  85463385.882 9  20870999.30549
  23337768.305 5  23337782.031 8 122640787.612 5  95564315.712 8  23337781.81648
  21283104.789 5                 111843459.993 5  87150776.02846  21283111.30146
  22730260.867 6  22730276.957 9 119448324.012 6  93076441.360 9  22730276.08247
  19869661.320 7  19869671.113 9 104415768.781 7  81362946.436 9  19869670.64849
  23955939.383 2  23955959.594 8 125889309.209 2  98095371.553 8  23955958.43045
  23353059.836 5  23353080.980 8 122721151.052 5  95626700.206 8  23353080.15247
 23  3 10  3  4  9.0000000  0  8G04G08G09G16G26G27G28G31            
  21250677.008 6  21250686.641 9 111673049.257 6  87017997.161 9  21250686.38748
  20870673.570 6  20870687.457 9 109676132.633 6  85462106.675 9  20870686.78949
  23337441.641 5  23337455.008 9 122639068.767 5  95562976.357 9  23337454.81648
  21283394.297 5                 111844983.740 5  87151963.35247  21283401.33647
  22730679.227 6  22730694.691 9 119450520.021 6  93078152.531 9  22730693.88347
  19869759.102 7  19869768.844 9 104416282.231 7  81363346.524 9  19869768.44149
  23956501.086 3  23956521.328 8 125892260.691 3  98097671.405 8  23956520.04345
  23353543.586 6  23353564.379 8 122723692.828 6  95628680.809 8  23353563.71947
 23  3 10  3  4 10.0000000  0  8G04G08G09G16G26G27G28G31            
  21250669.164 6  21250678.820 9 111673007.776 6  87017964.838 9  21250678.54348
  20870361.430 6  20870375.254 9 109674491.655 6  85460827.996 9  20870374.69549
  23337114.406 5  23337128.105 8 122637350.521 5  95561637.458 8  23337127.91448
  21283684.148 5                 111846507.781 5  87153150.92647  21283691.20347
  22731096.555 6  22731113.086 9 119452716.167 6  93079863.809 9  22731112.02347
  19869856.906 7  19869866.723 9 104416796.495 7  81363747.248 9  19869866.26249
  23957062.609 2  23957082.816 8 125895212.608 2  98099971.612 8  23957081.73045
  23354027.273 6  23354048.172 8 122726235.028 6  95630661.746 8  23354047.35247
 23  3 10  3  4 11.0000000  0  8G04G08G09G16G26G27G28G31            
  21250661.320 6  21250671.133 9 111672967.011 6  87017933.073 9  21250670.66048
  20870049.188 6  20870063.031 9 109672851.296 6  85459549.795 9  20870062.45349
  23336787.422 5  23336801.090 8 122635632.866 5  95560299.026 8  23336801.09848
  21283974.320 5                 111848032.013 5  87154338.62247  21283981.24247
  22731514.547 5  22731531.086 9 119454912.341 5  93081575.094 9  22731530.00047
  19869954.672 7  19869964.426 9 104417311.492 7  81364148.550 9  19869964.15249
  23957624.094 2  23957644.652 8 125898164.893 2  98102272.095 8  23957643.62945
  23354511.781 6  23354532.125 9 122728777.561 6  95632642.933 9  23354531.30147
 23  3 10  3  4 12.0000000  0  8G04G08G09G16G26G27G28G31            
  21250653.852 6  21250663.617 9 111672926.961 6  87017901.861 9  21250663.14848
  20869736.969 6  20869751.047 9 109671211.563 6  85458272.086 9  20869750.64149
  23336461.266 5  23336474.395 8 122633915.778 5  95558961.035 8  23336474.29348
  21284264.758 5                 111849556.430 5  87155526.48147  21284271.37147
  22731933.188 6  22731948.867 9 119457108.606 6  93083286.461 9  22731947.82847
  19870053.125 7  19870063.051 9 104417827.251 7  81364550.435 9  19870062.59849
  23958186.406 3  23958206.707 8 125901117.481 3  98104572.835 8  23958205.41845
  23354994.578 6  23355016.125 9 122731320.464 6  95634624.442 9  23355015.16847
 23  3 10  3  4 13.0000000  0  8G04G08G09G16G26G27G28G31            
  21250646.164 6  21250656.000 9 111672887.804 6  87017871.347 9  21250655.62148
  20869425.328 6  20869439.090 9 109669572.574 6  85456994.950 9  20869438.55549
  23336134.031 5  23336147.770 9 122632199.436 5  95557623.629 9  23336147.69948
  21284554.305 5                 111851081.202 5  87156714.62247  21284561.43047
  22732350.508 6  22732366.383 9 119459305.075 6  93084997.975 9  22732365.68047
  19870151.117 7  19870161.441 9 104418343.906 7  81364953.021 9  19870160.81649
  23958748.016 3  23958768.305 8 125904070.583 3  98106873.944 8  23958767.38345
  23355478.867 5  23355499.973 9 122733863.834 5  95636606.273 9  23355499.02047
 23  3 10  3  4 14.0000000  0  8G04G08G09G16G26G27G28G31            
  21250638.992 6  21250648.656 9 111672849.425 6  87017841.439 9  21250648.47748
  20869113.680 6  20869127.660 9 109667934.294 6  85455718.366 9  20869126.74249
  23335807.758 5  23335821.469 8 122630483.751 5  95556286.740 8  23335821.36348
  21284844.727 5                 111852606.261 5  87157902.96747  21284851.68447
  22732768.164 6  22732784.527 9 119461501.656 6  93086709.588 9  22732783.75847
  19870249.602 7  19870259.801 9 104418861.398 7  81365356.260 9  19870259.03149
  23959309.711 2  23959330.254 8 125907024.118 2  98109175.405 8  23959329.35945
  23355963.281 6  23355983.891 8 122736407.644 6  95638588.466 8  23355983.08247
 23  3 10  3  4 15.0000000  0  8G04G08G09G16G26G27G28G31            
  21250632.203 6  21250641.477 9 111672811.729 6  87017812.074 9  21250641.24248
  20868801.883 6  20868815.945 9 109666296.624 6  85454442.266 9  20868815.14849
  23335481.570 5  23335494.902 9 122628768.556 5  95554950.225 9  23335494.93448
  21285135.227 5                 111854131.444 5  87159091.42947  21285141.86347
  22733186.758 6  22733202.941 9 119463698.279 6  93088421.242 9  22733201.89147
  19870348.492 7  19870358.289 9 104419379.580 7  81365760.037 9  19870357.60549
  23959871.367 2  23959891.961 8 125909977.943 2  98111477.070 8  23959891.33245
  23356447.234 6  23356467.965 8 122738951.781 6  95640570.915 8  23356467.08647
 23  3 10  3  4 16.0000000  0  8G04G08G09G16G26G27G28G31            
  21250624.461 6  21250634.605 9 111672774.799 6  87017783.282 9  21250634.41448
  20868490.453 6  20868504.336 9 109664659.640 6  85453166.688 9  20868503.60549
  23335155.375 5  23335168.730 9 122627054.009 5  95553614.212 9  23335168.65248
  21285425.477 5                 111855656.851 5  87160280.06347  21285432.10947
  22733603.727 6  22733620.789 9 119465894.994 6  93090132.962 9  22733620.00847
  19870447.352 7  19870457.227 9 104419898.553 7  81366164.427 9  19870456.37149
  23960434.266 3  23960454.492 8 125912932.208 3  98113779.111 8  23960453.62545
  23356930.859 6  23356952.113 8 122741496.299 6  95642553.651 8  23356951.21547
 23  3 10  3  4 17.0000000  0  8G04G08G09G16G26G27G28G31            
  21250617.758 6  21250627.570 9 111672738.884 6  87017755.294 9  21250627.50848
  20868179.203 6  20868192.816 9 109663023.550 6  85451891.816 9  20868192.29749
  23334828.977 5  23334842.652 8 122625340.307 5  95552278.861 8  23334842.54748
  21285715.711 5                 111857182.794 5  87161469.09147  21285722.50447
  22734022.320 6  22734038.832 9 119468092.022 6  93091844.923 9  22734038.12147
  19870546.297 7  19870556.195 9 104420418.558 7  81366569.625 9  19870555.30149
  23960997.164 3  23961016.848 8 125915887.076 3  98116081.601 8  23961015.99245
  23357415.617 6  23357436.531 8 122744041.437 6  95644536.871 8  23357435.52347
 23  3 10  3  4 18.0000000  0  8G04G08G09G16G26G27G28G31            
  21250611.117 6  21250620.902 9 111672703.722 6  87017727.882 9  21250620.86748
  20867867.984 6  20867881.871 9 109661388.152 6  85450617.482 9  20867881.05549
  23334502.758 5  23334516.789 8 122623627.254 5  95550944.015 8  23334516.44548
  21286006.055 5                 111858708.933 5  87162658.28547  21286012.94947
  22734440.828 6  22734456.930 8 119470289.227 6  93093557.021 8  22734456.27747
  19870645.414 7  19870655.516 9 104420939.369 7  81366975.450 9  19870654.32849
  23961559.203 3  23961579.270 8 125918842.354 3  98118384.427 8  23961578.31645
  23357900.266 6  23357920.953 8 122746586.990 6  95646520.421 8  23357919.91047
 23  3 10  3  4 19.0000000  0  8G04G08G09G16G26G27G28G31            
  21250604.367 6  21250614.402 9 111672669.237 6  87017701.005 9  21250614.47348
  20867557.148 6  20867570.270 9 109659753.270 6  85449343.551 9  20867569.81649
  23334176.859 5  23334190.848 8 122621914.726 5  95549609.578 8  23334190.61348
  21286296.492 5                 111860235.234 5  87163847.61947  21286303.35947
  22734858.516 6  22734875.156 9 119472486.408 6  93095269.103 9  22734874.37947
  19870744.227 7  19870754.309 9 104421460.865 7  81367381.813 9  19870753.77349
  23962121.469 3  23962141.859 8 125921797.953 3  98120687.486 8  23962140.72745
  23358384.492 6  23358405.406 8 122749132.867 6  95648504.218 8  23358404.14847
 23  3 10  3  4 20.0000000  0  8G04G08G09G16G26G27G28G31            
  21250597.891 6  21250608.266 9 111672635.483 6  87017674.702 9  21250608.02048
  20867246.555 6  20867259.477 9 109658119.042 6  85448070.126 9  20867258.98449
  23333851.234 5  23333864.891 8 122620202.745 5  95548275.569 8  23333864.85248
  21286587.117 5                 111861761.750 5  87165037.08747  21286593.92647
  22735276.805 6  22735293.164 9 119474683.638 6  93096981.220 9  22735292.56647
  19870843.672 7  19870853.660 9 104421983.121 7  81367788.765 9  19870853.01649
  23962684.492 3  23962704.473 8 125924753.894 3  98122990.812 8  23962703.37145
  23358869.297 6  23358889.871 8 122751679.072 6  95650488.269 8  23358888.69147
 23  3 10  3  4 21.0000000  0  8G04G08G09G16G26G27G28G31            
  21250592.219 6  21250602.211 9 111672602.548 6  87017649.031 9  21250601.64548
  20866935.352 6  20866948.551 9 109656485.530 6  85446797.267 9  20866948.03949
  23333525.711 5  23333539.316 9 122618491.473 5  95546942.116 9  23333539.27748
  21286877.977 5                 111863288.565 5  87166226.81547  21286884.53947
  22735694.984 6  22735711.719 9 119476881.040 6  93098693.469 9  22735710.96947
  19870943.078 7  19870953.297 9 104422506.220 7  81368196.371 9  19870952.72349
  23963246.500 3  23963266.891 8 125927710.240 3  98125294.466 8  23963265.98445
  23359353.852 6  23359374.246 8 122754225.730 6  95652472.674 8  23359373.14847
 23  3 10  3  4 22.0000000  0  8G04G08G09G16G26G27G28G31            
  21250585.477 6  21250595.813 9 111672570.410 6  87017623.987 9  21250595.41048
  20866624.406 6  20866637.738 9 109654852.732 6  85445524.959 9  20866637.32049
  23333199.258 5  23333213.730 9 122616780.860 5  95545609.166 9  23333213.53948
  21287168.305 5                 111864815.619 5  87167416.73147  21287175.09847
  22736113.563 6  22736129.977 9 119479078.590 6  93100405.836 9  22736129.12147
  19871042.727 7  19871053.121 9 104423030.131 7  81368604.618 9  19871052.34449
  23963809.250 4  23963829.676 8 125930667.109 4  98127598.530 8  23963828.78145
  23359838.805 6  23359858.902 8 122756772.826 6  95654457.434 8  23359857.73847
 23  3 10  3  4 23.0000000  0  8G04G08G09G16G26G27G28G31            
  21250579.914 6  21250589.684 9 111672539.018 6  87017599.518 9  21250589.55948
  20866313.805 6  20866327.059 9 109653220.614 6  85444253.173 9  20866326.35549
  23332874.414 5  23332888.230 9 122615070.801 5  95544276.646 9  23332888.23048
  21287458.820 5                 111866342.926 5  87168606.84147  21287465.86747
  22736531.625 6  22736547.871 9 119481276.193 6  93102118.241 9  22736547.28547
  19871142.781 7  19871152.766 9 104423554.822 7  81369013.468 9  19871152.23849
  23964371.422 3  23964392.402 8 125933624.292 3  98129902.818 8  23964391.37545
  23360323.039 6  23360344.105 9 122759320.287 6  95656442.465 9  23360342.57447
 23  3 10  3  4 24.0000000  0  8G04G08G09G16G26G27G28G31            
  21250574.125 6  21250583.816 9 111672508.327 6  87017575.605 9  21250583.90648
  20866003.320 6  20866016.660 9 109651589.055 6  85442981.827 9  20866015.96949
  23332549.203 5  23332562.973 9 122613361.354 5  95542944.611 9  23332562.95748
  21287749.656 5                 111867870.406 5  87169797.07647  21287756.54347
  22736949.984 6  22736966.277 9 119483473.875 6  93103830.716 9  22736965.64847
  19871242.586 7  19871252.734 9 104424080.268 7  81369422.908 9  19871252.19949
  23964934.492 4  23964955.477 8 125936581.813 4  98132207.383 8  23964954.25045
  23360808.266 6  23360828.902 9 122761868.097 6  95658427.768 9  23360827.62947
 23  3 10  3  4 25.0000000  0  8G04G08G09G16G26G27G28G31            
  21250568.430 6  21250578.395 9 111672478.446 6  87017552.320 9  21250578.21548
  20865692.805 6  20865706.320 9 109649958.239 6  85441711.061 9  20865705.57449
  23332223.750 5  23332237.789 9 122611652.547 5  95541613.069 9  23332237.85948
  21288040.680 5                 111869398.131 5  87170987.51547  21288047.19547
  22737367.766 6  22737384.496 9 119485671.670 6  93105543.275 9  22737383.80947
  19871342.789 7  19871352.988 9 104424606.510 7  81369832.959 9  19871352.32849
  23965497.141 3  23965518.609 8 125939539.779 3  98134512.296 8  23965517.12545
  23361292.477 6  23361313.703 9 122764416.329 6  95660413.405 9  23361312.53147
 23  3 10  3  4 26.0000000  0  8G04G08G09G16G26G27G28G31            
  21250562.969 6  21250572.648 9 111672449.297 6  87017529.601 9  21250572.84048
  20865382.969 6  20865396.008 9 109648328.064 6  85440440.795 9  20865395.39549
  23331898.672 5  23331912.973 9 122609944.324 5  95540281.984 9  23331912.73048
  21288331.313 5                 111870926.100 5  87172178.13747  21288337.99247
  22737786.219 6  22737802.621 9 119487869.545 6  93107255.894 9  22737802.09847
  19871443.031 7  19871453.461 9 104425133.558 7  81370243.643 9  19871452.68449
  23966060.086 3  23966081.508 8 125942498.139 3  98136817.511 8  23966080.02045
  23361777.539 6  23361798.684 9 122766964.928 6  95662399.327 9  23361797.65247
 23  3 10  3  4 27.0000000  0  8G04G08G09G16G26G27G28G31            
  21250557.594 6  21250567.266 9 111672420.816 6  87017507.410 9  21250567.41448
  20865072.508 6  20865086.059 9 109646698.456 6  85439170.976 9  20865085.30949
  23331573.430 4  23331587.805 9 122608236.650 4  95538951.333 9  23331587.97748
  21288621.844 5                 111872454.205 5  87173368.87247  21288628.82047
  22738204.539 6  22738220.980 9 119490067.439 6  93108968.525 9  22738220.23047
  19871543.719 7  19871553.766 9 104425661.274 7  81370654.854 9  19871553.12149
  23966622.477 4  23966644.527 8 125945456.777 4  98139122.942 8  23966642.97745
  23362263.328 6  23362283.852 9 122769513.837 6  95664385.493 9  23362282.80947
 23  3 10  3  4 28.0000000  0  8G04G08G09G16G26G27G28G31            
  21250552.625 6  21250562.066 9 111672393.261 6  87017485.935 9  21250562.09048
  20864762.477 6  20864776.469 9 109645069.652 6  85437901.774 9  20864775.34849
  23331249.328 5  23331263.090 9 122606529.711 5  95537621.247 9  23331263.14548
  21288912.766 5                 111873982.703 5  87174559.90447  21288919.84447
  22738623.117 6  22738639.316 9 119492265.598 6  93110681.362 9  22738638.31347
  19871644.359 7  19871654.141 9 104426189.924 7  81371066.784 9  19871653.69149
  23967186.570 4  23967207.648 8 125948415.944 4  98141428.795 8  23967205.87545
  23362748.742 6  23362769.172 9 122772063.291 6  95666372.078 9  23362768.14847
 23  3 10  3  4 29.0000000  0  8G04G08G09G16G26G27G28G31            
  21250547.281 6  21250556.879 9 111672366.524 6  87017465.100 9  21250556.95348
  20864452.703 6  20864466.457 9 109643441.572 6  85436633.141 9  20864465.44549
  23330924.367 4  23330938.527 9 122604823.471 4  95536291.708 9  23330938.59848
  21289204.500 5                 111875511.493 5  87175751.17747  21289210.60547
  22739041.141 6  22739057.449 9 119494463.890 6  93112394.313 9  22739056.62547
  19871745.000 7  19871755.105 9 104426719.437 7  81371479.396 9  19871754.57849
  23967749.555 4  23967771.043 8 125951375.638 4  98143735.057 8  23967769.10945
  23363233.656 6  23363254.445 9 122774613.202 6  95668359.027 9  23363253.24647
 23  3 10  3  4 30.0000000  0  8G04G08G09G16G26G27G28G31            
  21250542.664 6  21250552.117 9 111672340.542 6  87017444.848 9  21250551.97348
  20864143.188 6  20864156.746 9 109641814.147 6  85435365.020 9  20864155.75849
  23330600.258 4  23330614.059 8 122603117.845 4  95534962.643 8  23330613.98048
  21289495.188 5                 111877040.507 5  87176942.61147  21289501.57047
  22739459.234 6  22739475.719 9 119496662.301 6  93114107.350 9  22739475.05547
  19871845.844 7  19871856.016 9 104427249.738 7  81371892.612 9  19871855.38749
  23968312.813 3  23968334.195 8 125954335.599 3  98146041.536 8  23968332.39545
  23363719.016 6  23363739.914 8 122777163.482 6  95670346.253 8  23363738.67647
 23  3 10  3  4 31.0000000  0  8G04G08G09G16G26G27G28G31            
  21250537.727 6  21250547.355 9 111672315.273 6  87017425.153 9  21250547.24648
  20863833.461 6  20863847.453 9 109640187.363 6  85434097.398 9  20863846.25049
  23330275.789 4  23330289.359 8 122601412.799 4  95533634.036 8  23330289.27748
  21289785.570 5                 111878569.759 5  87178134.23347  21289792.59047
  22739877.867 6  22739894.070 9 119498860.754 6  93115820.423 9  22739893.50047
  19871947.039 7  19871957.078 9 104427780.772 7  81372306.403 9  19871956.44549
  23968876.078 3  23968897.469 8 125957295.979 3  98148348.334 8  23968895.76645
  23364203.719 6  23364225.129 8 122779714.135 6  95672333.771 8  23364224.03147
 23  3 10  3  4 32.0000000  0  8G04G08G09G16G26G27G28G31            
  21250532.930 6  21250542.660 9 111672290.773 6  87017406.062 9  21250542.47748
  20863524.422 6  20863537.789 9 109638561.234 6  85432830.276 9  20863536.73849
  23329951.492 5  23329964.961 9 122599708.380 5  95532305.917 9  23329964.90648
  21290076.523 5                 111880099.175 5  87179325.99047  21290083.87947
  22740296.125 6  22740312.559 9 119501059.319 6  93117533.576 9  22740311.95347
  19872048.406 7  19872058.410 9 104428312.597 7  81372720.813 9  19872057.71549
  23969439.547 4  23969461.270 8 125960256.741 4  98150655.434 8  23969459.23845
  23364689.594 6  23364710.465 8 122782265.172 6  95674321.598 8  23364709.59447
 23  3 10  3  4 33.0000000  0  8G04G08G09G16G26G27G28G31            
  21250528.359 6  21250538.117 9 111672267.055 6  87017387.574 9  21250537.94548
  20863214.422 6  20863228.652 9 109636935.791 6  85431563.699 9  20863227.42649
  23329627.867 5  23329641.332 9 122598004.535 5  95530978.248 9  23329640.96548
  21290367.773 5                 111881628.888 5  87180517.96847  21290374.97747
  22740714.727 6  22740730.957 9 119503257.991 6  93119246.815 9  22740730.49247
  19872149.484 7  19872159.711 9 104428845.215 7  81373135.833 9  19872159.10249
  23970003.336 4  23970024.965 8 125963217.962 4  98152962.896 8  23970022.79345
  23365174.953 6  23365196.113 9 122784816.581 6  95676309.709 9  23365195.09847
 23  3 10  3  4 34.0000000  0  8G04G08G09G16G26G27G28G31            
  21250524.039 6  21250533.840 9 111672244.178 6  87017369.742 9  21250533.63748
  20862905.641 6  20862919.402 9 109635311.086 6  85430297.701 9  20862918.27749
  23329302.742 5  23329317.109 9 122596301.470 5  95529651.185 9  23329316.86348
  21290659.633 5                 111883158.915 5  87181710.19447  21290666.23047
  22741133.211 6  22741149.285 9 119505456.840 6  93120960.202 9  22741149.19547
  19872251.180 7  19872261.031 9 104429378.721 7  81373551.559 9  19872260.67649
  23970566.773 4  23970588.355 8 125966179.621 4  98155270.688 8  23970586.30945
  23365661.070 6  23365681.551 9 122787368.507 6  95678298.223 9  23365680.69147
