     2.11           OBSERVATION DATA    Mixed(MIXED)        RINEX VERSION / TYPE
cnvtToRINEX 3.08.0  convertToRINEX OPR  10-Mar-23 03:43 UTC PGM / RUN BY / DATE 
----------------------------------------------------------- COMMENT             
CC02                                                        MARKER NAME         
CC02                                                        MARKER NUMBER       
GNSS Observer       Trimble                                 OBSERVER / AGENCY   
5313431884          R4-3                4.93                REC # / TYPE / VERS 
                    TRMR4-3         NONE                    ANT # / TYPE        
 -2956817.7205  5075778.9404  2476612.6469                  APPROX POSITION XYZ 
        1.8250        0.0000        0.0000                  ANTENNA: DELTA H/E/N
     1     1     0                                          WAVELENGTH FACT L1/2
     5    C1    C2    L1    L2    P2                        # / TYPES OF OBSERV 
  2023     3    10     2    55   25.0000000     GPS         TIME OF FIRST OBS   
  2023     3    10     3    28   25.0000000     GPS         TIME OF LAST OBS    
     0                                                      RCV CLOCK OFFS APPL 
    18                                                      LEAP SECONDS        
     8                                                      # OF SATELLITES     
   G04   397   397   397   794   397                        PRN / # OF OBS      
   G08   397   397   397   794   397                        PRN / # OF OBS      
   G09   299   247   267   493   246                        PRN / # OF OBS      
   G16   397     0   397   397   397                        PRN / # OF OBS      
   G26   208   164   184   203    39                        PRN / # OF OBS      
   G27   397   397   397   794   397                        PRN / # OF OBS      
   G28   185   169   175   315   146                        PRN / # OF OBS      
   G31   397   396   396   792   396                        PRN / # OF OBS      
CARRIER PHASE MEASUREMENTS: PHASE SHIFTS REMOVED            COMMENT             
                                                            END OF HEADER       
 23  3 10  2 55 25.0000000  0  7G04G08G16G26G27G28G31               
  21180844.961 6  21180855.020 9 111306087.739 6  86732049.979 9  21180854.37947
  20957342.695 6  20957355.977 9 110131578.690 6  85816834.451 9  20957354.77349
  21043741.367 6                 110585602.110 6  86170623.84747  21043747.77347
  22419868.484 1  22419883.707 8 117817195.86911  91805622.98318  22419881.46545
  19745001.391 6  19745011.117 9 103760680.659 6  80852515.728 9  19745010.55549
  23577790.359 4  23577813.676 9 123902132.460 4  96547144.979 9  23577812.87946
  23015597.180 3  23015619.270 8 120947759.731 3  94245084.737 8  23015617.66846
 23  3 10  2 55 30.0000000  0  7G04G08G16G26G27G28G31               
  21179451.563 6  21179461.102 9 111298763.146 6  86726342.479 9  21179460.40647
  20954480.852 6  20954494.844 9 110116539.428 6  85805115.541 9  20954493.03149
  21044089.711 6                 110587431.588 6  86172049.39447  21044096.16847
  22420927.719 1                                                
  19744118.313 6  19744127.809 9 103756038.642 6  80848898.571 9  19744127.24249
  23579423.586 5  23579446.449 9 123910712.094 5  96553830.452 9  23579445.78547
  23016843.984 3  23016864.570 8 120954306.701 3  94250186.210 8  23016863.29746
 23  3 10  2 55 35.0000000  0  7G04G08G16G26G27G28G31               
  21178062.320 6  21178071.727 9 111291461.455 6  86720652.851 9  21178071.31647
  20951622.625 6  20951636.949 9 110101519.931 6  85793412.055 9  20951635.14149
  21044439.680 6                 110589271.608 6  86173483.15147  21044446.39547
  22421990.211 1                                                
  19743239.555 7  19743249.340 9 103751420.719 7  80845300.178 9  19743248.68849
  23581058.555 5  23581081.543 9 123919305.925 5  96560526.938 9  23581081.04746
  23018092.047 3  23018111.762 8 120960867.462 3  94255298.405 8  23018110.84445
 23  3 10  2 55 40.0000000  0  6G04G08G16G27G28G31                  
  21176677.234 6  21176686.293 9 111284182.952 6  86714981.277 9  21176685.87947
  20948769.031 6  20948782.445 9 110086520.581 6  85781724.273 9  20948780.93449
  21044791.781 6                 110591122.598 6  86174925.45547  21044798.70347
  19742365.547 7  19742375.145 9 103746827.173 7  80841720.787 9  19742374.52049
  23582696.789 4  23582719.953 9 123927914.206 4  96567234.723 9  23582719.18846
  23019343.352 4  23019362.949 8 120967442.465 4  94260421.790 8  23019361.75446
 23  3 10  2 55 45.0000000  0  7G04G08G09G16G27G28G31               
  21175296.133 6  21175305.988 9 111276927.046 6  86709327.323 9  21175305.53147
  20945918.063 6  20945931.449 9 110071540.983 6  85770051.864 9  20945930.12949
  23419228.563 1                 123068835.11411                
  21045146.359 6                 110592983.876 6  86176375.79147  21045152.57047
  19741495.891 7  19741505.949 9 103742257.380 7  80838159.891 9  19741505.05949
  23584337.641 5  23584360.859 9 123936536.308 5  96573953.270 9  23584360.31347
  23020596.289 4  23020616.762 8 120974031.098 4  94265555.689 8  23020615.54746
 23  3 10  2 55 50.0000000  0  7G04G08G09G16G27G28G31               
  21173921.094 6  21173929.887 9 111269694.872 6  86703691.849 9  21173929.53547
  20943071.336 6  20943084.797 9 110056582.357 6  85758395.785 9  20943083.17249
  23416333.281 1                 123053622.753 1  95885987.32355  23416337.94545
  21045502.203 6                 110594856.619 6  86177835.03748  21045508.83648
  19740631.195 7  19740640.906 9 103737712.517 7  80834618.439 9  19740640.12549
  23585981.219 5  23586004.023 9 123945173.472 5  96580683.532 9  23586003.57847
  23021852.695 3  23021873.418 8 120980634.406 3  94270701.113 8  23021871.93046
 23  3 10  2 55 55.0000000  0  7G04G08G09G16G27G28G31               
  21172548.086 6  21172557.594 9 111262484.190 6  86698073.129 9  21172557.13347
  20940228.648 6  20940242.469 9 110041642.151 6  85746754.072 9  20940240.86349
  23413440.648 1                 123038427.599 1  95874147.06545  23413447.65245
  21045860.602 6                 110596738.498 6  86179301.42248  21045866.79748
  19739770.141 7  19739780.102 9 103733190.267 7  80831094.596 9  19739779.35949
  23587627.266 5  23587650.105 9 123953823.382 5  96587423.724 9  23587649.27047
  23023112.484 4  23023131.957 7 120987250.201 4  94275856.221 7  23023130.58646
 23  3 10  2 56  0.0000000  0  7G04G08G09G16G27G28G31               
  21171180.125 6  21171189.227 9 111255294.514 6  86692470.757 9  21171189.27748
  20937388.836 6  20937402.453 9 110026719.930 6  85735126.373 9  20937400.85549
  23410552.547 1  23410575.004 7 123023249.015 1  95862398.60417  23410561.82046
  21046220.586 6                 110598629.021 6  86180774.53347  21046227.02047
  19738914.180 7  19738923.914 9 103728690.157 7  80827588.006 9  19738923.22349
  23589275.227 5  23589298.059 9 123962485.493 5  96594173.433 9  23589297.52046
  23024373.539 5  23024393.613 7 120993877.943 5  94281020.666 7  23024391.68845
 23  3 10  2 56  5.0000000  0  7G04G08G09G16G27G28G31               
  21169815.688 6  21169825.055 9 111248125.690 6  86686884.641 9  21169824.69547
  20934552.656 6  20934566.523 9 110011815.620 6  85723512.630 9  20934565.26649
  23407668.633 1  23407688.789 7 123008087.059 1  95850584.043 7  23407678.84845
  21046581.930 6                 110600528.073 6  86182254.28548  21046587.95348
  19738061.539 7  19738071.324 9 103724212.059 7  80824098.574 9  19738070.35949
  23590926.125 5  23590948.777 9 123971159.679 5  96600932.559 9  23590947.74647
  23025635.977 4  23025656.723 8 121000517.620 4  94286194.421 8  23025654.98846
 23  3 10  2 56 10.0000000  0  7G04G08G09G16G27G28G31               
  21168455.898 6  21168465.230 9 111240978.646 6  86681315.506 9  21168464.49647
  20931719.945 6  20931733.777 9 109996930.347 6  85711913.720 9  20931732.46949
  23404783.234 1  23404806.258 7 122992942.504 1  95838783.000 7  23404799.20346
  21046944.977 6                 110602436.551 6  86183741.39648  21046951.13348
  19737214.016 7  19737223.629 9 103719756.906 7  80820627.017 9  19737222.57849
  23592579.680 5  23592602.066 9 123979846.928 5  96607701.866 9  23592601.18847
  23026902.602 3  23026923.586 8 121007170.045 3  94291378.097 8  23026921.52046
 23  3 10  2 56 15.0000000  0  7G04G08G09G16G27G28G31               
  21167099.961 6  21167109.461 9 111233853.312 6  86675763.275 9  21167108.84448
  20928891.320 6  20928905.137 9 109982063.841 6  85700329.457 9  20928903.88749
  23401904.289 1  23401925.625 7 122977815.240 1  95826995.479 7  23401920.13345
  21047309.664 6                 110604354.340 6  86185235.75748  21047316.09848
  19736370.633 7  19736380.227 9 103715324.593 7  80817173.261 9  19736379.21149
  23594236.195 5  23594257.176 9 123988547.097 5  96614481.229 9  23594256.50847
  23028170.258 3  23028191.559 8 121013835.114 3  94296571.624 8  23028189.80146
 23  3 10  2 56 20.0000000  0  7G04G08G09G16G27G28G31               
  21165748.594 6  21165757.660 9 111226750.881 6  86670228.904 9  21165756.91447
  20926065.828 6  20926079.766 9 109967217.332 6  85688760.752 9  20926078.21149
  23399028.813 1  23399052.598 7 122962706.579 1  95815222.401 7  23399043.67645
  21047676.680 6                 110606282.702 6  86186738.35848  21047683.41848
  19735531.484 7  19735541.156 9 103710916.329 7  80813738.242 9  19735540.31649
  23595894.172 5  23595915.508 9 123997261.418 5  96621271.625 9  23595914.69947
  23029442.031 4  23029461.762 8 121020514.085 4  94301775.980 8  23029461.02346
 23  3 10  2 56 25.0000000  0  7G04G08G09G16G27G28G31               
  21164401.258 6  21164410.230 9 111219670.161 6  86664711.445 9  21164409.77348
  20923244.195 6  20923258.027 9 109952389.600 6  85677206.680 9  20923256.39149
  23396158.891 1  23396189.250 6 122947615.303 1  95803462.754 6  23396169.24245
  21048045.477 6                 110608220.401 6  86188248.23948  21048051.55148
  19734697.266 7  19734706.840 9 103706530.907 7  80810321.021 9  19734706.11349
  23597554.977 6  23597576.434 9 124005988.659 6  96628072.083 9  23597575.65647
  23030715.906 4  23030735.996 8 121027205.766 4  94306990.252 8  23030734.60946
 23  3 10  2 56 30.0000000  0  7G04G08G09G16G27G28G31               
  21163057.922 6  21163067.066 9 111212610.676 6  86659210.527 9  21163066.69947
  20920426.164 6  20920440.371 9 109937580.054 6  85665666.787 9  20920438.77049
  23393289.664 1  23393327.285 6 122932540.937 1  95791716.270 6  23393299.13745
  21048415.781 6                 110610166.938 6  86189764.98348  21048422.18848
  19733866.828 7  19733876.906 9 103702167.814 7  80806921.198 9  19733875.81349
  23599218.250 6  23599238.910 9 124014728.350 6  96634882.242 9  23599238.33247
  23031990.961 4  23032011.832 7 121033909.596 4  94312213.983 7  23032010.57846
 23  3 10  2 56 35.0000000  0  7G04G08G09G16G27G28G31               
  21161718.664 6  21161728.008 9 111205572.446 6  86653726.173 9  21161727.79347
  20917611.750 6  20917625.461 9 109922788.940 6  85654141.250 9  20917623.87149
  23390426.992 1  23390461.348 7 122917483.564 1  95779983.070 7  23390434.07445
  21048788.242 6                 110612122.368 6  86191288.67748  21048794.78548
  19733040.836 7  19733050.609 9 103697827.142 7  80803538.847 9  19733049.68049
  23600883.844 6  23600904.211 9 124023480.542 6  96641702.165 9  23600903.61347
  23033269.758 4  23033289.305 7 121040625.675 4  94317447.268 7  23033288.31346
 23  3 10  2 56 40.0000000  0  7G04G08G09G16G27G28G31               
  21160383.664 6  21160391.711 9 111198555.659 6  86648258.543 9  21160391.61747
  20914801.039 6  20914813.926 9 109908016.528 6  85642630.279 9  20914812.32049
  23387562.914 1  23387596.184 7 122902443.261 1  95768263.287 7  23387573.19145
  21049162.000 6                 110614086.807 6  86192819.39648  21049168.74648
  19732219.195 7  19732229.230 9 103693508.984 7  80800174.042 9  19732228.15649
  23602551.609 6  23602572.395 9 124032245.355 6  96648531.912 9  23602571.59047
  23034549.484 4  23034570.285 7 121047354.182 4  94322690.207 7  23034568.96146
 23  3 10  2 56 45.0000000  0  7G04G08G09G16G27G28G31               
  21159051.203 6  21159061.070 9 111191560.322 6  86642807.625 9  21159061.02347
  20911993.297 6  20912006.492 9 109893262.646 6  85631133.756 9  20912005.08649
  23384705.758 1  23384732.641 6 122887420.039 1  95756556.838 6  23384715.97745
  21049537.711 6                 110616060.335 6  86194357.17348  21049544.54348
  19731401.445 7  19731411.820 9 103689213.410 7  80796826.828 9  19731410.81649
  23604222.273 6  23604242.680 9 124041022.776 6  96655371.467 9  23604242.20747
  23035832.875 4  23035853.059 7 121054095.021 4  94327942.803 7  23035851.51646
 23  3 10  2 56 50.0000000  0  7G04G08G09G16G27G28G31               
  21157724.453 6  21157733.754 9 111184585.970 6  86637373.042 9  21157733.22748
  20909189.172 6  20909202.691 9 109878526.824 6  85619651.299 9  20909201.33249
  23381849.242 1  23381875.824 7 122872413.602 1  95744863.494 7  23381861.73845
  21049914.531 6                 110618042.470 6  86195901.68548  21049921.55948
  19730588.375 7  19730598.570 9 103684939.977 7  80793496.874 9  19730597.28549
  23605894.633 6  23605915.492 9 124049812.471 6  96662220.604 9  23605914.70347
  23037117.383 4  23037138.703 8 121060847.946 4  94333204.792 8  23037137.08246
 23  3 10  2 56 55.0000000  0  7G04G08G09G16G27G28G31               
  21156401.570 6  21156410.738 9 111177633.160 6  86631955.264 9  21156410.42647
  20906388.578 6  20906401.570 9 109863809.621 6  85608183.341 9  20906400.27349
  23378995.711 1  23379022.059 7 122857424.413 1  95733183.579 7  23379011.53945
  21050293.703 6                 110620033.678 6  86197453.24347  21050301.19547
  19729779.766 7  19729789.773 9 103680689.122 7  80790184.522 9  19729788.91049
  23607570.086 6  23607590.246 8 124058614.828 6  96669079.590 8  23607589.55547
  23038405.828 4  23038425.965 8 121067613.236 4  94338476.422 8  23038424.80146
 23  3 10  2 57  0.0000000  0  6G04G08G16G27G28G31                  
  21155082.250 6  21155091.500 9 111170700.960 6  86626553.527 9  21155091.12147
  20903591.148 6  20903604.367 9 109849110.083 6  85596729.182 9  20903603.14849
  21050673.992 6                 110622033.038 6  86199011.18847  21050681.41047
  19728974.992 7  19728984.910 9 103676459.970 7  80786889.061 9  19728984.09849
  23609247.266 6  23609267.598 9 124067429.010 6  96675947.812 9  23609266.84847
  23039695.492 4  23039716.152 8 121074390.115 4  94343757.062 8  23039715.22346
 23  3 10  2 57  5.0000000  0  6G04G08G16G27G28G31                  
  21153767.375 6  21153777.035 9 111163790.711 6  86621168.914 9  21153776.08248
  20900797.750 6  20900810.930 9 109834429.769 6  85585289.982 9  20900809.75449
  21051056.664 6                 110624041.927 6  86200576.53048  21051064.06648
  19728174.945 7  19728184.551 9 103672253.905 7  80783611.612 9  19728183.66849
  23610926.750 6  23610947.031 9 124076256.311 6  96682826.232 9  23610946.73847
  23040987.313 5  23041008.477 8 121081179.958 5  94349047.840 8  23041007.55946
 23  3 10  2 57 10.0000000  0  6G04G08G16G27G28G31                  
  21152456.352 6  21152466.293 9 111156901.322 6  86615800.534 9  21152465.60247
  20898007.977 6  20898020.918 9 109819767.356 6  85573864.724 9  20898019.47349
  21051440.328 6                 110626059.168 6  86202148.40048  21051447.70748
  19727378.359 7  19727388.609 9 103668069.731 7  80780351.213 9  19727388.00449
  23612608.078 6  23612628.727 8 124085095.635 6  96689714.061 8  23612628.33247
  23042281.422 5  23042303.203 8 121087981.537 5  94354347.747 8  23042302.28946
 23  3 10  2 57 15.0000000  0  7G04G08G09G16G27G28G31               
  21151149.016 6  21151158.508 9 111150031.186 6  86610447.168 9  21151157.52047
  20895220.969 6  20895234.102 9 109805121.419 6  85562452.325 9  20895232.46949
  23367620.625 1                 122797626.21411                
  21051825.219 6                 110628083.249 6  86203725.58348  21051832.93448
  19726585.844 7  19726595.895 9 103663905.934 7  80777106.681 9  19726595.41849
  23614292.617 6  23614313.191 8 124093945.418 6  96696610.005 8  23614312.96547
  23043578.180 5  23043598.863 8 121094793.336 5  94359655.650 8  23043598.14846
 23  3 10  2 57 20.0000000  0  7G04G08G09G16G27G28G31               
  21149845.391 6  21149855.414 9 111143181.674 6  86605109.851 9  21149854.39147
  20892437.070 6  20892450.188 9 109790493.198 6  85551053.702 9  20892448.93849
  23364782.070 2                 122782718.927 2                
  21052212.156 6                 110630115.437 6  86205309.09947  21052219.67647
  19725797.898 7  19725807.672 9 103659763.817 7  80773879.062 9  19725807.16449
  23615978.359 6  23615999.590 8 124102806.985 6  96703515.141 8  23615999.25847
  23044876.516 5  23044897.820 8 121101616.743 5  94364972.552 8  23044896.98846
 23  3 10  2 57 25.0000000  0  7G04G08G09G16G27G28G31               
  21148546.531 6  21148556.309 9 111136353.648 6  86599789.312 9  21148555.49247
  20889656.727 6  20889670.051 9 109775883.604 6  85539669.601 9  20889668.95749
  23361948.469 2  23361983.004 7 122767828.842 2  95663412.32017  23361976.35546
  21052600.875 6                 110632156.624 6  86206899.61748  21052608.18048
  19725013.844 7  19725023.926 9 103655644.255 7  80770669.006 9  19725023.17649
  23617666.484 6  23617687.695 8 124111681.146 6  96710430.103 8  23617687.97347
  23046178.023 5  23046198.867 8 121108452.512 5  94370299.131 8  23046198.26646
 23  3 10  2 57 30.0000000  0  7G04G08G09G16G27G28G31               
  21147250.938 6  21147260.324 9 111129546.015 6  86594484.643 9  21147259.32847
  20886879.266 6  20886893.289 9 109761291.556 6  85528299.171 9  20886891.85249
  23359118.180 1  23359152.207 7 122752954.982 1  95651822.171 7  23359145.44545
  21052990.531 6                 110634205.753 6  86208496.31848  21052998.06348
  19724234.211 7  19724244.160 9 103651546.189 7  80767475.685 9  19724243.62149
  23619357.742 6  23619378.547 8 124120566.913 6  96717354.117 8  23619378.62146
  23047480.578 5  23047501.879 8 121115299.716 5  94375634.585 8  23047501.41047
 23  3 10  2 57 35.0000000  0  7G04G08G09G16G27G28G31               
  21145959.406 6  21145969.152 9 111122759.430 6  86589196.380 9  21145968.01648
  20884106.641 6  20884119.934 9 109746717.695 6  85516942.920 9  20884118.37149
  23356289.750 1                                                
  21053382.258 6                 110636263.429 6  86210099.67548  21053389.73048
  19723458.445 7  19723468.285 9 103647470.221 7  80764299.603 9  19723467.49249
  23621050.508 5  23621071.898 8 124129464.888 5  96724287.636 8  23621071.93046
  23048785.180 5  23048806.813 8 121122158.861 5  94380979.337 8  23048806.57047
 23  3 10  2 57 40.0000000  0  6G04G08G16G27G28G31                  
  21144671.609 6  21144681.840 9 111115992.500 6  86583923.435 9  21144680.92648
  20881336.500 6  20881349.566 9 109732160.598 6  85505599.736 9  20881348.50449
  21053774.938 6                 110638328.249 6  86211708.60448  21053782.27048
  19722686.617 7  19722696.379 9 103643414.954 7  80761139.649 9  19722695.76249
  23622746.125 5  23622767.605 9 124138373.605 5  96731229.555 9  23622767.49647
  23050093.500 5  23050114.254 8 121129028.590 5  94386332.344 8  23050114.14146
 23  3 10  2 57 45.0000000  0  6G04G08G16G27G28G31                  
  21143387.891 6  21143397.441 9 111109245.969 6  86578666.404 9  21143396.56347
  20878569.547 6  20878582.898 9 109717621.069 6  85494270.240 9  20878581.62149
  21054168.867 6                 110640400.961 6  86213323.68147  21054176.52347
  19721919.156 7  19721928.863 9 103639381.169 7  80757996.438 9  19721928.50449
  23624443.453 5  23624465.434 8 124147293.927 5  96738180.477 8  23624465.23046
  23051402.977 5  23051423.949 8 121135909.686 5  94391694.223 8  23051424.05547
 23  3 10  2 57 50.0000000  0  6G04G08G16G27G28G31                  
  21142107.961 6  21142117.863 9 111102519.688 6  86573425.116 9  21142116.90247
  20875806.211 6  20875819.457 9 109703098.997 6  85482954.349 9  20875817.89549
  21054565.305 6                 110642481.391 6  86214944.79148  21054572.71548
  19721155.492 7  19721165.637 9 103635368.641 7  80754869.790 9  19721164.90249
  23626142.852 5  23626164.633 9 124156225.593 5  96745140.247 9  23626164.85946
  23052714.016 5  23052735.637 8 121142801.922 5  94397064.764 8  23052735.56346
 23  3 10  2 57 55.0000000  0  7G04G08G09G16G27G28G31               
  21140831.961 6  21140841.703 9 111095813.346 6  86568199.372 9  21140841.16047
  20873045.711 6  20873059.449 9 109688594.144 6  85471651.869 9  20873058.25449
  23345015.648 1                 122678816.95711                
  21054962.727 6                 110644569.188 6  86216571.60847  21054969.97747
  19720395.992 7  19720405.602 9 103631377.103 7  80751759.497 9  19720405.13349
  23627844.445 5  23627865.648 9 124165168.363 5  96752108.660 9  23627866.19946
  23054027.852 5  23054048.824 8 121149705.044 5  94402443.811 8  23054048.91447
 23  3 10  2 58  0.0000000  0  7G04G08G09G16G27G28G31               
  21139559.445 6  21139568.750 9 111089125.989 6  86562988.425 9  21139568.29348
  20870288.508 6  20870302.297 9 109674105.443 6  85460361.987 9  20870300.96549
  23342202.680 1  23342235.590 7 122664038.092 1  95582547.13917  23342232.90646
  21055361.469 6                 110646663.446 6  86218203.48548  21055368.67648
  19719640.313 7  19719649.895 9 103627405.596 7  80748664.817 9  19719649.51249
  23629547.641 5  23629569.844 9 124174121.244 5  96759084.948 9  23629570.06346
  23055343.953 5  23055365.184 8 121156618.117 5  94407830.600 8  23055364.70347
 23  3 10  2 58  5.0000000  0  7G04G08G09G16G27G28G31               
  21138290.773 6  21138300.285 9 111082458.821 6  86557793.211 9  21138299.49248
  20867534.914 6  20867548.773 9 109659634.109 6  85449085.636 9  20867547.36749
  23339393.938 1                 122649275.227 1  95571034.59445  23339424.15245
  21055761.484 6                 110648765.334 6  86219841.29347  21055768.44547
  19718888.602 7  19718898.555 9 103623455.327 7  80745586.682 9  19718897.91849
  23631254.320 5  23631275.887 9 124183085.479 5  96766070.089 9  23631275.83646
  23056660.922 5  23056681.645 8 121163542.269 5  94413225.996 8  23056681.78146
 23  3 10  2 58 10.0000000  0  7G04G08G09G16G27G28G31               
  21137026.000 6  21137034.918 9 111075812.255 6  86552614.062 9  21137034.30948
  20864784.375 6  20864798.039 9 109645180.554 6  85437823.121 9  20864796.89149
  23336586.727 1                 122634528.822 1  95559543.69145  23336619.11345
  21056162.461 6                 110650875.306 6  86221485.41148  21056169.87148
  19718140.992 6  19718150.820 9 103619526.685 6  80742525.392 9  19718150.21549
  23632962.086 5  23632984.270 9 124192061.347 5  96773064.316 9  23632984.18446
  23057981.211 5  23058001.832 8 121170477.965 5  94418630.409 8  23058001.32046
 23  3 10  2 58 15.0000000  0  7G04G08G09G16G27G28G31               
  21135764.656 6  21135773.695 9 111069184.457 6  86547449.531 9  21135773.14148
  20862036.758 6  20862050.961 9 109630742.979 6  85426573.070 9  20862049.52049
  23333781.922 1                 122619797.032 1  95548064.17045  23333816.52745
  21056565.531 6                 110652991.438 6  86223134.32748  21056572.85548
  19717397.422 7  19717407.078 9 103615617.847 7  80739479.529 9  19717406.14549
  23634672.039 5  23634695.063 9 124201047.118 5  96780066.242 9  23634694.76247
  23059302.273 5  23059323.449 8 121177423.422 5  94424042.437 8  23059323.49646
 23  3 10  2 58 20.0000000  0  7G04G08G09G16G27G28G31               
  21134507.539 6  21134517.582 9 111062577.863 6  86542301.533 9  21134516.50847
  20859292.547 6  20859306.547 9 109616323.636 6  85415337.214 9  20859305.21949
  23330983.352 1                                                
  21056969.922 6                 110655116.229 6  86224789.99348  21056977.39548
  19716657.773 7  19716667.281 9 103611731.227 7  80736450.984 9  19716666.32049
  23636384.391 5  23636406.965 9 124210045.190 5  96787077.746 9  23636406.75447
  23060625.875 4  23060646.766 8 121184380.901 4  94429463.814 8  23060646.42646
 23  3 10  2 58 25.0000000  0  7G04G08G09G16G27G28G31               
  21433047.055 6  21433056.301 9 112631412.284 6  87764769.894 9  21433055.86348
  21156344.727 6  21156359.152 9 111177344.174 6  86631716.870 9  21156358.04749
  23627979.281 1  23627999.105 8 124165805.97411  96752697.14518  23628010.08246
  21357167.781 6                 112232667.656 6  87454050.83547  21357175.43047
  20015714.711 6  20015723.895 9 105183286.058 6  81961039.159 9  20015723.31349
  23937891.266 5  23937913.016 9 125794472.271 5  98021696.260 9  23937912.79346
  23361744.141 4  23361765.398 8 122766767.614 4  95662492.422 8  23361764.38746
 23  3 10  2 58 30.0000000  0  7G04G08G09G16G27G28G31               
  21431797.094 6  21431806.926 9 112624844.654 6  87759652.238 9  21431806.34047
  21153607.813 6  21153621.512 9 111162958.341 6  86620507.146 9  21153620.32049
  23625186.664 3  23625208.340 8 124151121.758 3  96741254.923 8  23625214.85546
  21357574.484 6                 112234806.243 6  87455717.24348  21357581.94148
  20014982.578 6  20014992.406 9 105179440.427 6  81958042.560 9  20014991.55149
  23939607.391 5  23939629.535 9 125803491.542 5  98028724.282 9  23939628.70346
  23363072.633 4  23363094.133 8 122773745.899 4  95667930.014 8  23363092.57846
 23  3 10  2 58 35.0000000  0  7G04G08G09G16G27G28G31               
  21430551.008 6  21430560.266 9 112618296.333 6  87754549.632 9  21430560.17248
  21150873.164 6  21150887.660 9 111148589.083 6  86609310.342 9  21150886.58249
  23622395.766 3  23622420.402 8 124136452.771 3  96729824.496 8  23622423.43846
  21357982.977 6                 112236951.543 6  87457388.89048  21357990.41848
  20014254.672 7  20014264.570 9 105175615.076 7  81955061.761 9  20014263.28549
  23941326.055 5  23941348.133 9 125812521.199 5  98035760.420 9  23941347.33246
  23364403.414 4  23364423.637 8 122780734.416 4  95673375.590 8  23364421.92246
 23  3 10  2 58 40.0000000  0  7G04G08G09G16G27G28G31               
  21429308.719 6  21429317.891 9 112611767.521 6  87749462.236 9  21429317.68448
  21148142.734 6  21148156.074 9 111134236.524 6  86598126.533 9  21148155.55549
  23619607.883 3  23619632.938 8 124121799.169 3  96718406.139 8  23619634.89846
  21358392.344 6                 112239103.751 6  87459065.91748  21358400.19548
  20013530.844 7  20013540.566 9 105171810.259 7  81952096.965 9  20013539.46149
  23943046.398 5  23943068.508 9 125821561.469 5  98042804.804 9  23943067.78147
  23365733.570 3  23365755.523 8 122787733.301 3  95678829.241 8  23365753.87946
 23  3 10  2 58 45.0000000  0  7G04G08G09G16G27G28G31               
  21428070.617 6  21428079.781 9 112605258.958 6  87744390.588 9  21428079.11348
  21145414.125 6  21145428.465 9 111119901.488 6  86586956.387 9  21145427.75049
  23616820.023 1  23616845.020 7 124107161.690 1  96707000.239 7  23616848.04346
  21358803.344 6                 112241263.617 6  87460748.92648  21358810.86748
  20012810.734 7  20012820.738 9 105168026.697 7  81949148.719 9  20012819.70349
  23944768.953 5  23944791.035 9 125830613.050 5  98049857.999 9  23944790.21146
  23367067.594 3  23367088.680 8 122794743.267 3  95684291.551 8  23367087.34846
 23  3 10  2 58 50.0000000  0  7G04G08G09G16G27G28G31               
  21426835.523 6  21426844.891 9 112598769.492 6  87739333.850 9  21426844.17648
  21142689.664 6  21142703.508 9 111105582.838 6  86575798.997 9  21142702.64549
  23614037.484 1  23614063.020 7 124092539.184 1  96695605.974 7
  21359215.758 6                 112243429.877 6  87462436.90548  21359223.27048
  20012094.969 7  20012104.352 9 105164263.201 7  81946216.133 9  20012103.53549
  23946492.773 5  23946514.863 9 125839674.867 5  98056919.178 9  23946514.44547
  23368403.469 4  23368424.461 8 122801763.308 4  95689761.683 8  23368423.14146
 23  3 10  2 58 55.0000000  0  8G04G08G09G16G26G27G28G31            
  21425604.250 6  21425613.664 9 112592299.963 6  87734292.659 9  21425613.41447
  21139968.219 6  21139982.285 9 111091281.390 6  86564655.019 9  21139980.92649
  23611258.922 1                                                
  21359629.281 6                 112245603.481 6  87464130.59847  21359636.75847
  22765079.828 1                 119631281.54911                
  20011382.789 7  20011392.352 9 105160520.641 7  81943299.849 9  20011391.41049
  23948220.047 5  23948241.406 9 125848747.730 5  98063988.962 9  23948240.98046
  23369742.281 4  23369762.227 8 122808794.146 4  95695240.241 8  23369761.21146
 23  3 10  2 59  0.0000000  0  8G04G08G09G16G26G27G28G31            
  21424376.852 6  21424385.883 9 112585849.901 6  87729266.632 9  21424385.31648
  21137249.711 6  21137263.762 9 111076996.585 6  86553524.018 9  21137262.72349
  23608484.094 2                                                
  21360044.188 6                 112247783.912 6  87465829.62648  21360051.43848
  22766170.625 1                                                
  20010674.203 7  20010684.184 9 105156798.539 7  81940399.501 9  20010683.39149
  23949947.469 5  23949969.438 9 125857831.132 5  98071066.937 9  23949969.41447
  23371081.367 3  23371102.016 8 122815835.355 3  95700726.865 8  23371100.88746
 23  3 10  2 59  5.0000000  0  7G04G08G09G16G27G28G31               
  21423152.797 6  21423162.266 9 112579418.774 6  87724255.364 9  21423161.84448
  21134534.641 6  21134548.711 9 111062727.884 6  86542405.559 9  21134547.41449
  23605711.844 2  23605719.844 8 124048764.66612  96661475.29018  23605719.62946
  21360459.977 6                 112249970.647 6  87467533.55048  21360467.55548
  20009969.781 7  20009979.613 9 105153096.353 7  81937514.672 9  20009978.68849
  23951678.484 5  23951700.152 9 125866924.515 5  98078152.729 9  23951699.99247
  23372422.445 2  23372444.074 8 122822886.380 2  95706221.156 8  23372442.72746
 23  3 10  2 59 10.0000000  0  7G04G08G09G16G27G28G31               
  21421932.852 6  21421942.227 9 112573006.428 6  87719258.707 9  21421941.66448
  21131822.164 6  21131836.020 9 111048475.223 6  86531299.585 9  21131834.57049
  23602943.000 2  23602952.012 8 124034202.777 2  96650128.340 8  23602951.97746
  21360877.750 6                 112252163.458 6  87469242.22547  21360884.90247
  20009269.008 7  20009278.438 9 105149413.866 7  81934645.200 9  20009278.17249
  23953410.727 5  23953432.047 9 125876027.679 5  98085246.116 9  23953431.19546
  23373764.844 2  23373787.449 8 122829947.091 2  95711722.976 8  23373786.53946
 23  3 10  2 59 15.0000000  0  7G04G08G09G16G27G28G31               
  21420716.320 6  21420725.262 9 112566612.472 6  87714276.393 9  21420724.84848
  21129113.500 6  21129127.242 9 111034238.177 6  86520205.801 9  21129125.93049
  23600170.430 1  23600185.207 8 124019655.221 1  96638792.543 8  23600185.62146
  21361296.102 6                 112254361.988 6  87470955.35248  21361303.52048
  20008571.648 7  20008581.316 9 105145750.773 7  81931790.823 9  20008580.86349
  23955144.641 5  23955166.781 9 125885140.320 5  98092346.901 9  23955165.96946
  23375111.211 1  23375132.566 8 122837017.037 1  95717232.004 8  23375131.49646
 23  3 10  2 59 20.0000000  0  7G04G08G09G16G27G28G31               
  21419503.555 6  21419512.199 9 112560237.511 6  87709308.865 9  21419512.00848
  21126407.141 6  21126420.754 9 111020017.523 6  86509124.772 9  21126419.56349
  23597402.305 1                                                
  21361715.773 6                 112256566.851 6  87472673.40947  21361722.98047
  20007878.719 7  20007888.367 9 105142107.648 7  81928952.018 9  20007888.29349
  23956881.000 5  23956902.789 9 125894262.994 5  98099455.507 9  23956901.91446
  23376459.242 3  23376479.758 8 122844096.881 3  95722748.728 8  23376478.70345
 23  3 10  2 59 25.0000000  0  6G04G08G16G27G28G31                  
  21418293.688 6  21418303.012 9 112553881.114 6  87704355.818 9  21418302.80148
  21123704.359 6  21123717.918 9 111005812.776 6  86498056.148 9  21123716.36749
  21362136.320 6                 112258777.567 6  87474396.02648  21362143.76648
  20007188.875 7  20007199.152 9 105138484.012 7  81926128.409 9  20007198.69149
  23958618.547 5  23958640.219 8 125903395.287 5  98106571.599 8  23958639.72347
  23377808.633 3  23377829.539 8 122851186.164 3  95728272.832 8  23377828.68445
 23  3 10  2 59 30.0000000  0  6G04G08G16G27G28G31                  
  21417087.578 6  21417096.906 9 112547544.189 6  87699417.938 9  21417096.52348
  21121004.117 6  21121017.855 9 110991624.727 6  86487000.533 9  21121016.44549
  21362558.156 6                 112260995.040 6  87476123.90948  21362565.62148
  20006503.500 6  20006513.238 9 105134880.801 6  81923320.703 9  20006512.94149
  23960358.836 5  23960379.781 9 125912538.073 5  98113695.869 9  23960379.97747
  23379159.891 3  23379180.102 8 122858285.768 3  95733805.006 8  23379179.57446
 23  3 10  2 59 35.0000000  0  6G04G08G16G27G28G31                  
  21415885.797 7  21415895.234 9 112541227.919 7  87694496.151 9  21415894.48048
  21118307.320 6  21118320.773 9 110977454.602 6  86475958.880 9  21118319.48849
  21362982.055 6                 112263220.449 6  87477857.97747  21362989.24647
  20005821.781 6  20005831.926 9 105131299.203 6  81920529.843 9  20005831.03149
  23962100.281 5  23962121.301 9 125921692.550 5  98120829.231 9  23962121.64846
  23380511.164 2  23380533.383 8 122865396.910 2  95739346.130 8  23380532.34046
 23  3 10  2 59 40.0000000  0  7G04G08G09G16G27G28G31               
  21414687.461 6  21414696.988 9 112534931.430 6  87689589.780 9  21414696.03548
  21115614.555 6  21115627.652 9 110963301.674 6  86464930.633 9  21115626.49249
  23586377.883 1                 123947150.21411                
  21363406.102 6                 112265452.980 6  87479597.60348  21363413.94948
  20005144.227 6  20005154.047 9 105127738.325 6  81917755.120 9  20005153.18849
  23963844.695 5  23963865.820 9 125930857.855 5  98127971.059 9  23963866.23846
  23381867.789 3  23381889.227 8 122872518.688 3  95744895.556 8  23381888.30946
 23  3 10  2 59 45.0000000  0  7G04G08G09G16G27G28G31               
  21413492.984 6  21413501.648 9 112528652.080 6  87684696.755 9  21413500.98848
  21112923.594 6  21112937.602 9 110949163.046 6  86453913.523 9  21112936.27749
  23583630.117 1  23583631.633 7 123932692.782 1  96571028.97217  23583629.59045
  21363832.328 6                 112267689.897 6  87481340.63648  21363839.82048
  20004469.961 6  20004479.887 9 105124195.505 6  81914994.470 9  20004479.51649
  23965590.023 5  23965611.438 9 125940031.295 5  98135119.230 9  23965611.94947
  23383224.594 3  23383244.508 8 122879648.467 3  95750451.224 8  23383244.44546
 23  3 10  2 59 50.0000000  0  6G04G08G16G27G28G31                  
  21412301.273 6  21412310.523 9 112522390.747 6  87679817.778 9  21412309.53948
  21110236.063 6  21110249.941 9 110935039.821 6  86442908.438 9  21110248.80549
  21364259.289 6                 112269932.150 6  87483087.83148  21364266.83648
  20003799.516 7  20003809.133 9 105120671.687 7  81912248.632 9  20003808.62149
  23967337.047 5  23967359.039 9 125949213.822 5  98142274.479 9  23967359.56646
  23384583.297 3  23384604.133 8 122886787.183 3  95756013.836 8  23384603.32846
 23  3 10  2 59 55.0000000  0  6G04G08G16G27G28G31                  
  21411113.734 6  21411122.391 9 112516149.468 6  87674954.412 9  21411121.73047
  21107552.188 6  21107565.469 9 110920933.885 6  86431916.786 9  21107564.54349
  21364687.008 6                 112272181.752 6  87484840.75747  21364694.77047
  20003133.008 6  20003143.496 9 105117168.805 6  81909519.111 9  20003142.67249
  23969086.836 5  23969108.281 8 125958407.380 5  98149438.330 8  23969108.90646
  23385944.758 4  23385964.125 8 122893936.933 4  95761585.065 8  23385963.20746
 23  3 10  3  0  0.0000000  0  6G04G08G16G27G28G31                  
  21409929.977 6  21409938.891 9 112509927.150 6  87670105.844 9  21409938.21548
  21104870.398 6  21104884.156 9 110906844.124 6  86420937.771 9  21104883.10949
  21365116.258 6                 112274437.553 6  87486598.48847  21365123.64147
  20002470.289 6  20002480.199 9 105113685.809 6  81906805.082 9  20002479.21549
  23970837.523 5  23970859.516 8 125967610.923 5  98156609.938 8  23970860.21946
  23387306.727 4  23387326.184 8 122901096.363 4  95767163.842 8  23387325.46946
 23  3 10  3  0  5.0000000  0  6G04G08G16G27G28G31                  
  21408748.672 6  21408758.449 9 112503722.737 6  87665271.215 9  21408757.82048
  21102192.016 6  21102206.328 9 110892769.628 6  86409970.640 9  21102204.90649
  21365546.844 6                 112276698.511 6  87488360.27447  21365554.02347
  20001810.906 6  20001820.762 9 105110221.651 6  81904105.728 9  20001820.01649
  23972591.219 5  23972612.594 8 125976823.414 5  98163788.541 8  23972612.91446
  23388671.203 4  23388691.047 8 122908264.604 4  95772749.495 8  23388689.79746
 23  3 10  3  0 10.0000000  0  7G04G08G09G16G27G28G31               
  21407571.508 6  21407580.816 9 112497535.025 6  87660449.602 9  21407580.28948
  21099516.906 6  21099530.469 9 110878709.118 6  86399014.394 9  21099529.27049
  23569917.461 1                 123860623.71911                
  21365977.563 6                 112278963.407 6  87490125.11247  21365984.80147
  20001155.422 7  20001164.984 9 105106775.131 7  81901420.119 9  20001163.96949
  23974345.594 5  23974367.539 8 125986043.578 5  98170973.119 8  23974367.54346
  23390036.859 5  23390056.449 8 122915440.389 5  95778340.979 8  23390055.67246
 23  3 10  3  0 15.0000000  0  7G04G08G09G16G27G28G31               
  21406397.547 6  21406406.730 9 112491367.738 6  87655643.911 9  21406406.14848
  21096844.719 6  21096858.660 9 110864666.346 6  86388071.982 9  21096857.51249
  23567186.906 1                                                
  21366410.078 6                 112281235.979 6  87491895.93447  21366417.29747
  20000503.188 7  20000513.129 9 105103349.921 7  81898751.113 9  20000512.22349
  23976101.914 5  23976124.324 8 125995275.184 5  98178166.602 8  23976124.34846
  23391404.000 4  23391423.891 8 122922627.484 4  95783941.336 8  23391422.51646
 23  3 10  3  0 20.0000000  0  6G04G08G16G27G28G31                  
  21405227.398 6  21405236.801 9 112485219.724 6  87650853.239 9  21405235.89847
  21094175.203 6  21094189.301 9 110850640.138 6  86377142.484 9  21094187.96549
  21366844.555 6                 112283515.003 6  87493671.77847  21366850.77347
  19999855.406 7  19999865.184 9 105099944.888 7  81896097.828 9  19999864.60949
  23977861.398 5  23977882.910 8 126004517.040 5  98185368.096 8  23977883.46146
  23392773.836 4  23392794.383 8 122929824.574 4  95789549.449 8  23392793.13346
 23  3 10  3  0 25.0000000  0  6G04G08G16G27G28G31                  
  21404061.273 6  21404070.254 9 112479090.180 6  87646076.940 9  21404069.49648
  21091509.453 6  21091523.090 9 110836629.702 6  86366225.287 9  21091521.57449
  21367278.859 6                 112285799.727 6  87495452.06948  21367285.53548
  19999211.031 7  19999221.051 9 105096559.195 7  81893459.621 9  19999220.12149
  23979621.484 5  23979643.324 9 126013768.382 5  98192576.934 9  23979643.88346
  23394145.734 5  23394165.578 8 122937031.056 5  95795164.871 8  23394164.09846
 23  3 10  3  0 30.0000000  0  6G04G08G16G27G28G31                  
  21402898.703 6  21402908.293 9 112472980.782 6  87641316.363 9  21402906.94547
  21088846.336 6  21088859.914 9 110822636.896 6  86355321.798 9  21088858.57049
  21367715.008 6                 112288091.870 6  87497238.14247  21367721.76647
  19998571.039 7  19998580.742 9 105093194.572 7  81890837.836 9  19998579.65249
  23981384.234 5  23981406.383 9 126023030.869 5  98199794.474 9  23981406.74646
  23395518.945 4  23395538.492 8 122944248.516 4  95800788.847 8  23395537.62546
 23  3 10  3  0 35.0000000  0  6G04G08G16G27G28G31                  
  21401739.766 6  21401749.398 9 112466890.891 6  87636570.977 9  21401747.98847
  21086187.352 6  21086200.840 9 110808660.853 6  86344431.400 9  21086199.26249
  21368152.516 6                 112290390.684 6  87499029.42347  21368159.37547
  19997934.156 7  19997944.992 9 105089850.322 7  81888231.922 9  19997943.61749
  23983148.578 5  23983170.836 9 126032303.847 5  98207020.220 9  23983171.33646
  23396894.516 4  23396913.586 8 122951476.369 4  95806420.902 8  23396912.52346
 23  3 10  3  0 40.0000000  0  6G04G08G16G27G28G31                  
  21400584.711 6  21400593.871 9 112460820.317 6  87631840.655 9  21400592.89147
  21083530.484 6  21083544.152 9 110794701.497 6  86333553.980 9  21083543.07449
  21368590.930 6                 112292696.022 6  87500825.77848  21368597.80948
  19997301.984 7  19997311.633 9 105086526.305 7  81885641.765 9  19997310.75849
  23984915.313 5  23984937.273 9 126041587.081 5  98214253.946 9  23984937.78546
  23398271.453 4  23398291.672 8 122958714.314 4  95812060.903 8  23398290.09046
 23  3 10  3  0 45.0000000  0  6G04G08G16G27G28G31                  
  21399432.805 6  21399442.320 9 112454769.160 6  87627125.450 9  21399441.43847
  21080877.484 6  21080891.668 9 110780758.952 6  86322689.667 9  21080890.16049
  21369031.641 6                 112295007.971 6  87502627.29747  21369038.37947
  19996673.289 7  19996683.508 9 105083222.576 7  81883067.418 9  19996682.65249
  23986683.578 5  23986705.695 9 126050880.741 5  98221495.767 9  23986706.24246
  23399650.109 3  23399670.953 8 122965962.607 3  95817708.914 8  23399669.06646
 23  3 10  3  0 50.0000000  0  6G04G08G16G27G28G31                  
  21398285.000 6  21398294.352 9 112448735.887 6  87622424.173 9  21398293.37947
  21078227.211 6  21078241.805 9 110766831.584 6  86311837.187 9  21078240.44549
  21369472.063 6                 112297324.964 6  87504432.73547  21369478.94547
  19996048.633 7  19996058.301 9 105079937.585 7  81880507.680 9  19996057.60249
  23988453.422 4  23988476.121 9 126060183.262 4  98228744.507 9  23988476.19546
  23401031.883 4  23401051.949 8 122973219.533 4  95823363.668 8  23401049.16046
 23  3 10  3  0 55.0000000  0  6G04G08G16G27G28G31                  
  21397140.391 6  21397150.125 9 112442720.331 6  87617736.715 9  21397149.14847
  21075579.273 6  21075594.008 9 110752919.340 6  86300996.469 9  21075592.77349
  21369914.180 6                 112299646.850 6  87506241.98647  21369921.22747
  19995426.672 7  19995436.980 9 105076671.189 7  81877962.426 9  19995436.10249
  23990226.375 5  23990247.801 8 126069494.482 5  98236000.040 8  23990247.79346
  23402414.281 4  23402434.734 8 122980484.982 4  95829025.075 8  23402432.20746
 23  3 10  3  1  0.0000000  0  6G04G08G16G27G28G31                  
  21395999.320 6  21396008.457 9 112436723.468 6  87613063.815 9  21396007.96547
  21072934.797 6  21072949.121 9 110739023.070 6  86290168.217 9  21072948.34049
  21370356.961 6                 112301974.610 6  87508055.81447  21370363.98847
  19994808.539 7  19994818.742 9 105073424.361 7  81875432.410 9  19994817.96549
  23991999.633 5  23992021.375 9 126078815.346 5  98243263.032 9  23992021.48046
  23403798.477 3  23403819.078 8 122987760.090 3  95834693.980 8  23403816.69946
 23  3 10  3  1  5.0000000  0  6G04G08G16G27G28G31                  
  21394861.930 6  21394871.000 9 112430745.528 6  87608405.653 9  21394870.84847
  21070293.586 6  21070308.516 9 110725143.088 6  86279352.646 9  21070307.53549
  21370801.016 6                 112304308.470 6  87509874.38047  21370808.33247
  19994194.836 7  19994204.586 9 105070197.283 7  81872917.786 9  19994204.16049
  23993775.797 5  23993796.637 8 126088146.065 5  98250533.755 8  23993796.67646
  23405184.648 3  23405205.707 8 122995044.903 3  95840370.445 8  23405203.37946
 23  3 10  3  1 10.0000000  0  6G04G08G16G27G28G31                  
  21393727.242 6  21393736.453 9 112424785.808 6  87603761.693 9  21393736.44947
  21067655.547 6  21067669.891 9 110711278.818 6  86268549.323 9  21067668.91049
  21371246.320 6                 112306647.702 6  87511697.14748  21371253.50048
  19993584.109 7  19993593.629 9 105066989.280 7  81870418.042 9  19993593.40249
  23995552.773 5  23995573.898 9 126097485.950 5  98257811.589 9  23995573.62546
  23406571.984 3  23406593.316 8 123002338.766 3  95846053.958 8  23406591.79746
 23  3 10  3  1 15.0000000  0  7G04G08G16G26G27G28G31               
  21392596.836 6  21392605.926 9 112418843.117 6  87599131.002 9  21392605.82847
  21065019.961 6  21065034.227 9 110697428.921 6  86257757.206 9  21065033.86349
  21371692.539 6                 112308991.092 6  87513523.14248  21371699.61748
  22795965.055 1                 119793580.73211                
  19992977.250 7  19992986.648 9 105063799.156 7  81867932.229 9  19992986.48449
  23997331.414 5  23997352.754 9 126106833.828 5  98265095.681 9  23997352.10546
  23407960.195 2  23407982.805 8 123009640.501 2  95851743.610 8  23407981.12546
 23  3 10  3  1 20.0000000  0  7G04G08G16G26G27G28G31               
  21391469.445 6  21391478.797 9 112412918.741 6  87594514.594 9  21391478.55947
  21062387.438 6  21062401.598 9 110683594.641 6  86246977.256 9  21062400.97749
  21372139.195 6                 112311339.976 6  87515353.42948  21372146.78548
  22797075.320 1  22797089.633 8 119799411.297 1  93350269.84118
  19992373.938 7  19992384.023 9 105060628.227 7  81865461.369 9  19992383.28949
  23999111.438 5  23999133.414 9 126116190.958 5  98272386.930 9  23999132.32846
  23409351.656 1  23409373.867 8 123016951.466 1  95857440.419 8  23409372.22346
 23  3 10  3  1 25.0000000  0  7G04G08G16G26G27G28G31               
  21390345.320 6  21390354.453 9 112407012.030 6  87589911.947 9  21390354.20747
  21059757.586 6  21059772.105 9 110669775.366 6  86236208.996 9  21059771.60549
  21372587.422 6                 112313693.646 6  87517187.44547  21372594.06347
  22798184.875 1  22798200.027 7 119805243.076 1  93354813.990 7
  19991773.883 7  19991783.996 9 105057475.796 7  81863004.920 9  19991783.52349
  24000894.086 5  24000915.629 9 126125556.740 5  98279684.973 9  24000915.02046
  23410744.375 2  23410766.910 8 123024270.782 2  95863143.783 8  23410765.45346
 23  3 10  3  1 30.0000000  0  7G04G08G16G26G27G28G31               
  21389224.742 6  21389234.168 9 112401124.451 6  87585324.207 9  21389233.93447
  21057131.188 6  21057144.938 9 110655972.697 6  86225453.678 9  21057144.47749
  21373036.484 6                 112316053.524 6  87519026.29148  21373043.69948
  22799294.758 2  22799310.102 7 119811077.484 2  93359360.227 7
  19991178.047 7  19991187.781 9 105054343.282 7  81860563.998 9  19991187.22349
  24002678.180 5  24002700.406 9 126134932.568 5  98286990.823 9  24002699.43046
  23412141.156 3  23412161.730 8 123031600.177 3  95868854.979 8  23412160.41446
 23  3 10  3  1 35.0000000  0  7G04G08G16G26G27G28G31               
  21388107.898 6  21388117.379 9 112395254.367 6  87580750.095 9  21388116.55147
  21054507.930 6  21054521.609 9 110642184.982 6  86214710.025 9  21054521.01249
  21373486.211 6                 112318418.058 6  87520868.77948  21373493.33648
  22800404.992 2  22800420.715 8 119816913.019 2  93363907.314 8
  19990585.148 7  19990595.172 9 105051229.146 7  81858137.388 9  19990594.28149
  24004463.320 5  24004485.762 9 126144316.755 5  98294303.165 9  24004484.93046
  23413537.086 2  23413557.887 8 123038937.779 2  95874572.600 8  23413557.15646
 23  3 10  3  1 40.0000000  0  7G04G08G16G26G27G28G31               
  21386993.984 6  21387003.977 9 112389401.867 6  87576189.693 9  21387002.98047
  21051886.750 6  21051900.742 9 110628412.274 6  86203978.058 9  21051899.61749
  21373937.195 6                 112320787.279 6  87522714.92048  21373944.40648
  22801515.758 1  22801531.355 7 119822749.573 1  93368455.193 7
  19989996.133 7  19990005.719 9 105048133.409 7  81855725.121 9  19990004.87549
  24006250.930 4  24006273.664 9 126153709.513 4  98301622.197 9  24006273.41446
  23414932.992 1  23414955.594 8 123046283.796 1  95880296.823 8  23414954.77745
 23  3 10  3  1 45.0000000  0  7G04G08G16G26G27G28G31               
  21385884.102 6  21385894.066 9 112383568.983 6  87571644.570 9  21385893.43447
  21049268.555 6  21049283.539 9 110614656.553 6  86193259.314 9  21049282.44549
  21374389.227 6                 112323163.221 6  87524566.29148  21374396.18048
  22802627.273 1  22802643.660 7 119828589.118 1  93373005.521 7
  19989410.789 7  19989420.566 9 105045058.085 7  81853328.752 9  19989420.03149
  24008041.305 4  24008063.008 9 126163112.797 4  98308949.446 9  24008062.53946
  23416332.148 1  23416355.301 8 123053640.238 1  95886029.086 8  23416354.63345
 23  3 10  3  1 50.0000000  0  7G04G08G16G26G27G28G31               
  21384777.875 6  21384787.004 9 112377753.885 6  87567113.293 9  21384786.50448
  21046654.219 6  21046667.992 9 110600915.985 6  86182552.388 9  21046666.79749
  21374842.820 6                 112325544.021 6  87526421.44748  21374849.31648
  22803738.289 2  22803754.523 8 119834430.063 2  93377556.926 8
  19988829.039 7  19988839.352 9 105042001.387 7  81850946.912 9  19988838.36749
  24009831.602 4  24009854.422 9 126172524.806 4  98316283.483 9  24009853.63347
  23417733.734 1  23417757.574 8 123061005.290 1  95891768.112 8  23417756.40646
 23  3 10  3  1 55.0000000  0  7G04G08G16G26G27G28G31               
  21383674.148 6  21383683.824 9 112371956.600 6  87562595.931 9  21383683.25847
  21044042.102 6  21044056.746 9 110587190.685 6  86171857.359 9  21044055.52349
  21375296.289 6                 112327929.738 6  87528280.44748  21375303.34048
  22804850.750 1  22804866.660 8 119840272.341 1  93382109.311 8
  19988251.266 7  19988261.242 9 105038963.308 7  81848579.571 9  19988260.05149
  24011623.945 5  24011646.676 9 126181945.492 5  98323624.297 9  24011646.62547
  23419138.242 1  23419160.672 8 123068378.933 1  95897513.834 8  23419159.43846
 23  3 10  3  2  0.0000000  0  7G04G08G16G26G27G28G31               
  21382574.867 6  21382584.223 9 112366177.004 6  87558092.325 9  21382583.59847
  21041433.328 6  21041447.430 9 110573480.479 6  86161174.096 9  21041446.06349
  21375751.461 6                 112330320.193 6  87530143.12848  21375758.16448
  22805963.391 3  22805978.496 8 119846115.814 3  93386662.591 8
  19987676.531 7  19987686.422 9 105035943.714 7  81846226.633 9  19987685.06649
  24013418.086 4  24013440.809 9 126191374.820 4  98330971.841 9  24013440.71947
  23420541.617 1  23420565.461 8 123075761.153 1  95903266.245 8  23420564.14146
 23  3 10  3  2  5.0000000  0  7G04G08G16G26G27G28G31               
  21381478.453 6  21381488.410 9 112360415.171 6  87553602.577 9  21381487.50847
  21038826.984 6  21038841.605 9 110559785.592 6  86150502.754 9  21038839.96949
  21376207.023 6                 112332715.476 6  87532009.57047  21376213.80947
  22807074.711 3  22807090.813 7 119851960.565 3  93391216.905 7
  19987105.594 7  19987115.211 9 105032942.701 7  81843888.162 9  19987114.37949
  24015213.594 5  24015236.738 9 126200812.818 5  98338326.119 9  24015236.55946
  23421946.758 1  23421971.742 8 123083151.913 1  95909025.240 8  23421970.19546
 23  3 10  3  2 10.0000000  0  7G04G08G16G26G27G28G31               
  21380385.898 6  21380395.008 9 112354671.909 6  87549127.289 9  21380393.99648
  21036224.492 6  21036238.508 9 110546106.633 6  86139843.838 9  21036236.89849
  21376663.750 6                 112335116.398 6  87533880.40148  21376670.72348
  22808187.477 3  22808203.555 7 119857807.385 3  93395772.846 7  22808203.03145
  19986537.930 7  19986547.684 9 105029961.039 7  81841564.781 9  19986546.89549
  24017011.727 5  24017034.793 9 126210260.288 5  98345687.809 9  24017034.86347
  23423356.063 1  23423379.125 8 123090552.113 1  95914791.625 8  23423378.33246
 23  3 10  3  2 15.0000000  0  8G04G08G09G16G26G27G28G31            
  21379296.125 6  21379305.652 9 112348948.006 6  87544667.089 9  21379304.94948
  21033624.719 6  21033637.793 9 110532444.542 6  86129198.064 9  21033636.14849
  23502396.391 1                 123505793.90111                
  21377121.305 6                 112337523.752 6  87535756.25548  21377128.26248
  22809301.414 3  22809316.770 8 119863657.029 3  93400330.993 8  22809316.23445
  19985974.477 7  19985984.754 9 105026999.537 7  81839257.104 9  19985983.60549
  24018811.281 5  24018834.449 9 126219717.984 5  98353057.448 9  24018834.30147
  23424768.453 2  23424789.609 8 123097962.420 2  95920565.878 8  23424788.85246
 23  3 10  3  2 20.0000000  0  7G04G08G16G26G27G28G31               
  21378210.813 6  21378220.035 9 112343242.892 6  87540221.521 9  21378219.58648
  21031027.961 6  21031041.910 9 110518798.657 6  86118564.921 9  21031039.91449
  21377580.773 6                 112339936.969 6  87537636.67547  21377587.97347
  22810413.984 3  22810430.957 7 119869508.962 3  93404890.881 7  22810429.35945
  19985414.578 7  19985424.926 9 105024057.616 7  81836964.688 9  19985424.01649
  24020613.047 4  24020635.914 9 126229185.415 4  98360434.680 9  24020635.62947
  23426179.969 1  23426201.586 8 123105382.258 1  95926347.560 8  23426200.86346
 23  3 10  3  2 25.0000000  0  7G04G08G16G26G27G28G31               
  21377128.352 6  21377138.184 9 112337555.310 6  87535789.619 9  21377137.44948
  21028433.859 6  21028447.781 9 110505167.845 6  86107943.513 9  21028445.80549
  21378041.531 6                 112342354.768 6  87539520.65747  21378047.58647
  22811527.703 3  22811544.098 7 119875361.963 3  93409451.595 7  22811542.82845
  19984858.039 7  19984868.430 9 105021133.986 7  81834686.531 9  19984867.79349
  24022415.844 4  24022438.969 9 126238661.235 4  98367818.441 9  24022438.84846
  23427591.398 1  23427614.527 8 123112810.481 1  95932135.813 8  23427613.55946
 23  3 10  3  2 30.0000000  0  7G04G08G16G26G27G28G31               
  21376049.852 6  21376059.617 9 112331888.104 6  87531373.600 9  21376059.05547
  21025843.453 6  21025856.926 9 110491554.816 6  86097335.962 9  21025854.94949
  21378502.773 6                 112344779.993 6  87541410.42647  21378508.93447
  22812643.078 3  22812658.188 7 119881218.833 3  93414015.259 7  22812657.41445
  19984305.969 7  19984316.113 9 105018231.502 7  81832424.854 9  19984315.30549
  24024221.289 4  24024244.391 9 126248148.294 4  98375210.966 9  24024244.23046
  23429009.625 1                                                
 23  3 10  3  2 35.0000000  0  7G04G08G16G26G27G28G31               
  21374974.609 6  21374984.563 9 112326238.103 6  87526970.986 9  21374983.80148
  21023255.898 6  21023269.473 9 110477956.377 6  86086739.788 9  21023267.86349
  21378964.875 6                 112347209.423 6  87543303.47748  21378971.98048
  22813756.711 3  22813771.898 8 119887076.423 3  93418579.529 8  22813771.81345
  19983757.094 7  19983767.246 9 105015346.994 7  81830177.177 9  19983766.51649
  24026027.719 4  24026051.043 9 126257643.455 4  98382609.815 9  24026051.38346
  23430425.688 1  23430447.820 8 123127697.34911  95943736.03118  23430446.69546
 23  3 10  3  2 40.0000000  0  8G04G08G09G16G26G27G28G31            
  21373903.375 6  21373912.891 9 112320607.854 6  87522583.772 9  21373912.96948
  21020671.313 6  21020685.047 9 110464375.110 6  86076156.987 9  21020683.46549
  23489104.336 1                 123435913.53611  96184038.98056  23489118.25046
  21379428.883 6                 112349645.610 6  87545201.79348  21379435.32048
  22814871.781 2  22814887.781 8 119892937.231 2  93423146.340 8  22814888.03145
  19983212.297 7  19983222.168 9 105012483.014 7  81827945.497 9  19983221.70749
  24027836.602 5  24027860.156 9 126267149.268 5  98390016.965 9  24027860.00047
  23431846.477 1  23431866.809 8 123135155.410 1  95949547.515 8  23431865.41846
 23  3 10  3  2 45.0000000  0  8G04G08G09G16G26G27G28G31            
  21372835.648 6  21372845.164 9 112314994.802 6  87518209.941 9  21372844.64847
  21018089.734 6  21018103.820 9 110450808.679 6  86065585.751 9  21018102.21949
  23486451.813 1  23486455.508 8 123421981.71511  96173110.18918  23486463.29746
  21379892.734 6                 112352086.045 6  87547103.41048  21379900.12948
  22815988.328 2  22816003.523 8 119898798.693 2  93427713.682 8  22816003.44545
  19982670.211 6  19982680.844 9 105009637.011 6  81825727.823 9  19982680.23449
  24029646.977 4  24029670.914 9 126276663.074 4  98397430.348 9  24029670.61346
  23433267.516 2  23433287.504 8 123142621.354 2  95955365.127 8  23433286.02346
 23  3 10  3  2 50.0000000  0  8G04G08G09G16G26G27G28G31            
  21371770.547 6  21371780.094 9 112309399.046 6  87513849.601 9  21371779.93048
  21015510.734 6  21015525.000 9 110437256.984 6  86055026.003 9  21015523.43049
  23483803.297 1  23483806.750 8 123408063.387 1  96162264.758 8  23483812.92246
  21380358.117 6                 112354530.763 6  87549008.37348  21380365.16048
  22817104.031 2  22817119.504 8 119904660.968 2  93432281.613 8  22817118.81645
  19982132.258 7  19982142.645 9 105006809.030 7  81823524.202 9  19982142.22749
  24031458.922 5  24031481.906 9 126286185.095 5  98404850.113 9  24031482.19946
  23434689.094 2  23434710.277 8 123150095.414 2  95961189.038 8  23434708.76246
 23  3 10  3  2 55.0000000  0  8G04G08G09G16G26G27G28G31            
  21370708.625 6  21370718.152 9 112303820.369 6  87509502.546 9  21370717.58648
  21012934.906 6  21012948.801 9 110423719.848 6  86044477.595 9  21012947.30549
  23481160.609 1                                                
  21380824.180 6                 112356979.548 6  87550916.48748  21380831.42648
  22818219.844 2  22818235.301 8 119910523.786 2  93436849.956 8  22818235.01245
  19981597.820 7  19981607.965 9 105003998.895 7  81821334.469 9  19981607.42249
  24033272.727 4  24033295.352 8 126295715.055 4  98412276.072 8  24033295.88746
  23436113.266 3  23436134.063 8 123157577.343 3  95967019.085 8  23436132.55946
 23  3 10  3  3  0.0000000  0  7G04G08G16G26G27G28G31               
  21369651.117 6  21369660.742 9 112298260.432 6  87505170.116 9  21369660.14548
  21010361.734 6  21010375.977 9 110410198.857 6  86033941.779 9  21010374.67249
  21381291.445 6                 112359434.056 6  87552829.08748  21381298.00448
  22819333.977 2  22819350.504 8 119916388.863 2  93441420.110 8  22819350.76245
  19981066.734 7  19981076.984 9 105001208.236 7  81819159.928 9  19981076.58249
  24035088.750 5  24035110.992 9 126305254.563 5  98419709.541 9  24035110.80546
  23437540.195 3  23437559.633 8 123165068.809 3  95972856.587 8  23437558.12546
 23  3 10  3  3  5.0000000  0  7G04G08G16G26G27G28G31               
  21368596.156 6  21368606.133 9 112292718.985 6  87500852.088 9  21368605.03547
  21007791.977 6  21007806.102 9 110396693.960 6  86023418.487 9  21007805.01249
  21381759.578 6                 112361894.093 6  87554745.98447  21381766.73447
  22820451.227 2  22820468.242 8 119922255.953 2  93445991.791 8  22820467.50445
  19980539.250 7  19980549.016 9 104998436.859 7  81817000.398 9  19980548.67249
  24036905.336 5  24036928.199 9 126314803.523 5  98427150.314 9  24036927.99246
  23438965.742 3  23438986.508 8 123172569.553 3  95978701.303 8  23438985.59046
 23  3 10  3  3 10.0000000  0  8G04G08G09G16G26G27G28G31            
  21367545.188 6  21367555.070 9 112287195.548 6  87496548.083 9  21367554.31648
  21005225.570 6  21005239.043 9 110383204.522 6  86012907.250 9  21005237.94949
  23473239.313 2                                                
  21382229.164 6                 112364359.091 6  87556666.75048  21382235.39848
  22821568.031 2  22821584.328 8 119928124.491 2  93450564.675 8  22821584.60945
  19980015.617 7  19980025.668 9 104995684.167 7  81814855.443 9  19980025.31349
  24038724.492 5  24038746.602 9 126324361.238 5  98434597.914 9  24038746.16846
  23440395.813 5  23440415.457 8 123180079.084 5  95984552.891 8  23440414.47746
 23  3 10  3  3 15.0000000  0  8G04G08G09G16G26G27G28G31            
  21366498.070 6  21366507.832 9 112281691.250 6  87492259.008 9  21366506.76648
  21002661.570 6  21002675.848 9 110369731.752 6  86002408.999 9  21002674.77749
  23470600.203 1  23470616.191 8 123338690.64011  96108249.82818
  21382698.531 6                 112366830.206 6  87558592.27648  21382705.85948
  22822685.891 1  22822702.086 8 119933995.639 1  93455139.507 8  22822702.21145
  19979495.289 7  19979505.555 9 104992951.383 7  81812725.999 9  19979505.16849
  24040545.516 4  24040567.609 9 126333928.957 4  98442053.287 9  24040566.94146
  23441827.203 4  23441846.488 8 123187598.511 4  95990412.195 8  23441844.90246
 23  3 10  3  3 20.0000000  0  8G04G08G09G16G26G27G28G31            
  21365454.078 6  21365463.848 9 112276205.050 6  87487984.037 9  21365462.89148
  21000100.086 6  21000114.430 9 110356274.545 6  85991922.863 9  21000113.55949
  23467966.703 1  23467980.801 8 123324859.56211  96097472.35618  23467981.29746
  21383169.945 6                 112369306.423 6  87560521.77248  21383177.43448
  22823803.156 2  22823819.684 8 119939868.361 2  93459715.634 8  22823819.46945
  19978979.063 7  19978989.262 9 104990237.383 7  81810611.188 9  19978988.81349
  24042367.086 4  24042389.344 9 126343505.695 4  98449515.672 9  24042389.36346
  23443259.633 4  23443279.199 8 123195126.851 4  95996278.448 8  23443277.64546
 23  3 10  3  3 25.0000000  0  7G04G08G16G26G27G28G31               
  21364413.148 6  21364423.359 9 112270737.527 6  87483723.609 9  21364422.53948
  20997543.023 6  20997556.676 9 110342833.634 6  85981449.438 9  20997555.53549
  21383642.219 6                 112371788.193 6  87562455.61347  21383649.10547
  22824920.688 1  22824937.395 8 119945743.244 1  93464293.417 8  22824937.86345
  19978466.352 7  19978476.359 9 104987542.828 7  81808511.518 9  19978475.76249
  24044191.313 4  24044214.391 9 126353091.933 4  98456985.486 9  24044213.99246
  23444694.391 4  23444713.277 8 123202664.581 4  96002151.966 8  23444711.87946
 23  3 10  3  3 30.0000000  0  7G04G08G16G26G27G28G31               
  21363376.781 6  21363386.664 9 112265288.068 6  87479477.258 9  21363386.11747
  20994988.273 6  20995001.660 9 110329408.265 6  85970988.143 9  20995000.36749
  21384115.664 6                 112374275.022 6  87564393.39047  21384122.56347
  22826039.625 2  22826055.738 8 119951619.771 2  93468872.472 8  22826055.88345
  19977957.156 7  19977967.234 9 104984867.040 7  81806426.487 9  19977966.86349
  24046018.195 4  24046039.566 8 126362687.017 4  98464462.236 8  24046039.53146
  23446130.070 4  23446149.891 8 123210211.269 4  96008032.523 8  23446147.98046
 23  3 10  3  3 35.0000000  0  7G04G08G16G26G27G28G31               
  21362342.992 6  21362352.656 9 112259855.713 6  87475244.240 9  21362352.38348
  20992436.063 6  20992449.883 9 110315997.438 6  85960538.143 9  20992448.26249
  21384589.609 6                 112376765.890 6  87566334.30947  21384596.75047
  22827157.711 1  22827174.578 8 119957496.706 1  93473451.840 8  22827174.59045
  19977451.180 7  19977461.301 9 104982209.061 7  81804355.336 9  19977460.78149
  24047845.039 4  24047867.191 9 126372290.071 4  98471945.067 9  24047867.31346
  23447566.758 4  23447587.625 8 123217765.755 4  96013919.137 8  23447586.56346
 23  3 10  3  3 40.0000000  0  8G04G08G09G16G26G27G28G31            
  21361312.688 6  21361322.531 9 112254441.485 6  87471025.344 9  21361321.99648
  20989887.328 6  20989900.520 9 110302602.348 6  85950100.420 9  20989899.47749
  23457465.375 1                                                
  21385064.508 6                 112379261.786 6  87568279.14048  21385071.33248
  22828276.172 1  22828292.996 8 119963375.336 1  93478032.513 8  22828292.82445
  19976949.094 7  19976958.941 9 104979569.909 7  81802298.849 9  19976958.34849
  24049674.336 5  24049696.070 9 126381902.008 5  98479434.938 9  24049695.47746
  23449006.508 5  23449026.305 8 123225329.149 5  96019812.729 8  23449025.62946
 23  3 10  3  3 45.0000000  0  8G04G08G09G16G26G27G28G31            
  21360285.430 6  21360295.414 9 112249045.176 6  87466820.407 9  21360294.70348
  20987340.641 6  20987354.750 9 110289222.672 6  85939674.700 9  20987353.74249
  23454842.047 1                 123255932.95911  96043775.43955  23454871.27345
  21385540.250 6                 112381762.575 6  87570227.79947  21385546.43847
  22829395.008 1  22829411.441 8 119969255.336 1  93482614.315 8  22829411.65645
  19976450.414 7  19976460.730 9 104976949.354 7  81800256.847 9  19976459.90249
  24051505.148 4  24051526.332 8 126391522.734 4  98486931.621 8  24051526.35946
  23450447.148 4  23450467.738 8 123232901.234 4  96025713.030 8  23450467.30146
 23  3 10  3  3 50.0000000  0  8G04G08G09G16G26G27G28G31            
  21359261.867 6  21359272.352 9 112243667.152 6  87462629.712 9  21359271.64148
  20984797.945 6  20984811.504 9 110275858.889 6  85929261.371 9  20984810.44949
  23452230.117 1  23452245.449 8 123242187.831 1  96033034.80018  23452253.55146
  21386016.930 6                 112384268.584 6  87572180.52148  21386023.80948
  22830512.813 1  22830530.531 8 119975137.01811  93487197.42818  22830530.32045
  19975955.438 7  19975965.344 9 104974347.826 7  81798229.690 9  19975964.69949
  24053337.680 4  24053358.508 9 126401152.547 4  98494435.394 9  24053358.94546
  23451889.586 3  23451909.777 8 123240482.438 3  96031620.467 8  23451909.62946
 23  3 10  3  3 55.0000000  0  7G04G08G16G26G27G28G31               
  21358242.164 6  21358251.633 9 112238306.517 6  87458452.567 9  21358251.31647
  20982257.406 6  20982270.965 9 110262510.022 6  85918859.666 9  20982269.90649
  21386494.766 6                 112386778.881 6  87574136.58748  21386502.31348
  22831634.414 2  22831650.949 8 119981019.615 2  93491781.187 8  22831649.96545
  19975463.953 7  19975473.828 9 104971764.382 7  81796216.610 9  19975473.04749
  24055172.484 5  24055193.008 8 126410790.623 5  98501945.607 8  24055192.94546
  23453333.102 4  23453354.801 8 123248071.748 4  96037534.231 8  23453354.08646
 23  3 10  3  4  0.0000000  0  7G04G08G16G26G27G28G31               
  21357225.695 6  21357235.434 9 112232963.965 6  87454289.520 9  21357234.83248
  20979720.281 6  20979734.320 9 110249176.719 6  85908470.112 9  20979733.19149
  21386974.086 6                 112389294.165 6  87576096.53648  21386980.66048
  22832754.180 1  22832770.703 8 119986903.720 1  93496366.224 8  22832769.96945
  19974975.844 7  19974985.512 9 104969199.661 7  81794218.111 9  19974984.70349
  24057006.766 4  24057029.008 8 126420437.559 4  98509462.731 8  24057028.68446
  23454780.055 4  23454800.305 8 123255669.819 4  96043454.803 8  23454799.61346
 23  3 10  3  4  5.0000000  0  8G04G08G09G16G26G27G28G31            
  21356212.250 6  21356221.867 9 112227639.056 6  87450140.232 9  21356221.11347
  20977186.406 6  20977200.031 9 110235858.721 6  85898092.465 9  20977199.03949
  23444401.219 1                                                
  21387453.438 6                 112391814.053 6  87578060.07647  21387460.09847
  22833875.430 4  22833889.969 8 119992788.983 4  93500952.131 8  22833889.62945
  19974491.719 7  19974501.000 9 104966653.342 7  81792233.975 9  19974500.27749
  24058844.648 3  24058865.188 8 126430093.032 3  98516986.457 8  24058865.75446
  23456227.719 4  23456247.828 8 123263276.448 4  96049382.020 8  23456246.88746
 23  3 10  3  4 10.0000000  0  8G04G08G09G16G26G27G28G31            
  21355202.094 6  21355212.145 9 112222331.318 6  87446004.312 9  21355210.99647
  20974654.492 6  20974667.820 9 110222555.510 6  85887726.327 9  20974666.83649
  23441792.750 1  23441803.605 8 123187607.56211  95990300.66818  23441807.88746
  21387933.859 6                 112394337.947 6  87580026.73648  21387940.25048
  22834994.695 2  22835010.402 8 119998674.895 2  93505538.482 8  22835009.56345
  19974010.047 7  19974019.980 9 104964124.825 7  81790263.699 9  19974019.21949
  24060683.211 4  24060705.199 8 126439756.374 4  98524516.402 8  24060704.74646
  23457676.195 4  23457696.859 8 123270890.900 4  96055315.406 8  23457695.37546
 23  3 10  3  4 15.0000000  0  8G04G08G09G16G26G27G28G31            
  21354195.609 6  21354205.602 9 112217042.336 6  87441883.017 9  21354204.66447
  20972126.406 6  20972139.625 9 110209268.513 6  85877372.828 9  20972138.66049
  23439188.984 1  23439204.379 7 123173933.257 1  95979645.392 7  23439209.27046
  21388415.055 6                 112396867.490 6  87581997.80047  21388421.74247
  22836115.656 2  22836130.785 8 120004563.017 2  93510126.549 8  22836129.62145
  19973532.508 7  19973542.516 9 104961615.744 7  81788308.568 9  19973541.66449
  24062525.078 3  24062545.242 8 126449429.249 3  98532053.722 8  24062545.30946
  23459126.703 4  23459147.570 8 123278514.856 4  96061256.124 8  23459146.50046
 23  3 10  3  4 20.0000000  0  7G04G08G16G26G27G28G31               
  21353192.664 6  21353202.637 9 112211771.132 6  87437775.581 9  21353201.53148
  20969600.891 6  20969614.168 9 110195997.021 6  85867031.419 9  20969613.33249
  21388897.031 6                 112399401.718 6  87583972.50747  21388904.02047
  22837235.656 1  22837251.215 8 120010452.366 1  93514715.645 8  22837250.44545
  19973058.938 7  19973068.598 9 104959125.141 7  81786367.826 9  19973067.93049
  24064367.164 4  24064387.672 8 126459110.786 4  98539597.765 8  24064387.60246
  23460579.055 4  23460599.949 8 123286147.395 4  96067203.577 8  23460598.77346
 23  3 10  3  4 25.0000000  0  7G04G08G16G26G27G28G31               
  21352192.859 6  21352202.758 9 112206517.410 6  87433681.755 9  21352202.02047
  20967078.148 6  20967091.063 9 110182740.555 6  85856701.724 9  20967090.32449
  21389380.664 6                 112401940.254 6  87585950.59048  21389387.43848
  22838356.359 2  22838372.688 8 120016342.649 2  93519305.411 8  22838371.78945
  19972588.180 7  19972598.422 9 104956652.637 7  81784441.195 9  19972597.43449
  24066211.555 5  24066232.027 8 126468800.526 5  98547148.271 8  24066231.55146
  23462033.289 4  23462053.930 8 123293788.140 4  96073157.382 8  23462052.35246
 23  3 10  3  4 30.0000000  0  7G04G08G16G26G27G28G31               
  21351197.430 6  21351206.934 9 112201283.293 6  87429603.188 9  21351206.10247
  20964559.094 6  20964572.145 9 110169501.264 6  85846385.401 9  20964571.19149
  21389864.398 6                 112404485.309 6  87587933.73048  21389871.63748
  22839477.570 1  22839494.977 8 120022236.029 1  93523897.604 8  22839493.71145
  19972121.594 7  19972131.508 9 104954200.398 7  81782530.353 9  19972130.88349
  24068056.508 3  24068077.293 8 126478500.678 3  98554706.866 8  24068077.12946
  23463489.047 4  23463510.180 8 123301439.265 4  96079119.308 8  23463508.30546
 23  3 10  3  4 35.0000000  0  7G04G08G16G26G27G28G31               
  21350204.430 6  21350213.828 9 112196066.318 6  87425538.004 9  21350213.46148
  20962042.547 7  20962055.898 9 110156276.657 7  85836080.530 9  20962054.74249
  21390349.813 6                 112407034.305 6  87589919.95648  21390357.18448
  22840599.000 2  22840616.613 8 120028129.961 2  93528490.226 8  22840615.54745
  19971658.773 7  19971668.438 9 104951765.966 7  81780633.390 9  19971667.81349
  24069903.227 3  24069924.980 8 126488208.755 3  98562271.645 8  24069924.19146
  23464946.344 4  23464966.895 8 123309098.265 4  96085087.395 8  23464965.87546
 23  3 10  3  4 40.0000000  0  8G04G08G09G16G26G27G28G31            
  21349215.164 6  21349224.316 9 112190867.893 6  87421487.260 9  21349223.71548
  20959528.922 6  20959542.398 9 110143068.265 6  85825788.267 9  20959541.68449
  23426222.602 1                 123105620.17311                
  21390836.031 6                 112409588.801 6  87591910.45448  21390843.21948
  22841719.891 1  22841737.727 8 120034025.99411  93533084.44218  22841738.07845
  19971198.797 7  19971208.625 9 104949350.762 7  81778751.408 9  19971208.25849
  24071749.641 1  24071774.520 8 126497926.229 1  98569843.628 8  24071773.34845
  23466405.711 4  23466426.891 8 123316766.610 4  96091062.710 8  23466425.76246
 23  3 10  3  4 45.0000000  0  8G04G08G09G16G26G27G28G31            
  21348228.641 6  21348238.484 9 112185686.167 6  87417449.530 9  21348237.78548
  20957018.086 6  20957031.402 9 110129874.071 6  85815507.111 9  20957029.69549
  23423632.781 1  23423645.863 8 123092031.320 1  95915907.97618  23423647.23446
  21391322.570 6                 112412146.782 6  87593903.68948  21391329.95748
  22842841.234 1  22842859.555 8 120039921.999 1  93537678.699 8  22842860.19545
  19970742.492 7  19970752.570 9 104946952.858 7  81776882.906 9  19970751.72749
  24073603.859 3  24073624.590 8 126507651.079 3  98577421.499 8  24073623.07045
  23467866.539 5  23467887.566 8 123324442.320 5  96097043.817 8  23467887.10546
 23  3 10  3  4 50.0000000  0  8G04G08G09G16G26G27G28G31            
  21347246.484 6  21347255.711 9 112180522.533 6  87413425.905 9  21347254.73448
  20954510.461 6  20954523.680 9 110116695.651 6  85805238.220 9  20954522.46149
  23421054.203 1  23421068.902 7 123078457.217 1  95905330.563 7  23421064.86745
  21391810.625 6                 112414709.697 6  87595900.74248  21391817.30148
  22843963.836 1  22843981.727 8 120045819.708 1  93542274.234 8  22843982.39845
  19970289.859 7  19970299.664 9 104944573.681 7  81775029.001 9  19970298.89149
  24075454.563 1  24075477.109 8 126517384.846 1  98585006.264 8  24075476.04745
  23469329.531 5  23469350.242 8 123332126.931 5  96103031.805 8  23469349.71546
 23  3 10  3  4 55.0000000  0  7G04G08G16G26G27G28G31               
  21346266.938 6  21346276.629 9 112175376.252 6  87409415.788 9  21346275.78548
  20952005.102 6  20952018.426 9 110103532.163 6  85794980.952 9  20952017.46149
  21392298.648 6                 112417276.872 6  87597901.13248  21392306.43448
  22845087.570 2  22845103.766 8 120051718.24412  93546870.41018  22845104.60245
  19969840.188 7  19969850.297 9 104942212.532 7  81773189.124 9  19969849.49649
  24077308.711 2  24077330.508 8 126527126.675 2  98592597.376 8  24077329.60245
  23470793.250 5  23470814.129 8 123339819.718 5  96109026.189 8  23470813.30546
 23  3 10  3  5  0.0000000  0  7G04G08G16G26G27G28G31               
  21345291.602 6  21345301.125 9 112170249.408 6  87405420.817 9  21345300.47748
  20949503.523 6  20949516.363 9 110090385.742 6  85784736.997 9  20949515.32049
  21392789.242 6                 112419850.284 6  87599906.37148  21392796.29348
  22846211.250 1  22846226.945 8 120057619.567 1  93551468.858 8  22846227.88745
  19969394.766 7  19969404.922 9 104939871.373 7  81771364.850 9  19969404.00049
  24079162.852 1                                                
  23472259.547 5  23472280.477 8 123347522.608 5  96115028.434 8  23472279.93046
 23  3 10  3  5  5.0000000  0  7G04G08G16G26G27G28G31               
  21344319.125 6  21344328.602 9 112165139.366 6  87401438.946 9  21344328.02348
  20947004.633 6  20947018.250 9 110077253.800 6  85774504.330 9  20947017.16449
  21393279.195 6                 112422427.347 6  87601914.45948  21393286.56648
  22847332.805 2  22847350.539 7 120063521.205 2  93556067.444 7  22847350.73845
  19968952.680 7  19968962.602 9 104937547.687 7  81769554.186 9  19968961.69549
  24081022.305 3  24081042.789 8 126546638.40613  98607801.29418  24081042.44145
  23473726.398 5  23473747.277 8 123355233.055 5  96121036.564 8  23473746.62146
 23  3 10  3  5 10.0000000  0  7G04G08G16G26G27G28G31               
  21343350.086 6  21343360.063 9 112160047.265 6  87397471.059 9  21343359.21948
  20944508.852 6  20944521.688 9 110064137.533 6  85764283.875 9  20944520.84049
  21393770.398 6                 112425009.186 6  87603926.26348  21393777.44548
  22848456.789 1                                                
  19968514.227 7  19968524.047 9 104935242.580 7  81767757.984 9  19968523.25849
  24082881.367 1  24082901.754 8 126556406.708 1  98615412.944 8  24082901.13345
  23475194.914 5  23475215.887 8 123362952.235 5  96127051.545 8  23475215.51246
 23  3 10  3  5 15.0000000  0  7G04G08G09G16G27G28G31               
  21342384.258 6  21342394.281 9 112154972.934 6  87393517.015 9  21342393.48848
  20942016.055 6  20942028.980 9 110051036.629 6  85754075.407 9  20942028.13749
  23408174.680 1  23408193.367 8 123010800.50411  95852615.45918
  21394262.734 6                 112427595.629 6  87605941.65748  21394270.28148
  19968078.797 7  19968088.133 9 104932955.849 7  81765976.110 9  19968087.54349
  24084740.664 1  24084762.512 8 126566183.573 1  98623031.335 8  24084762.04345
  23476665.344 5  23476685.996 8 123370679.887 5  96133073.083 8  23476685.38347
 23  3 10  3  5 20.0000000  0  7G04G08G09G16G27G28G31               
  21341422.711 6  21341432.117 9 112149915.954 6  87389576.493 9  21341431.63348
  20939525.328 6  20939538.668 9 110037950.573 6  85743878.480 9  20939537.82049
  23405606.594 1  23405626.695 8 122997311.534 1  95842104.286 8  23405625.80946
  21394755.789 6                 112430186.199 6  87607960.28648  21394763.37948
  19967647.320 7  19967657.078 9 104930687.087 7  81764208.243 9  19967656.08649
  24086601.961 1  24086625.641 8 126575968.47911  98630655.96118  24086624.87145
  23478136.813 5  23478158.484 8 123378415.654 5  96139100.962 8  23478157.28146
 23  3 10  3  5 25.0000000  0  7G04G08G16G26G27G28G31               
  21340463.141 6  21340473.090 9 112144877.490 6  87385650.389 9  21340472.26648
  20937038.461 6  20937051.543 9 110024880.649 6  85733694.154 9  20937050.19549
  21395249.594 6                 112432782.097 6  87609983.03548  21395256.91848
  22851828.813 1                 120087139.34511                
  19967219.594 7  19967229.406 9 104928437.443 7  81762455.271 9  19967228.47349
  24088465.648 1  24088489.234 8 126585762.693 1  98638287.792 8  24088488.07445
  23479610.734 5  23479631.723 8 123386160.644 5  96145136.052 8  23479630.59846
 23  3 10  3  5 30.0000000  0  7G04G08G16G26G27G28G31               
  21339508.344 6  21339517.578 9 112139856.289 6  87381737.739 9  21339516.87948
  20934554.055 6  20934566.969 9 110011825.716 6  85723521.479 9  20934565.56649
  21395744.641 6                 112435382.063 6  87612008.96648  21395751.46148
  22852953.313 1                 120093047.106 1                
  19966794.227 7  19966804.371 9 104926205.651 7  81760716.207 9  19966803.55149
  24090329.352 1  24090354.113 8 126595565.082 1  98645926.033 8  24090353.12945
  23481086.773 5  23481106.863 8 123393913.747 5  96151177.390 8  23481105.38746
 23  3 10  3  5 35.0000000  0  8G04G08G09G16G26G27G28G31            
  21338556.016 6  21338565.680 9 112134852.724 6  87377838.839 9  21338565.05148
  20932072.648 6  20932086.324 9 109998786.019 6  85713360.688 9  20932084.84449
  23397918.133 1                                                
  21396239.672 6                 112437986.381 6  87614038.30248  21396247.27048
  22854077.703 1                 120098955.822 1                
  19966373.539 7  19966382.980 9 104923992.053 7  81758991.322 9  19966382.42249
  24092198.445 2  24092220.297 8 126605375.601 2  98653570.645 8  24092219.47745
  23482563.102 4  23482583.746 8 123401675.099 4  96157225.258 8  23482581.72346
 23  3 10  3  5 40.0000000  0  8G04G08G09G16G26G27G28G31            
  21337607.297 6  21337616.688 9 112129867.009 6  87373953.860 9  21337616.10548
  20929594.234 6  20929607.922 9 109985761.841 6  85703212.020 9  20929606.52749
  23395369.141 1  23395394.602 7 122943498.28211  95800226.69217
  21396736.727 6                 112440595.370 6  87616071.25848  21396743.96548
  22855200.914 1                 120104865.962 1                
  19965955.398 7  19965965.172 9 104921796.940 7  81757280.833 9  19965964.67249
  24094068.414 4  24094088.531 7 126615194.794 4  98661221.975 7  24094088.08245
  23484039.844 2  23484062.484 8 123409445.082 2  96163279.730 8  23484060.32846
 23  3 10  3  5 45.0000000  0  8G04G08G09G16G26G27G28G31            
  21336662.055 6  21336671.172 9 112124898.736 6  87370082.444 9  21336670.62548
  20927118.789 6  20927131.492 9 109972752.900 6  85693075.168 9  20927129.80949
  23392812.742 1  23392836.938 8 122930080.480 1  95789771.135 8  23392817.33246
  21397233.563 6                 112443208.574 6  87618107.48548  21397241.23848
  22856326.195 1  22856340.152 7 120110776.82611  93592888.43817
  19965541.227 7  19965550.426 9 104919619.828 7  81755584.379 9  19965550.10549
  24095936.578 1  24095959.832 8 126625022.239 1  98668879.746 8  24095958.25045
  23485522.352 4  23485542.871 8 123417223.167 4  96169340.652 8  23485540.97746
 23  3 10  3  5 50.0000000  0  8G04G08G09G16G26G27G28G31            
  21335719.563 6  21335728.941 9 112119947.765 6  87366224.527 9  21335728.36748
  20924646.047 6  20924659.367 9 109959758.867 6  85682949.961 9  20924657.79749
  23390261.844 1  23390280.352 8 122916676.59711  95779326.66718  23390270.81346
  21397731.586 6                 112445825.915 6  87620146.96148  21397739.34448
  22857454.063 2  22857466.027 7 120116688.543 2  93597494.910 7
  19965130.156 7  19965140.227 9 104917460.613 7  81753901.866 9  19965139.52749
  24097809.453 2  24097831.559 8 126634857.615 2  98676543.686 8  24097830.07045
  23487003.844 5  23487024.578 8 123425009.388 5  96175407.794 8  23487023.41846
 23  3 10  3  5 55.0000000  0  7G04G08G16G26G27G28G31               
  21334780.297 6  21334790.879 9 112115015.610 6  87362381.271 9  21334789.85947
  20922176.422 6  20922190.156 9 109946781.353 6  85672837.650 9  20922188.65249
  21398230.688 6                 112448448.813 6  87622190.76448  21398238.40248
  22858578.648 2  22858592.598 7 120122602.534 2  93602103.211 7
  19964723.375 7  19964733.266 9 104915320.793 7  81752234.472 9  19964733.00049
  24099683.070 3  24099704.535 7 126644702.505 3  98684215.095 7  24099703.31345
  23488487.500 4  23488508.480 8 123432805.091 4  96181482.430 8  23488506.41446
 23  3 10  3  6  0.0000000  0  7G04G08G16G26G27G28G31               
  21333845.164 6  21333855.680 9 112110101.072 6  87358551.735 9  21333854.99648
  20919709.508 6  20919723.059 9 109933819.194 6  85662737.255 9  20919721.50449
  21398731.438 6                 112451076.116 6  87624237.98948  21398738.36748
  22859703.734 1  22859718.906 8 120128517.554 1  93606712.168 8
  19964319.461 7  19964329.508 9 104913199.150 7  81750581.239 9  19964328.82849
  24101558.438 2  24101579.531 8 126654555.774 2  98691892.934 8  24101578.23845
  23489972.695 4  23489993.090 8 123440609.146 4  96187563.505 8  23489991.34846
 23  3 10  3  6  5.0000000  0  7G04G08G16G26G27G28G31               
  21332914.008 6  21332924.328 9 112105204.944 6  87354736.555 9  21332923.54747
  20917246.109 6  20917259.477 9 109920872.972 6  85652649.315 9  20917258.24249
  21399232.461 6                 112453708.536 6  87626289.20648  21399239.25048
  22860829.992 1  22860844.930 8 120134434.443 1  93611322.764 8
  19963919.523 7  19963929.059 9 104911096.493 7  81748942.790 9  19963928.06649
  24103434.703 2  24103455.930 8 126664418.129 2  98699578.000 8  24103455.17645
  23491458.734 4  23491480.145 8 123448422.281 4  96193651.639 8  23491478.77046
 23  3 10  3  6 10.0000000  0  7G04G08G16G26G27G28G31               
  21331985.641 6  21331995.742 9 112100326.727 6  87350935.329 9  21331995.39148
  20914785.625 6  20914799.277 9 109907942.455 6  85642573.610 9  20914798.49649
  21399734.109 6                 112456345.612 6  87628344.06648  21399741.28948
  22861958.375 1  22861971.715 8 120140352.688 1  93615934.327 8
  19963522.195 7  19963532.168 9 104909012.289 7  81747318.732 9  19963531.49249
  24105313.188 1  24105334.789 8 126674289.03211  98707269.57318  24105333.05945
  23492947.898 5  23492968.281 8 123456244.124 5  96199746.576 8  23492967.16046
 23  3 10  3  6 15.0000000  0  6G04G08G16G27G28G31                  
  21331061.086 6  21331070.145 9 112095466.086 6  87347147.799 9  21331069.91048
  20912327.727 6  20912341.805 9 109895027.228 6  85632509.797 9  20912340.62949
  21400236.656 6                 112458986.981 6  87630402.25848  21400243.37948
  19963129.164 7  19963139.348 9 104906946.234 7  81745708.811 9  19963138.71549
  24107191.266 1  24107214.086 8 126684168.372 1  98714967.783 8  24107212.23445
  23494437.445 5  23494457.688 8 123464074.237 5  96205847.944 8  23494457.40646
 23  3 10  3  6 20.0000000  0  6G04G08G16G27G28G31                  
  21330139.305 6  21330148.930 9 112090622.046 6  87343373.188 9  21330148.40648
  20909872.867 6  20909886.762 9 109882126.372 6  85622457.203 9  20909885.88349
  21400739.922 6                 112461631.712 6  87632463.07348  21400747.20748
  19962739.047 7  19962749.570 9 104904897.346 7  81744112.269 9  19962748.59849
  24109073.539 1  24109096.039 8 126694054.946 1  98722671.626 8  24109093.76245
  23495928.820 4  23495949.375 8 123471911.619 4  96211954.996 8  23495948.51246
 23  3 10  3  6 25.0000000  0  6G04G08G16G27G28G31                  
  21329220.383 6  21329230.613 9 112085795.468 6  87339612.211 9  21329229.87148
  20907420.539 6  20907434.766 9 109869240.671 6  85612416.411 9  20907433.75849
  21401243.633 6                 112464280.611 6  87634527.15648  21401250.84848
  19962352.859 7  19962362.887 9 104902866.416 7  81742529.722 9  19962362.09849
  24110958.109 2  24110978.930 8 126703949.773 2  98730381.834 8  24110976.68445
  23497421.328 3  23497442.254 8 123479757.285 3  96218068.470 8  23497441.37546
 23  3 10  3  6 30.0000000  0  6G04G08G16G27G28G31                  
  21328305.789 6  21328315.445 9 112080988.261 6  87335866.313 9  21328314.89148
  20904972.211 6  20904985.414 9 109856371.942 6  85602388.837 9  20904984.65249
  21401749.195 6                 112466935.645 6  87636596.00348  21401756.03148
  19961969.914 7  19961980.000 9 104900855.423 7  81740962.707 9  19961979.19149
  24112842.250 1  24112863.758 8 126713854.557 1  98738099.899 8  24112861.44145
  23498916.578 4  23498936.473 8 123487612.926 4  96224189.763 8  23498935.65246
 23  3 10  3  6 35.0000000  0  7G04G08G09G16G27G28G31               
  21327394.922 6  21327404.719 9 112076199.071 6  87332134.469 9  21327403.87148
  20902526.055 6  20902539.980 9 109843519.099 6  85592373.646 9  20902538.73049
  23367431.492 1                                                
  21402255.391 6                 112469595.461 6  87638668.57448  21402261.89148
  19961591.422 7  19961601.078 9 104898863.019 7  81739410.170 9  19961600.42649
  24114727.375 1  24114749.859 8 126723768.104 1  98745824.727 8  24114747.80145
  23500412.789 4  23500433.496 8 123495477.441 4  96230317.948 8  23500432.13746
 23  3 10  3  6 40.0000000  0  7G04G08G09G16G27G28G31               
  21326486.883 6  21326496.891 9 112071427.264 6  87328416.153 9  21326495.84848
  20900082.750 6  20900096.816 9 109830681.246 6  85582370.138 9  20900095.50849
  23364904.383 1  23364917.848 8 122783433.06911  95675437.22718  23364918.64846
  21402762.320 6                 112472259.339 6  87640744.31947  21402769.44547
  19961215.336 7  19961225.406 9 104896888.509 7  81737871.578 9  19961224.84049
  24116618.063 1  24116638.156 8 126733689.811 1  98753555.934 8  24116635.32845
  23501911.742 5  23501932.082 8 123503349.963 5  96236452.430 8  23501930.71146
 23  3 10  3  6 45.0000000  0  7G04G08G09G16G27G28G31               
  21325582.422 6  21325592.035 9 112066672.569 6  87324711.183 9  21325591.34848
  20897643.063 6  20897656.750 9 109817858.353 6  85572378.273 9  20897655.62949
  23362385.727 1  23362399.512 8 122770187.461 1  95665116.021 8  23362399.97346
  21403269.531 6                 112474927.060 6  87642823.05948  21403276.78548
  19960843.000 7  19960853.016 9 104894931.645 7  81736346.743 9  19960852.38749
  24118506.664 2  24118527.750 8 126743619.238 2  98761293.108 8  24118525.03545
  23503411.609 5  23503430.664 8 123511230.314 5  96242592.968 8  23503429.80146
 23  3 10  3  6 50.0000000  0  7G04G08G09G16G27G28G31               
  21324680.258 6  21324690.508 9 112061935.399 6  87321019.861 9  21324689.41448
  20895205.750 6  20895219.859 9 109805050.786 6  85562398.354 9  20895218.75849
  23359868.633 1                                                
  21403778.016 6                 112477598.977 6  87644905.06348  21403785.09848
  19960474.352 7  19960483.949 9 104892992.778 7  81734835.936 9  19960483.44549
  24120398.484 1  24120418.359 8 126753556.858 1  98769036.743 8  24120415.91445
  23504913.016 5  23504932.801 8 123519118.934 5  96248739.962 8  23504931.61346
 23  3 10  3  6 55.0000000  0  6G04G08G16G27G28G31                  
  21323782.617 6  21323792.301 9 112057216.803 6  87317343.015 9  21323791.74648
  20892771.172 6  20892785.766 9 109792259.409 6  85552431.069 9  20892784.79349
  21404287.508 6                 112480276.167 6  87646991.17847  21404294.81647
  19960108.805 7  19960118.645 9 104891073.034 7  81733340.031 9  19960118.12549
  24122290.875 2  24122312.004 8 126763503.745 2  98776787.577 8  24122308.85245
  23506416.094 5  23506435.555 8 123527016.851 5  96254894.195 8  23506434.90646
 23  3 10  3  7  0.0000000  0  6G04G08G16G27G28G31                  
  21322887.633 6  21322897.410 9 112052516.082 6  87313680.104 9  21322897.08247
  20890340.328 6  20890354.066 9 109779483.769 6  85542476.056 9  20890353.33249
  21404797.805 6                 112482957.904 6  87649080.82748  21404805.35948
  19959747.469 7  19959757.082 9 104889171.667 7  81731858.438 9  19959756.27749
  24124185.672 1  24124206.395 8 126773459.164 1  98784545.080 8  24124203.47345
  23507919.633 4  23507939.980 8 123534923.365 4  96261055.088 8  23507939.32446
 23  3 10  3  7  5.0000000  0  7G04G08G09G16G27G28G31               
  21321996.406 6  21322005.965 9 112047831.261 6  87310029.575 9  21322005.94547
  20887911.789 6  20887925.570 9 109766721.756 6  85532531.638 9  20887924.72749
  23352334.461 2                                                
  21405308.508 6                 112485642.203 6  87651172.47947  21405316.01247
  19959388.391 7  19959398.410 9 104887286.691 7  81730389.621 9  19959397.88349
  24126079.984 1  24126101.559 7 126783421.145 1  98792307.655 7  24126098.90645
  23509425.813 4  23509445.602 8 123542836.492 4  96267221.145 8  23509445.51246
 23  3 10  3  7 10.0000000  0  7G04G08G09G16G27G28G31               
  21321108.727 6  21321118.227 9 112043164.042 6  87306392.768 9  21321117.69947
  20885485.883 6  20885500.141 9 109753975.098 6  85522599.186 9  20885498.96949
  23349825.727 3  23349836.281 8 122704185.66113  95613679.45918  23349837.00446
  21405819.898 6                 112488330.868 6  87653267.52147  21405827.62947
  19959033.523 7  19959043.152 9 104885419.866 7  81728934.947 9  19959042.48049
  24127977.570 1  24127999.320 8 126793391.440 1  98800076.799 8  24127996.41045
  23510932.547 4  23510952.930 8 123550757.923 4  96273393.697 8  23510952.67246
 23  3 10  3  7 15.0000000  0  7G04G08G09G16G27G28G31               
  21320224.055 6  21320233.227 9 112038514.537 6  87302769.754 9  21320232.82047
  20883063.430 6  20883077.520 9 109741243.966 6  85512678.840 9  20883076.39549
  23347319.125 2  23347333.234 8 122691025.137 2  95603424.542 8  23347334.73846
  21406332.414 6                 112491023.966 6  87655366.02647  21406340.04747
  19958681.391 7  19958691.355 9 104883571.237 7  81727494.452 9  19958690.68049
  24129875.906 1  24129898.102 7 126803370.055 1  98807852.364 7  24129895.26645
  23512441.531 4  23512461.855 8 123558687.832 4  96279572.856 8  23512461.59846
 23  3 10  3  7 20.0000000  0  7G04G08G09G16G27G28G31               
  21319342.789 6  21319351.582 9 112033883.813 6  87299161.372 9  21319351.39548
  20880644.336 6  20880657.805 9 109728529.383 6  85502771.392 9  20880656.85949
  23344817.641 1                                                
  21406846.336 6                 112493722.524 6  87657468.78047  21406853.88347
  19958333.695 7  19958343.066 9 104881741.856 7  81726068.952 9  19958342.56649
  24131776.664 1  24131798.098 7 126813358.169 1  98815635.305 7  24131795.76245
  23513952.094 4  23513972.660 8 123566627.204 4  96285759.395 8  23513972.12146
 23  3 10  3  7 25.0000000  0  6G04G08G16G27G28G31                  
  21318464.664 6  21318474.418 9 112029270.993 6  87295566.938 9  21318474.02348
  20878227.438 6  20878241.449 9 109715830.371 6  85492876.065 9  20878240.03549
  21407360.344 6                 112496425.578 6  87659575.03748  21407368.38748
  19957988.563 7  19957998.457 9 104879930.874 7  81724657.797 9  19957997.60949
  24133678.516 1  24133700.328 7 126823354.919 1  98823425.043 7  24133698.00045
  23515464.898 4  23515484.777 8 123574575.206 4  96291952.660 8  23515484.56346
 23  3 10  3  7 30.0000000  0  6G04G08G16G27G28G31                  
  21317590.008 6  21317599.605 9 112024674.387 6  87291985.178 9  21317598.91447
  20875813.477 6  20875827.461 9 109703145.301 6  85482991.595 9  20875826.62949
  21407874.828 6                 112499131.506 6  87661683.55747  21407883.57447
  19957647.227 7  19957656.793 9 104878136.608 7  81723259.656 9  19957656.00449
  24135583.219 1  24135603.238 7 126833358.433 1  98831220.084 7  24135602.31345
  23516978.625 4  23516999.031 8 123582530.176 4  96298151.302 8  23516998.33646
 23  3 10  3  7 35.0000000  0  6G04G08G16G27G28G31                  
  21316718.570 6  21316728.227 9 112020095.557 6  87288417.216 9  21316727.81648
  20873402.438 6  20873416.566 9 109690475.905 6  85473119.358 9  20873415.57449
  21408390.664 6                 112501841.861 6  87663795.51348  21408399.01248
  19957309.477 7  19957319.105 9 104876360.570 7  81721875.727 9  19957318.26649
  24137488.781 2  24137509.891 7 126843370.322 2  98839021.655 7  24137507.14545
  23518494.195 3  23518514.879 8 123590493.558 3  96304356.560 8  23518514.01246
 23  3 10  3  7 40.0000000  0  7G04G08G09G16G27G28G31               
  21315850.570 6  21315860.414 9 112015535.828 6  87284864.169 9  21315860.34848
  20870994.555 6  20871008.539 9 109677823.333 6  85463260.227 9  20871007.48449
  23334844.508 4  23334846.625 7 122625431.60014  95552313.50417  23334847.48847
  21408908.359 6                 112504557.958 6  87665911.92848  21408915.76648
  19956975.000 7  19956984.813 9 104874604.112 7  81720507.063 9  19956983.74649
  24139393.648 1  24139416.863 7 126853391.967 1  98846830.719 7
  23520011.898 4  23520031.684 8 123598466.714 4  96310569.439 8  23520030.38346
 23  3 10  3  7 45.0000000  0  6G04G08G09G16G27G31                  
  21314986.398 6  21314996.262 9 112010992.887 6  87281324.213 9  21314996.25448
  20868590.102 6  20868603.391 9 109665185.356 6  85453412.465 9  20868602.36749
  23332354.727 3  23332360.668 8 122612357.675 3  95542126.11318  23332360.89146
  21409425.820 6                 112507277.475 6  87668031.01348  21409433.41848
  19956644.203 7  19956654.262 9 104872864.923 7  81719151.847 9  19956653.43449
  23521530.422 4  23521550.266 8 123606447.481 4  96316788.235 8  23521549.23446
 23  3 10  3  7 50.0000000  0  6G04G08G09G16G27G31                  
  21314125.086 6  21314135.031 9 112006467.702 6  87277798.071 9  21314134.96947
  20866188.258 6  20866201.660 9 109652562.975 6  85443576.848 9  20866200.46949
  23329868.203 2  23329876.539 8 122599298.188 2  95531949.954 8  23329876.89147
  21409944.391 6                 112510001.405 6  87670153.54248  21409951.64848
  19956316.516 7  19956326.559 9 104871143.949 7  81717810.815 9  19956325.83249
  23523050.047 3  23523071.191 8 123614436.589 3  96323013.464 8  23523070.01646
 23  3 10  3  7 55.0000000  0  6G04G08G09G16G27G31                  
  21313267.680 6  21313277.637 9 112001960.061 6  87274285.615 9  21313277.14547
  20863788.805 6  20863802.922 9 109639956.030 6  85433753.277 9  20863801.69549
  23327392.344 1  23327394.980 8 122586252.96111  95521784.86818  23327395.76646
  21410463.555 6                 112512729.535 6  87672279.35448  21410470.90248
  19955992.789 7  19956002.605 9 104869440.986 7  81716483.823 9  19956001.88349
  23524572.063 4  23524592.813 8 123622434.000 4  96329245.227 8  23524591.73446
 23  3 10  3  8  0.0000000  0  5G04G08G16G27G31                     
  21312413.008 6  21312423.313 9 111997470.312 6  87270787.094 9  21312422.92647
  20861392.547 6  20861407.098 9 109627364.635 6  85423941.808 9  20861405.76249
  21410983.016 6                 112515462.165 6  87674408.66248  21410990.85948
  19955672.109 7  19955682.129 9 104867756.352 7  81715171.113 9  19955681.81649
  23526095.180 3  23526116.961 8 123630439.857 3  96335483.569 8  23526116.19946
 23  3 10  3  8  5.0000000  0  6G04G08G16G27G28G31                  
  21311562.641 6  21311572.973 9 111992999.871 6  87267303.612 9  21311572.42247
  20858999.844 6  20859013.816 9 109614790.436 6  85414143.749 9  20859012.41449
  21411504.484 6                 112518200.712 6  87676542.58047  21411512.24647
  19955354.969 7  19955364.902 9 104866091.458 7  81713873.785 9  19955364.16449
  24148955.523 1                 126903627.83911                
  23527620.688 3  23527641.637 8 123638455.769 3  96341729.806 8  23527640.73446
 23  3 10  3  8 10.0000000  0  6G04G08G16G27G28G31                  
  21310715.617 6  21310725.359 9 111988547.798 6  87263834.431 9  21310724.93048
  20856610.430 6  20856623.574 9 109602232.472 6  85404358.334 9  20856622.19149
  21412026.250 6                 112520944.267 6  87678680.40448  21412034.18448
  19955042.008 7  19955052.102 9 104864445.416 7  81712591.146 9  19955051.32849
  24150871.063 1                                                
  23529148.055 3  23529169.059 8 123646480.778 3  96347983.016 8  23529168.71946
 23  3 10  3  8 15.0000000  0  7G04G08G09G16G27G28G31               
  21309871.539 6  21309881.297 9 111984112.465 6  87260378.301 9  21309880.91448
  20854223.406 6  20854237.223 9 109589689.028 6  85394584.236 9  20854235.68849
  23317483.688 3                 122534255.74413                
  21412549.039 6                 112523691.142 6  87680820.82648  21412556.98048
  19954731.852 7  19954741.961 9 104862816.496 7  81711321.856 9  19954741.37149
  24152789.656 1  24152810.508 8 126923781.61411  98901724.97918
  23530676.133 3  23530697.688 8 123654513.289 3  96354242.126 8  23530697.22346
 23  3 10  3  8 20.0000000  0  8G04G08G09G16G26G27G28G31            
  21309030.758 6  21309041.141 9 111979695.193 6  87256936.255 9  21309040.52747
  20851839.516 6  20851853.008 9 109577161.515 6  85384822.552 9  20851851.09449
  23315017.422 2  23315027.172 8 122521284.602 2  95471137.49318  23315024.74246
  21413073.266 6                 112526442.684 6  87682964.85748  21413080.62148
  22891313.664 1                 120294650.76111                
  19954425.758 7  19954435.000 9 104861206.104 7  81710067.007 9  19954434.64549
  24154709.641 1  24154728.430 7 126933870.865 1  98909586.735 7
  23532207.414 5  23532226.965 8 123662554.487 5  96360508.005 8  23532227.34846
 23  3 10  3  8 25.0000000  0  8G04G08G09G16G26G27G28G31            
  21308193.813 6  21308203.445 9 111975295.237 6  87253507.693 9  21308202.91447
  20849458.750 6  20849472.004 9 109564649.200 6  85375072.713 9  20849470.37549
  23312551.234 2  23312562.000 8 122508327.661 2  95461041.138 8  23312562.02746
  21413598.039 6                 112529198.137 6  87685111.95748  21413604.54348
  22892445.797 1  22892463.512 7 120300600.028 1  93740816.08117
  19954122.773 7  19954132.199 9 104859613.482 7  81708825.984 9  19954131.33249
  24156629.852 1  24156649.500 7 126943968.077 1  98917454.619 7
  23533739.688 5  23533759.164 8 123670603.804 5  96366780.231 8  23533759.05546
 23  3 10  3  8 30.0000000  0  8G04G08G09G16G26G27G28G31            
  21307359.508 6  21307369.543 9 111970912.327 6  87250092.416 9  21307369.13747
  20847080.820 6  20847093.926 9 109552151.802 6  85365334.482 9  20847092.50849
  23310086.438 1  23310098.313 8 122495384.41811  95450955.49818  23310099.21146
  21414122.563 6                 112531957.200 6  87687261.87148  21414129.85248
  22893579.117 1  22893594.297 7 120306549.741 1  93745452.150 7
  19953823.102 7  19953832.434 9 104858038.289 7  81707598.561 9  19953831.52749
  24158549.836 1                                                
  23535271.484 3  23535292.590 8 123678660.779 3  96373058.416 8  23535291.95346
 23  3 10  3  8 35.0000000  0  7G04G08G09G16G26G27G31               
  21306528.102 6  21306538.613 9 111966545.966 6  87246690.020 9  21306538.26248
  20844705.281 6  20844718.445 9 109539668.872 6  85355607.532 9  20844716.91449
  23307620.477 1                                                
  21414648.023 6                 112534719.382 6  87689414.19348  21414655.04348
  22894712.508 1  22894726.281 8 120312499.372 1  93750088.148 8
  19953526.188 7  19953536.270 9 104856480.080 7  81706384.368 9  19953535.23849
  23536807.383 5  23536826.035 8 123686724.992 5  96379342.258 8  23536825.85546
 23  3 10  3  8 40.0000000  0  7G04G08G09G16G26G27G31               
  21305700.953 6  21305710.660 9 111962196.517 6  87243300.827 9  21305710.52747
  20842332.734 6  20842345.539 9 109527200.599 6  85345892.019 9  20842344.10549
  23305164.695 1  23305179.289 8 122469538.46511  95430815.55418  23305181.06346
  21415174.148 6                 112537485.085 6  87691569.27248  21415181.94948
  22895843.180 1  22895860.656 8 120318449.421 1  93754724.572 8
  19953232.922 7  19953242.621 9 104854939.189 7  81705183.670 9  19953241.88349
  23538343.273 5  23538362.871 8 123694796.813 5  96385631.935 8  23538362.49646
 23  3 10  3  8 45.0000000  0  7G04G08G09G16G26G27G31               
  21304876.734 6  21304886.797 9 111957865.484 6  87239925.969 9  21304886.25047
  20839962.922 6  20839976.012 9 109514748.551 6  85336189.141 9  20839974.71549
  23302711.797 2  23302723.230 7 122456637.455 2  95420762.884 7  23302722.90646
  21415701.836 6                 112540255.804 6  87693728.27148  21415708.93048
  22896971.867 1  22896993.492 8 120324401.29811  93759362.32518
  19952943.422 7  19952953.105 9 104853417.126 7  81703997.656 9  19952951.95749
  23539880.641 4  23539899.805 7 123702877.801 4  96391928.850 7  23539899.57046
 23  3 10  3  8 50.0000000  0  7G04G08G09G16G26G27G31               
  21304055.602 6  21304065.129 9 111953551.718 6  87236564.561 9  21304064.76248
  20837596.039 6  20837609.652 9 109502311.645 6  85326498.051 9  20837608.05949
  23300259.477 1  23300266.484 7 122443750.472 1  95410721.154 7  23300267.15246
  21416229.078 6                 112543030.329 6  87695890.21248  21416236.65648
  22898104.391 1                                                
  19952656.992 7  19952666.805 9 104851912.733 7  81702825.390 9  19952665.97349
  23541419.891 4  23541438.992 7 123710966.713 4  96398231.903 7  23541438.75046
 23  3 10  3  8 55.0000000  0  7G04G08G09G16G27G28G31               
  21303238.102 6  21303247.652 9 111949254.162 6  87233215.795 9  21303247.62147
  20835232.633 6  20835245.762 9 109489888.924 6  85316818.017 9  20835244.74649
  23297811.516 1  23297817.461 7 122430876.66111  95400689.81317  23297817.21146
  21416757.914 6                 112545807.679 6  87698054.38048  21416765.35248
  19952374.063 7  19952383.613 9 104850424.992 7  81701666.100 9  19952382.65649
  24168186.594 1  24168207.063 7 127004707.49511  98964767.61217
  23542960.391 3  23542978.840 8 123719062.513 3  96404540.377 8  23542979.10946
 23  3 10  3  9  0.0000000  0  7G04G08G09G16G27G28G31               
  21302423.383 6  21302433.305 9 111944973.630 6  87229880.282 9  21302432.84447
  20832870.883 6  20832884.348 9 109477481.111 6  85307149.605 9  20832882.85249
  23295361.008 1                                                
  21417287.047 6                 112548588.590 6  87700221.29148  21417294.74248
  19952094.547 7  19952103.992 9 104848954.592 7  81700520.334 9  19952102.82449
  24170120.195 1                 127014858.339 1                
  23544502.945 3  23544521.641 8 123727166.040 3  96410854.805 8  23544521.15646
 23  3 10  3  9  5.0000000  0  7G04G08G09G16G27G28G31               
  21301612.398 6  21301622.883 9 111940711.904 6  87226559.449 9  21301622.16447
  20830512.984 6  20830526.789 9 109465090.063 6  85297494.240 9  20830525.28549
  23292914.891 2                                                
  21417817.367 6                 112551374.872 6  87702392.42648  21417824.54748
  19951818.352 7  19951827.688 9 104847503.435 7  81699389.560 9  19951826.94149
  24172055.766 1                                                
  23546046.438 4  23546065.875 8 123735279.028 4  96417176.642 8  23546064.74246
 23  3 10  3  9 10.0000000  0  8G04G08G09G16G26G27G28G31            
  21300805.242 6  21300815.121 9 111936467.449 6  87223252.064 9  21300815.24648
  20828157.797 6  20828171.375 9 109452714.228 6  85287850.752 9  20828170.14549
  23290476.063 1                                                
  21418348.250 6                 112554165.006 6  87704566.53248  21418355.92648
  22902639.203 1                                                
  19951545.563 7  19951555.348 9 104846069.928 7  81698272.537 9  19951554.50049
  24173989.547 1                                                
  23547591.914 4  23547610.887 8 123743399.989 4  96423504.663 8  23547609.62946
 23  3 10  3  9 15.0000000  0  8G04G08G09G16G26G27G28G31            
  21300001.008 6  21300010.785 9 111932241.598 6  87219959.178 9  21300010.71548
  20825805.891 6  20825819.918 9 109440354.866 6  85278220.093 9  20825818.29749
  23288038.414 2  23288051.656 8 122379529.17812  95360677.99918  23288053.52747
  21418880.258 6                 112556960.276 6  87706744.64948  21418887.84048
  22903771.328 1  22903791.891 8 120360125.15711  93787199.23218
  19951276.383 7  19951285.871 9 104844655.397 7  81697170.299 9  19951285.01249
  24175924.242 1                                                
  23549138.211 4  23549157.539 8 123751530.263 4  96429839.937 8  23549157.19546
 23  3 10  3  9 20.0000000  0  8G04G08G09G16G26G27G28G31            
  21299200.109 6  21299210.031 9 111928033.420 6  87216680.060 9  21299209.86748
  20823456.797 6  20823471.082 9 109428010.973 6  85268601.474 9  20823469.50449
  23285603.977 2  23285614.898 8 122366728.823 2  95350703.694 8  23285617.64547
  21419413.078 6                 112559759.776 6  87708926.06748  21419420.40648
  22904902.844 1  22904925.246 7 120366083.94811  93791842.52117
  19951010.586 7  19951020.113 9 104843258.912 7  81696082.132 9  19951019.55149
  24177864.875 1                 127055549.56011                
  23550687.859 3  23550707.145 8 123759668.893 3  96436181.719 8  23550706.48446
 23  3 10  3  9 25.0000000  0  8G04G08G09G16G26G27G28G31            
  21298402.336 6  21298411.938 9 111923841.393 6  87213413.511 9  21298411.78148
  20821110.531 6  20821124.254 9 109415681.279 6  85258993.941 9  20821123.07049
  23283167.781 1  23283180.359 8 122353941.468 1  95340739.548 8  23283182.05946
  21419946.680 6                 112562561.995 6  87711109.59248  21419953.98448
  22906036.992 1  22906059.086 7 120372042.42211  93796485.38817
  19950747.805 7  19950757.672 9 104841878.953 7  81695006.834 9  19950757.05549
  24179804.625 1  24179820.906 6 127065741.725 1  99012325.40816
  23552237.391 4  23552256.395 8 123767814.377 4  96442528.854 8  23552256.06646
 23  3 10  3  9 30.0000000  0  8G04G08G09G16G26G27G28G31            
  21297608.414 6  21297618.293 9 111919667.786 6  87210161.334 9  21297617.99248
  20818767.719 6  20818780.996 9 109403367.813 6  85249399.038 9  20818779.83249
  23280734.617 1                                                
  21420480.539 6                 112565369.162 6  87713296.99148  21420487.72748
  22907174.641 1  22907192.055 7 120378002.565 1  93801129.594 7
  19950489.172 7  19950498.637 9 104840517.784 7  81693946.170 9  19950497.73449
  24181746.305 1  24181761.559 6 127075942.959 1  99020274.416 6
  23553789.016 4  23553809.352 8 123775968.951 4  96448883.075 8  23553808.06646
 23  3 10  3  9 35.0000000  0  8G04G08G09G16G26G27G28G31            
  21296817.523 6  21296827.523 9 111915511.702 6  87206922.800 9  21296827.22748
  20816427.484 6  20816441.055 9 109391069.733 6  85239816.130 9  20816439.72749
  23278307.516 1                                                
  21421015.430 6                 112568180.373 6  87715487.52648  21421023.28148
  22908307.055 1                                                
  19950233.539 7  19950243.195 9 104839174.488 7  81692899.452 9  19950242.54349
  24183687.859 1                                                
  23555343.250 4  23555362.879 8 123784131.714 4  96455243.699 8  23555361.24646
 23  3 10  3  9 40.0000000  0  8G04G08G09G16G26G27G28G31            
  21296030.047 6  21296040.242 9 111911373.194 6  87203697.968 9  21296039.43047
  20814090.383 6  20814103.633 9 109378787.143 6  85230245.292 9  20814102.05549
  23275883.969 2  23275897.430 8 122315668.79612  95310916.73318  23275895.34846
  21421551.422 6                 112570995.736 6  87717681.29848  21421558.84848
  22909440.336 1                                                
  19949981.250 7  19949990.555 9 104837849.142 7  81691866.695 9  19949989.94549
  24185632.617 1  24185650.293 7 127096369.75711  99036191.51617
  23556897.750 5  23556917.484 8 123792302.730 5  96461610.716 8  23556915.98046
 23  3 10  3  9 45.0000000  0  8G04G08G09G16G26G27G28G31            
  21295245.578 6  21295255.680 9 111907251.792 6  87200486.455 9  21295254.91448
  20811755.695 6  20811769.078 9 109366519.707 6  85220686.278 9  20811767.32049
  23273463.836 2  23273476.777 8 122302939.612 2  95300997.901 8  23273475.23446
  21422087.086 6                 112573814.682 6  87719877.86748  21422095.15648
  22910578.266 1  22910594.227 7 120395888.81311  93815066.64017
  19949732.523 7  19949741.633 9 104836541.215 7  81690847.522 9  19949741.05549
  24187577.930 1  24187596.824 7 127106595.006 1  99044159.212 7
  23558453.734 4  23558473.277 8 123800481.534 4  96467983.802 8  23558472.25446
 23  3 10  3  9 50.0000000  0  8G04G08G09G16G26G27G28G31            
  21294464.766 6  21294475.039 9 111903148.622 6  87197289.167 9  21294474.39548
  20809424.570 6  20809437.953 9 109354268.477 6  85211139.878 9  20809436.30549
  23271046.180 2  23271056.941 8 122290225.551 2  95291090.800 8  23271056.69147
  21422624.984 6                 112576638.345 6  87722078.12048  21422632.76648
  22911712.773 1  22911729.988 7 120401853.130 1  93819714.063 7
  19949486.398 7  19949496.488 9 104835251.891 7  81689842.848 9  19949495.52049
  24189523.578 1  24189545.449 6 127116828.86111  99052133.49116
  23560011.984 4  23560031.531 8 123808669.196 4  96474363.824 8  23560030.73046
 23  3 10  3  9 55.0000000  0  8G04G08G09G16G26G27G28G31            
  21293687.523 6  21293697.328 9 111899061.776 6  87194104.583 9  21293696.61748
  20807094.977 6  20807109.363 9 109342031.491 6  85201604.572 9  20807107.87949
  23268626.094 1  23268640.160 8 122277524.733 1  95281194.063 8  23268640.40246
  21423162.992 6                 112579464.868 6  87724280.59248  21423170.47748
  22912847.367 2  22912865.477 7 120407817.313 2  93824361.499 7
  19949244.477 7  19949254.418 9 104833979.228 7  81688851.153 9  19949253.49649
  24191470.641 1  24191494.977 7 127127069.742 1  99060113.484 7
  23561571.203 4  23561590.613 8 123816863.892 4  96480749.315 8  23561589.76246
 23  3 10  3 10  0.0000000  0  6G04G08G16G26G27G31                  
  21292913.219 6  21292923.047 9 111894993.437 6  87190934.421 9  21292922.23848
  20804770.430 6  20804783.445 9 109329810.971 6  85192082.103 9  20804782.65649
  21423701.969 6                 112582296.396 6  87726486.96748  21423709.05548
  22913983.109 1  22913999.766 7 120413783.494 1  93829010.475 7
  19949006.172 7  19949015.852 9 104832725.400 7  81687874.152 9  19949015.04749
  23563131.656 4  23563152.512 8 123825067.776 4  96487141.954 8  23563151.37146
 23  3 10  3 10  5.0000000  0  6G04G08G16G26G27G31                  
  21292142.203 6  21292152.426 9 111890943.018 6  87187778.224 9  21292151.88747
  20802447.766 6  20802461.176 9 109317606.180 6  85182571.898 9  20802459.93049
  21424241.898 6                 112585132.302 6  87728696.74248  21424249.12948
  22915116.602 1                                                
  19948770.805 7  19948780.566 9 104831489.848 7  81686911.371 9  19948779.67649
  23564694.695 4  23564714.797 8 123833280.275 4  96493541.288 8  23564714.35246
 23  3 10  3 10 10.0000000  0  6G04G08G16G26G27G31                  
  21291374.953 6  21291385.059 9 111886908.945 6  87184634.766 9  21291384.26648
  20800127.836 6  20800141.180 9 109305415.910 6  85173072.980 9  20800140.09049
  21424781.758 6                 112587971.096 6  87730908.76547  21424789.24247
  22916254.234 1  22916271.070 7 120425718.22211  93838310.12617
  19948538.867 7  19948548.410 9 104830270.932 7  81685961.556 9  19948547.93849
  23566258.219 4  23566279.348 8 123841499.811 4  96499946.099 8  23566278.60246
 23  3 10  3 10 15.0000000  0  7G04G08G09G16G26G27G31               
  21290610.680 6  21290620.324 9 111882892.730 6  87181505.211 9  21290619.92248
  20797811.148 6  20797824.695 9 109293241.413 6  85163586.372 9  20797823.56649
  23258990.031 3                 122226868.31713                
  21425322.625 6                 112590814.190 6  87733124.15848  21425330.18048
  22917390.438 1  22917406.777 7 120431687.89411  93842960.87717
  19948310.328 7  19948320.387 9 104829070.218 7  81685025.934 9  19948319.58649
  23567824.102 4  23567845.336 8 123849727.829 4  96506357.555 8  23567844.87146
 23  3 10  3 10 20.0000000  0  8G04G08G09G16G26G27G28G31            
  21289849.648 6  21289859.742 9 111878895.119 6  87178390.177 9  21289858.93448
  20795498.430 6  20795511.367 9 109281083.463 6  85154112.659 9  20795510.44149
  23256586.922 3  23256594.695 7 122214241.410 3  95231866.18917  23256593.19547
  21425864.773 6                 112593662.445 6  87735343.56448  21425872.38348
  22918527.125 1  22918544.613 7 120437658.468 1  93847613.286 7
  19948085.320 7  19948095.352 9 104827888.422 7  81684105.042 9  19948094.56649
  24201244.063 1                 127178386.96211                
  23569391.344 4  23569412.594 8 123857965.123 4  96512776.257 8  23569412.07046
 23  3 10  3 10 25.0000000  0  8G04G08G09G16G26G27G28G31            
  21289092.227 6  21289102.230 9 111874915.011 6  87175288.771 9  21289101.77748
  20793187.211 6  20793200.484 9 109268940.988 6  85144651.002 9  20793199.25049
  23254185.906 3  23254195.324 8 122201628.930 3  95222038.308 8  23254194.75047
  21426407.383 6                 112596514.688 6  87737566.07748  21426414.67648
  22919663.234 1  22919681.574 7 120443630.091 1  93852266.422 7
  19947863.922 7  19947873.754 9 104826724.427 7  81683198.030 9  19947873.28949
  24203200.219 1                 127188677.815 1                
  23570959.898 3  23570981.281 8 123866210.677 3  96519201.352 8  23570980.98846
 23  3 10  3 10 30.0000000  0  8G04G08G09G16G26G27G28G31            
  21288338.094 6  21288348.129 9 111870950.855 6  87172199.793 9  21288347.59048
  20790879.219 6  20790892.344 9 109256812.491 6  85135200.224 9  20790891.30149
  23251787.891 1  23251798.730 8 122189029.456 1  95212220.490 8  23251798.46946
  21426950.703 6                 112599369.360 6  87739790.47748  21426958.27348
  22920799.672 1  22920818.344 7 120449601.070 1  93856919.051 7
  19947645.398 7  19947655.398 9 104825576.707 7  81682303.697 9  19947654.52049
  24205161.031 1                 127198975.133 1                
  23572531.242 4  23572551.809 8 123874462.785 4  96525631.578 8  23572551.53946
 23  3 10  3 10 35.0000000  0  8G04G08G09G16G26G27G28G31            
  21287586.258 6  21287596.566 9 111867002.017 6  87169122.750 9  21287595.94948
  20788573.781 6  20788586.488 9 109244697.189 6  85125759.740 9  20788585.58649
  23249387.836 1                                                
  21427494.477 6                 112602225.806 6  87742016.26248  21427501.46548
  22921935.773 1  22921953.738 7 120455570.813 1  93861570.735 7
  19947430.055 7  19947439.914 9 104824444.590 7  81681421.524 9  19947439.06349
  24207122.984 1  24207140.504 7 127209278.328 1  99124188.66017
  23574102.688 4  23574123.578 8 123882720.896 4  96532066.496 8  23574123.11346
 23  3 10  3 10 40.0000000  0  8G04G08G09G16G26G27G28G31            
  21286838.844 6  21286849.063 9 111863073.146 6  87166061.257 9  21286848.41048
  20786272.016 6  20786284.781 9 109232599.932 6  85116333.324 9  20786283.84049
  23246997.813 1  23247011.891 8 122163872.11011  95192617.17818  23247011.32846
  21428039.328 6                 112605088.732 6  87744247.10548  21428046.48448
  22923072.102 1  22923089.641 7 120461543.903 1  93866225.050 7
  19947218.422 7  19947227.969 9 104823332.720 7  81680555.121 9  19947227.08249
  24209083.320 1  24209102.547 7 127219592.035 1  99132225.309 7
  23575675.555 4  23575697.602 8 123890989.661 4  96538509.707 8  23575696.94946
 23  3 10  3 10 45.0000000  0  8G04G08G09G16G26G27G28G31            
  21286094.617 6  21286104.500 9 111859161.887 6  87163013.516 9  21286104.24248
  20783973.281 6  20783985.832 9 109220518.247 6  85106919.038 9  20783984.95749
  23244610.891 2  23244621.723 8 122151316.477 2  95182833.540 8  23244621.00847
  21428584.461 6                 112607955.756 6  87746481.13148  21428592.03148
  22924204.711 1                                                
  19947010.047 7  19947019.984 9 104822238.810 7  81679702.722 9  19947018.91849
  24211045.313 1  24211065.309 7 127229913.97611  99140268.40617
  23577251.094 4  23577272.621 8 123899266.727 4  96544959.381 8  23577271.92246
 23  3 10  3 10 50.0000000  0  8G04G08G09G16G26G27G28G31            
  21285353.570 6  21285363.734 9 111855267.780 6  87159979.119 9  21285363.16448
  20781676.734 7  20781689.289 9 109208451.754 7  85097516.576 9  20781688.76249
  23242226.891 1  23242235.840 8 122138774.934 1  95173060.966 8  23242233.24646
  21429130.719 6                 112610826.365 6  87748717.95848  21429138.20348
  22925343.063 1  22925363.859 7 120473492.90811  93875535.85217
  19946805.352 7  19946814.980 9 104821162.313 7  81678863.882 9  19946814.12149
  24213012.625 1  24213032.633 7 127240243.51211  99148317.36817
  23578828.086 4  23578848.938 8 123907551.574 4  96551415.104 8  23578848.55946
 23  3 10  3 10 55.0000000  0  8G04G08G09G16G26G27G28G31            
  21284616.281 6  21284625.797 9 111851391.251 6  87156958.426 9  21284625.48448
  20779383.500 6  20779396.367 9 109196400.906 6  85088126.311 9  20779395.38749
  23239840.539 1  23239850.457 7 122126248.072 1  95163299.857 7  23239848.27746
  21429678.070 6                 112613700.991 6  87750957.91548  21429685.50848
  22926482.406 1  22926502.664 7 120479468.79711  93880192.30717
  19946604.008 7  19946614.020 9 104820103.681 7  81678038.975 9  19946613.03149
  24214981.000 1                                                
  23580406.492 4  23580426.988 8 123915844.702 4  96557877.317 8  23580426.34046
 23  3 10  3 11  0.0000000  0  8G04G08G09G16G26G27G28G31            
  21283881.688 6  21283891.414 9 111847531.104 6  87153950.493 9  21283890.94948
  20777093.000 7  20777106.699 9 109184364.409 7  85078747.236 9  20777105.26649
  23237455.742 1  23237469.473 8 122113734.536 1  95153549.059 8  23237467.41846
  21430226.172 6                 112616578.459 6  87753200.07448  21430232.78148
  22927621.508 1                                                
  19946405.742 7  19946415.789 9 104819061.695 7  81677227.033 9  19946414.51649
  24216948.000 1                                                
  23581985.961 5  23582006.707 8 123924144.845 5  96564344.979 8  23582006.04746
 23  3 10  3 11  5.0000000  0  8G04G08G09G16G26G27G28G31            
  21283150.828 6  21283160.277 9 111843689.166 6  87150956.756 9  21283159.50448
  20774805.547 7  20774818.867 9 109172344.235 7  85069380.880 9  20774817.73049
  23235076.867 1  23235091.695 8 122101236.379 1  95143810.188 8  23235089.65246
  21430774.313 6                 112619460.587 6  87755445.88048  21430781.37148
  22928757.516 1  22928773.996 7 120491421.83411  93889506.27917
  19946210.852 7  19946220.832 9 104818038.210 7  81676429.500 9  19946219.55549
  24218919.539 1  24218935.844 7 127271279.14211  99172500.91517
  23583566.406 5  23583587.813 8 123932453.882 5  96570819.558 8  23583586.95346
 23  3 10  3 11 10.0000000  0  8G04G08G09G16G26G27G28G31            
  21282422.938 6  21282432.629 9 111839866.233 6  87147977.821 9  21282431.93448
  20772521.617 7  20772534.734 9 109160340.945 7  85060027.673 9  20772533.52349
  23232703.063 1  23232717.109 8 122088754.164 1  95134083.709 8  23232715.77746
  21431323.352 6                 112622348.159 6  87757695.91647  21431330.33647
  22929894.789 1  22929911.008 7 120497401.611 1  93894165.734 7
  19946020.109 7  19946029.953 9 104817033.968 7  81675646.965 9  19946028.80949
  24220891.219 1  24220909.719 7 127281641.96611  99180575.84017
  23585149.938 4  23585170.762 8 123940772.610 4  96577301.690 8  23585169.98446
 23  3 10  3 11 15.0000000  0  8G04G08G09G16G26G27G28G31            
  21281698.539 6  21281708.898 9 111836059.805 6  87145011.747 9  21281708.07848
  20770240.289 7  20770253.715 9 109148352.348 7  85050685.911 9  20770252.37549
  23230331.188 1  23230344.656 8 122076285.487 1  95124367.851 8  23230343.92246
  21431873.875 6                 112625238.661 6  87759948.23247  21431880.76247
  22931033.641 1  22931048.840 7 120503381.321 1  93898825.284 7
  19945832.297 7  19945841.844 9 104816046.499 7  81674877.507 9  19945840.87149
  24222866.109 1  24222883.586 7 127292011.738 1  99188656.186 7
  23586734.047 5  23586754.715 8 123949098.469 5  96583789.373 8  23586753.84846
 23  3 10  3 11 20.0000000  0  8G04G08G09G16G26G27G28G31            
  21280977.305 6  21280987.820 9 111832270.969 6  87142059.390 9  21280986.62948
  20767961.148 6  20767974.926 9 109136379.435 6  85041356.375 9  20767973.10249
  23227961.203 1  23227974.039 8 122063831.425 1  95114663.292 8  23227974.29346
  21432424.820 6                 112628133.260 6  87762203.76048  21432431.28148
  22932172.055 1  22932187.582 7 120509362.175 1  93903485.695 7
  19945647.570 7  19945657.172 9 104815076.924 7  81674122.001 9  19945656.25849
  24224841.828 1  24224856.512 6 127302389.649 1  99196742.795 6
  23588320.109 4  23588341.027 8 123957432.609 4  96590283.538 8  23588340.35546
 23  3 10  3 11 25.0000000  0  8G04G08G09G16G26G27G28G31            
  21280260.531 6  21280270.523 9 111828500.325 6  87139121.173 9  21280269.84048
  20765685.922 7  20765699.508 9 109124422.621 7  85032039.379 9  20765698.05149
  23225592.148 1  23225607.098 8 122051392.763 1  95104970.836 8  23225607.47747
  21432976.156 6                 112631032.447 6  87764462.84147  21432983.00447
  22933312.391 1  22933327.738 7 120515344.56111  93908147.16717
  19945466.484 7  19945476.488 9 104814125.739 7  81673380.796 9  19945475.73449
  24226812.195 1  24226833.930 7 127312776.14811  99204836.27217
  23589907.828 3  23589928.227 8 123965775.619 3  96596784.580 8  23589926.75046
 23  3 10  3 11 30.0000000  0  8G04G08G09G16G26G27G28G31            
  21279545.891 6  21279555.801 9 111824747.251 6  87136196.696 9  21279554.85548
  20763413.633 7  20763427.551 9 109112481.559 7  85022734.669 9  20763426.07449
  23223228.305 1  23223242.977 8 122038968.623 1  95095289.688 8  23223243.08646
  21433528.180 6                 112633935.624 6  87766725.06047  21433535.46547
  22934451.516 1  22934466.863 7 120521328.111 1  93912809.614 7
  19945288.938 7  19945299.480 9 104813192.426 7  81672653.542 9  19945298.03949
  24228792.531 1                                                
  23591496.867 3  23591517.828 8 123974126.837 3  96603292.063 8  23591516.48046
 23  3 10  3 11 35.0000000  0  7G04G08G16G26G27G28G31               
  21278834.844 6  21278845.648 9 111821010.896 6  87133285.265 9  21278845.00048
  20761144.031 6  20761157.648 9 109100555.129 6  85013441.357 9  20761156.12149
  21434081.602 6                 112636841.959 6  87768989.70747  21434089.30547
  22935586.398 1  22935604.836 7 120527311.678 1  93917472.100 7
  19945114.781 7  19945124.430 9 104812276.055 7  81671939.484 9  19945123.77049
  24230771.828 1  24230794.539 7 127333572.84311  99221041.52817
  23593087.656 4  23593108.348 8 123982485.471 4  96609805.264 8  23593107.39146
 23  3 10  3 11 40.0000000  0  7G04G08G16G26G27G28G31               
  21278127.039 6  21278137.227 9 111817291.363 6  87130386.887 9  21278137.06347
  20758877.719 6  20758891.176 9 109088643.615 6  85004159.654 9  20758889.84449
  21434635.219 6                 112639751.511 6  87771256.88047  21434642.15647
  22936723.336 1                                                
  19944943.352 7  19944953.633 9 104811376.725 7  81671238.689 9  19944952.96149
  24232752.914 1  24232774.980 7 127343982.009 1  99229152.539 7
  23594679.609 3  23594700.199 8 123990851.487 3  96616324.246 8  23594699.01246
 23  3 10  3 11 45.0000000  0  7G04G08G09G16G27G28G31               
  21277422.688 6  21277432.895 9 111813589.243 6  87127502.098 9  21277432.44548
  20756613.594 6  20756627.141 9 109076747.591 6  84994890.044 9  20756625.99249
  23216151.172 1                 122001778.89611  95066303.63156  23216165.34846
  21435189.836 6                 112642664.914 6  87773527.05548  21435196.97748
  19944775.898 7  19944786.117 9 104810495.062 7  81670551.672 9  19944785.19549
  24234734.688 1  24234756.539 7 127354399.18611  99237269.86117
  23596273.234 4  23596294.086 8 123999225.664 4  96622849.600 8  23596292.29746
 23  3 10  3 11 50.0000000  0  7G04G08G09G16G26G27G31               
  21276721.914 6  21276731.652 9 111809906.063 6  87124632.069 9  21276731.50848
  20754353.438 6  20754367.047 9 109064868.576 6  84985633.688 9  20754365.95749
  23213798.844 1  23213811.461 8 121989413.07211  95056672.76518  23213811.70746
  21435745.156 6                 112645583.706 6  87775801.41147  21435752.10947
  22939005.438 1                 120545264.60011                
  19944611.648 7  19944621.188 9 104809632.553 7  81669879.593 9  19944620.58649
  23597868.438 4  23597888.969 8 124007609.365 4  96629382.336 8  23597888.12546
 23  3 10  3 11 55.0000000  0  7G04G08G09G16G26G27G31               
  21276024.156 6  21276034.574 9 111806239.922 6  87121775.311 9  21276034.50848
  20752096.195 6  20752109.590 9 109053004.628 6  84976389.060 9  20752108.87149
  23211449.734 2  23211461.852 8 121977061.298 2  95047048.064 8  23211461.75846
  21436300.508 6                 112648505.938 6  87778078.47047  21436308.34047
  22940143.242 1                 120551252.401 1                
  19944451.086 7  19944460.742 9 104808787.329 7  81669220.975 9  19944459.94149
  23599465.492 4  23599486.430 8 124016000.894 4  96635921.186 8  23599485.14546
 23  3 10  3 12  0.0000000  0  7G04G08G09G16G26G27G31               
  21275330.039 6  21275339.691 9 111802591.387 6  87118932.282 9  21275339.46148
  20749840.992 6  20749854.848 9 109041156.519 6  84967156.776 9  20749853.69549
  23209099.203 1  23209114.789 8 121964724.380 1  95037434.818 8  23209114.50846
  21436857.531 6                 112651432.152 6  87780358.62347  21436865.17247
  22941281.703 1                 120557241.024 1                
  19944293.375 7  19944302.973 9 104807959.903 7  81668576.223 9  19944302.19549
  23601063.117 4  23601084.176 8 124024400.584 4  96642466.379 8  23601082.88746
 23  3 10  3 12  5.0000000  0  6G04G08G09G16G27G31                  
  21274639.227 6  21274648.621 9 111798958.722 6  87116101.615 9  21274648.30548
  20747589.289 6  20747602.680 9 109029322.438 6  84957935.415 9  20747601.03149
  23206756.117 1                                                
  21437415.109 6                 112654360.727 6  87782640.61447  21437422.30547
  19944138.859 7  19944148.813 9 104807148.602 7  81667944.025 9  19944147.79349
  23602663.156 4  23602684.656 8 124032806.879 4  96649016.736 8  23602683.40246
 23  3 10  3 12 10.0000000  0  7G04G08G09G16G26G27G31               
  21273950.547 6  21273960.797 9 111795343.669 6  87113284.650 9  21273960.40247
  20745340.297 6  20745353.844 9 109017504.013 6  84948726.251 9  20745352.61749
  23204412.383 2  23204425.367 8 121940087.14712  95018236.82918
  21437972.891 6                 112657293.293 6  87784925.71347  21437980.47747
  22943562.297 1  22943584.680 7 120569223.43711  93950126.79417
  19943987.781 7  19943997.820 9 104806355.114 7  81667325.723 9  19943996.86749
  23604263.563 3  23604285.609 8 124041221.389 3  96655573.523 8  23604284.30146
 23  3 10  3 12 15.0000000  0  7G04G08G09G16G26G27G31               
  21273266.273 6  21273276.398 9 111791746.729 6  87110481.818 9  21273275.88347
  20743094.688 6  20743108.234 9 109005701.821 6  84939529.769 9  20743106.77349
  23202074.141 1  23202087.621 8 121927793.05511  95008657.35418  23202086.80147
  21438531.820 6                 112660230.265 6  87787214.24147  21438539.52347
  22944704.461 2  22944726.402 7 120575214.211 2  93954794.854 7
  19943840.516 7  19943850.117 9 104805579.912 7  81666721.652 9  19943848.98449
  23605864.609 1  23605888.422 8 124049644.623 1  96662137.102 8  23605886.46146
 23  3 10  3 12 20.0000000  0  7G04G08G09G16G26G27G31               
  21272584.547 6  21272595.508 9 111788168.407 6  87107693.499 9  21272594.98848
  20740851.695 6  20740864.781 9 108993916.327 6  84930346.271 9  20740863.34849
  23199742.609 1  23199752.793 8 121915514.866 1  94999089.992 8  23199751.02046
  21439091.430 6                 112663172.316 6  87789506.72947  21439099.59047
  22945844.313 1  22945869.453 7 120581206.993 1  93959464.630 7
  19943696.820 7  19943706.434 9 104804823.552 7  81666132.280 9  19943705.47749
  23607470.859 2  23607492.777 8 124058077.312 2  96668708.033 8  23607490.73446
 23  3 10  3 12 25.0000000  0  7G04G08G09G16G26G27G31               
  21271907.445 6  21271917.973 9 111784605.868 6  87104917.469 9  21271917.39148
  20738612.047 6  20738624.695 9 108982144.848 6  84921173.683 9  20738623.43049
  23197404.031 1  23197417.918 8 121903249.560 1  94989532.500 8  23197417.39846
  21439652.234 6                 112666116.492 6  87791800.88947  21439659.63347
  22946982.063 1  22947009.652 7 120587199.12411  93964133.51717
  19943555.680 7  19943565.480 9 104804083.164 7  81665555.353 9  19943564.54749
  23609076.734 2  23609099.535 8 124066516.31512  96675283.94918  23609096.52046
 23  3 10  3 12 30.0000000  0  7G04G08G09G16G26G27G31               
  21271232.461 6  21271242.848 9 111781059.973 6  87102154.408 9  21271242.41048
  20736374.836 6  20736387.645 9 108970387.993 6  84912012.501 9  20736386.29349
  23195071.883 1                                                
  21440212.594 6                 112669063.759 6  87794097.43947  21440220.43047
  22948123.797 1                                                
  19943418.039 7  19943428.047 9 104803359.629 7  81664991.543 9  19943427.37549
  23610684.727 2  23610706.828 8 124074962.695 2  96681865.547 8  23610703.54346
 23  3 10  3 12 35.0000000  0  7G04G08G09G16G26G27G31               
  21270560.906 6  21270571.207 9 111777531.576 6  87099404.974 9  21270570.86348
  20734140.195 6  20734152.914 9 108958646.673 6  84902863.418 9  20734151.38749
  23192742.953 2  23192757.934 8 121878761.41212  94970450.71018  23192757.37147
  21440774.344 6                 112672014.811 6  87796396.93947  21440781.99247
  22949263.320 1  22949282.410 7 120599184.59211  93973472.63417
  19943283.750 7  19943293.242 9 104802653.747 7  81664441.504 9  19943293.09049
  23612294.297 3  23612314.992 8 124083417.236 3  96688453.455 8  23612312.57446
 23  3 10  3 12 40.0000000  0  7G04G08G09G16G26G27G31               
  21269893.125 6  21269903.172 9 111774020.863 6  87096669.340 9  21269903.08647
  20731909.016 6  20731922.047 9 108946921.268 6  84893726.741 9  20731920.79749
  23190415.422 1  23190432.453 8 121866539.428 1  94960927.106 8  23190431.61346
  21441336.445 6                 112674969.920 6  87798699.60947  21441344.22347
  22950404.766 1  22950422.309 7 120605178.917 1  93978143.447 7
  19943152.875 7  19943162.508 9 104801965.729 7  81663905.381 9  19943162.12549
  23613904.266 3  23613925.641 8 124091880.159 3  96695047.945 8  23613923.20746
 23  3 10  3 12 45.0000000  0  7G04G08G09G16G26G27G31               
  21269228.875 6  21269238.480 9 111770527.314 6  87093947.078 9  21269238.31648
  20729680.305 7  20729693.570 9 108935211.345 7  84884602.126 9  20729692.39849
  23188096.516 1  23188108.531 8 121854331.914 1  94951414.827 8  23188107.37547
  21441899.930 6                 112677928.622 6  87801005.08547  21441907.54747
  22951546.391 1  22951562.594 7 120611173.919 1  93982814.865 7
  19943025.563 7  19943035.148 9 104801295.096 7  81663382.796 9  19943034.61349
  23615515.258 2  23615537.121 8 124100350.847 2  96701648.464 8  23615535.02346
 23  3 10  3 12 50.0000000  0  7G04G08G09G16G26G27G31               
  21268567.203 6  21268577.379 9 111767051.989 6  87091239.010 9  21268577.52748
  20727454.836 6  20727468.270 9 108923517.694 6  84875490.207 9  20727467.19149
  23185775.609 2  23185788.055 8 121842139.748 2  94941914.478 8  23185786.39847
  21442463.969 6                 112680891.908 6  87803314.13047  21442471.25447
  22952687.031 1  22952704.070 7 120617170.563 1  93987487.562 7
  19942901.039 7  19942910.402 9 104800642.827 7  81662874.532 9  19942910.15649
  23617128.461 2  23617150.660 8 124108830.291 2  96708255.877 8  23617148.73046
 23  3 10  3 12 55.0000000  0  7G04G08G09G16G26G27G31               
  21267908.727 6  21267919.063 9 111763592.381 6  87088543.185 9  21267918.69148
  20725232.133 6  20725245.602 9 108911837.812 6  84866388.995 9  20725244.48049
  23183459.148 1  23183471.836 8 121829960.592 1  94932424.251 8  23183470.09046
  21443028.531 6                 112683857.267 6  87805624.78547  21443035.41847
  22953828.656 2  22953846.336 7 120623166.416 2  93992159.567 7
  19942780.102 7  19942789.422 9 104800006.458 7  81662378.650 9  19942788.74249
  23618744.219 2  23618765.992 8 124117316.188 2  96714868.282 8  23618764.03146
 23  3 10  3 13  0.0000000  0  7G04G08G09G16G26G27G31               
  21267253.656 6  21267264.047 9 111760151.254 6  87085861.768 9  21267263.89548
  20723012.969 6  20723025.910 9 108900174.730 6  84857300.896 9  20723024.82449
  23181141.508 1                                                
  21443593.344 6                 112686827.475 6  87807939.21048  21443601.23448
  22954970.383 1  22954987.926 7 120629164.191 1  93996833.188 7
  19942662.578 7  19942672.754 9 104799388.743 7  81661897.298 9  19942671.87949
  23620358.891 1  23620382.367 8 124125811.357 1  96721487.870 8  23620380.52346
 23  3 10  3 13  5.0000000  0  7G04G08G09G16G26G27G31               
  21266602.875 6  21266612.906 9 111756728.083 6  87083194.335 9  21266612.94147
  20720796.922 6  20720810.055 9 108888527.653 6  84848225.254 9  20720808.87549
  23178828.602 1  23178844.309 8 121805648.86811  94913480.02718  23178844.12546
  21444159.719 6                 112689801.974 6  87810256.99447  21444167.18847
  22956110.531 1  22956131.406 7 120635163.557 1  94001507.852 7
  19942548.414 7  19942558.066 9 104798789.121 7  81661430.057 9  19942557.52749
  23621977.992 1  23622000.559 8 124134315.133 1  96728114.171 8  23621998.81346
 23  3 10  3 13 10.0000000  0  7G04G08G09G16G26G27G31               
  21265954.242 6  21265964.953 9 111753320.978 6  87080539.420 9  21265964.33248
  20718582.781 6  20718596.164 9 108876894.739 6  84839160.653 9  20718595.03549
  23176519.430 1  23176535.684 8 121793513.98711  94904024.15218  23176535.53547
  21444725.961 6                 112692778.901 6  87812576.64847  21444733.68047
  22957253.883 1  22957272.570 7 120641162.297 1  94006182.185 7
  19942437.586 7  19942446.742 9 104798205.718 7  81660975.450 9  19942446.23849
  23623597.523 2  23623620.082 8 124142825.394 2  96734745.583 8  23623617.94546
 23  3 10  3 13 15.0000000  0  7G04G08G09G16G26G27G31               
  21265308.602 6  21265319.320 9 111749929.444 6  87077896.636 9  21265318.84447
  20716372.195 6  20716384.969 9 108865275.617 6  84830106.798 9  20716383.72749
  23174215.555 1  23174228.945 8 121781391.851 1  94894578.302 8  23174229.68447
  21445293.258 6                 112695757.761 6  87814897.84048  21445300.58248
  22958392.789 1  22958412.191 7 120647160.233 1  94010855.786 7
  19942329.398 7  19942339.453 9 104797638.034 7  81660533.086 9  19942338.76649
  23625219.594 2  23625239.992 8 124151341.991 2  96741381.938 8  23625238.12546
 23  3 10  3 13 20.0000000  0  7G04G08G09G16G26G27G31               
  21264665.727 6  21264676.957 9 111746552.862 6  87075265.518 9  21264676.77047
  20714163.289 6  20714176.902 9 108853669.689 6  84821063.223 9  20714175.22749
  23171912.047 3  23171923.883 8 121769281.862 3  94885141.998 8  23171924.45747
  21445860.594 6                 112698737.915 6  87817220.02148  21445867.97348
  22959535.602 1  22959554.137 8 120653156.628 1  94015528.225 8
  19942224.289 7  19942233.777 9 104797085.469 7  81660102.516 9  19942233.18849
  23626840.469 1  23626862.359 8 124159864.33611  96748022.74918  23626860.25445
 23  3 10  3 13 25.0000000  0  7G04G08G09G16G26G27G31               
  21264026.508 6  21264037.254 9 111743193.327 6  87072647.661 9  21264037.16848
  20711958.094 6  20711971.195 9 108842079.072 6  84812031.584 9  20711970.02749
  23169609.320 3  23169621.793 8 121757186.175 3  94875716.815 8  23169622.19147
  21446428.656 6                 112701721.424 6  87819544.81748  21446435.76648
  22960676.844 1  22960696.324 8 120659153.46911  94020201.01718
  19942122.250 7  19942132.258 9 104796550.032 7  81659685.290 9  19942131.77049
  23628462.391 1  23628485.563 8 124168394.333 1  96754669.460 8  23628483.77346
 23  3 10  3 13 30.0000000  0  7G04G08G09G16G26G27G31               
  21263390.758 6  21263401.398 9 111739851.346 6  87070043.490 9  21263401.22747
  20709755.641 7  20709768.543 9 108830504.199 7  84803012.194 9  20709767.39849
  23167311.180 3  23167323.027 8 121745105.345 3  94866303.201 8  23167323.09047
  21446996.727 6                 112704708.870 6  87821872.68048  21447004.35948
  22961819.195 1  22961836.738 8 120665151.354 1  94024874.563 8
  19942023.742 7  19942033.488 9 104796032.314 7  81659281.871 9  19942032.72749
  23630087.641 1  23630110.289 8 124176932.575 1  96761322.602 8  23630108.31345
 23  3 10  3 13 35.0000000  0  7G04G08G09G16G26G27G31               
  21262758.930 6  21262768.480 9 111736528.186 6  87067453.984 9  21262768.39147
  20707555.867 7  20707568.977 9 108818946.238 7  84794006.007 9  20707568.18449
  23165015.469 2  23165026.945 8 121733040.614 2  94856902.128 8  23165027.27347
  21447565.820 6                 112707701.469 6  87824204.56348  21447573.92648
  22962960.688 1  22962979.527 7 120671151.575 1  94029549.998 7
  19941929.086 7  19941938.352 9 104795533.514 7  81658893.203 9  19941937.67649
  23631714.219 1  23631736.883 8 124185480.285 1  96767983.127 8  23631735.16046
 23  3 10  3 13 40.0000000  0  7G04G08G09G16G26G27G31               
  21262129.828 6  21262139.578 9 111733222.116 6  87064877.791 9  21262139.15247
  20705359.352 7  20705372.730 9 108807403.604 7  84785011.755 9  20705371.60249
  23162721.398 1  23162734.313 8 121720990.303 1  94847512.259 8  23162734.52747
  21448136.398 6                 112710697.499 6  87826539.11148  21448144.28948
  22964103.492 1  22964120.855 7 120677152.460 1  94034225.925 7
  19941837.336 7  19941847.469 9 104795051.952 7  81658517.954 9  19941846.46549
  23633341.906 1  23633364.020 8 124194035.745 1  96774649.766 8  23633362.75846
 23  3 10  3 13 45.0000000  0  7G04G08G09G16G26G27G31               
  21261503.164 6  21261513.262 9 111729931.747 6  87062313.850 9  21261512.98447
  20703165.773 7  20703178.926 9 108795874.938 7  84776028.389 9  20703177.84849
  23160428.523 1  23160444.145 8 121708952.971 1  94838132.458 8  23160444.48447
  21448706.883 6                 112713695.692 6  87828875.35248  21448714.39848
  22965247.023 1  22965261.840 8 120683152.448 1  94038901.179 8
  19941748.820 7  19941758.602 9 104794586.229 7  81658155.049 9  19941757.64849
  23634972.344 3  23634994.020 8 124202597.556 3  96781321.310 8  23634992.82846
 23  3 10  3 13 50.0000000  0  7G04G08G09G16G26G27G31               
  21260880.859 6  21260890.516 9 111726658.347 6  87059763.137 9  21260889.46947
  20700975.039 7  20700987.242 9 108784361.465 7  84767056.861 9  20700986.24649
  23158141.133 1  23158156.027 8 121696930.022 1  94828763.882 8  23158156.29747
  21449278.102 6                 112716697.133 6  87831214.11048  21449285.81348
  22966386.555 1  22966403.867 8 120689152.846 1  94043576.719 8
  19941663.391 7  19941673.328 9 104794137.578 7  81657805.445 9  19941672.37149
  23636602.625 3  23636624.867 8 124211166.941 3  96787998.751 8  23636623.88746
 23  3 10  3 13 55.0000000  0  7G04G08G09G16G26G27G31               
  21260260.734 6  21260271.543 9 111723403.047 6  87057226.508 9  21260270.87147
  20698786.313 7  20698799.703 9 108772864.368 7  84758098.082 9  20698798.67649
  23155858.133 3  23155870.879 8 121684922.364 3  94819407.279 8  23155870.75047
  21449850.063 6                 112719702.962 6  87833556.29548  21449857.50048
  22967528.234 1  22967546.039 8 120695154.907 1  94048253.606 8
  19941581.445 7  19941591.629 9 104793707.173 7  81657470.057 9  19941590.70749
  23638234.742 3  23638256.824 8 124219745.121 3  96794683.080 8  23638256.50046
 23  3 10  3 14  0.0000000  0  7G04G08G09G16G26G27G31               
  21259645.039 6  21259655.777 9 111720165.456 6  87054703.698 9  21259654.69147
  20696602.055 6  20696615.000 9 108761383.201 6  84749151.730 9  20696613.97749
  23153577.234 3  23153587.805 8 121672929.748 3  94810062.380 8  23153587.62147
  21450422.141 6                 112722712.745 6  87835901.57148  21450430.39548
  22968670.508 1  22968688.523 8 120701158.105 1  94052931.373 8
  19941503.008 7  19941512.895 9 104793294.508 7  81657148.489 9  19941512.32049
  23639868.703 2  23639891.566 8 124228331.594 2  96801373.862 8  23639890.65246
 23  3 10  3 14  5.0000000  0  7G04G08G09G16G26G27G31               
  21259031.852 6  21259042.648 9 111716944.211 6  87052193.585 9  21259041.84047
  20694419.898 7  20694433.008 9 108749916.562 7  84740216.695 9  20694432.10249
  23151296.438 3  23151308.906 7 121660950.792 3  94800728.206 7  23151307.04347
  21450996.109 6                 112725725.244 6  87838248.95147  21451003.92247
  22969811.422 1                                                
  19941427.406 7  19941437.051 9 104792898.359 7  81656839.811 9  19941436.54349
  23641505.141 4  23641526.980 8 124236925.106 4  96808070.098 8  23641526.53146
 23  3 10  3 14 10.0000000  0  7G04G08G09G16G26G27G31               
  21258422.266 6  21258433.008 9 111713739.538 6  87049696.429 9  21258432.12147
  20692240.961 7  20692253.688 9 108738464.676 7  84731293.157 9  20692252.63749
  23149020.398 2  23149032.141 8 121648985.706 2  94791404.850 8  23149030.14547
  21451569.453 6                 112728740.611 6  87840598.56548  21451577.27748
  22970952.516 1  22970973.504 8 120713164.43211  94062286.86418
  19941355.242 7  19941365.352 9 104792518.862 7  81656544.089 9  19941364.58649
  23643142.242 4  23643163.809 9 124245525.795 4  96814771.953 9  23643163.12946
 23  3 10  3 14 15.0000000  0  7G04G08G09G16G26G27G31               
  21257815.688 6  21257826.422 9 111710551.240 6  87047211.983 9  21257825.42247
  20690063.961 6  20690077.395 9 108727027.459 6  84722381.034 9  20690076.28549
  23146745.555 1  23146758.352 8 121637034.439 1  94782092.139 8  23146757.73447
  21452144.109 6                 112731758.601 6  87842950.22248  21452151.94148
  22972098.672 1  22972115.859 8 120719168.30711  94066965.24718
  19941285.953 7  19941296.016 9 104792155.788 7  81656261.166 9  19941295.95349
  23644780.273 4  23644801.703 8 124254133.558 4  96821479.325 8  23644801.28147
 23  3 10  3 14 20.0000000  0  6G04G08G09G16G27G31                  
  21257211.961 6  21257222.820 9 111707380.638 6  87044741.388 9  21257222.27348
  20687891.063 7  20687904.402 9 108715606.135 7  84713481.308 9  20687903.13349
  23144471.102 1  23144487.047 8 121625098.240 1  94772791.203 8  23144486.58647
  21452719.180 6                 112734780.597 6  87845305.02047  21452727.05547
  19941220.703 7  19941230.449 9 104791810.515 7  81655992.119 9  19941230.11349
  23646419.313 4  23646440.695 8 124262749.698 4  96828193.207 8  23646440.28146
 23  3 10  3 14 25.0000000  0  5G04G08G16G27G31                     
  21256612.398 6  21256623.227 9 111704227.634 6  87042284.487 9  21256622.43447
  20685720.375 7  20685733.938 9 108704200.889 7  84704594.099 9  20685732.80549
  21453294.719 6                 112737806.519 6  87847662.85848  21453302.89148
  19941158.195 7  19941167.961 9 104791482.942 7  81655736.861 9  19941167.44549
  23648060.453 4  23648081.500 8 124271374.102 4  96834913.516 8  23648081.36746
 23  3 10  3 14 30.0000000  0  6G04G08G16G26G27G31                  
  21256015.859 6  21256025.676 9 111701090.924 6  87039840.281 9  21256025.39547
  20683552.859 7  20683565.621 9 108692810.104 7  84695718.162 9  20683564.40249
  21453870.953 6                 112740835.072 6  87850022.74648  21453879.26248
  22975525.625 1                                                
  19941099.172 7  19941108.625 9 104791171.744 7  81655494.365 9  19941108.27049
  23649703.594 4  23649724.746 8 124280005.430 4  96841639.267 8  23649723.65246
 23  3 10  3 14 35.0000000  0  7G04G08G09G16G26G27G31               
  21255421.648 6  21255432.691 9 111697972.669 6  87037410.434 9  21255431.91447
  20681388.406 7  20681401.746 9 108681436.009 7  84686855.242 9  20681400.57449
  23137674.727 2  23137688.539 8 121589377.74512  94744965.93118
  21454448.406 6                 112743868.321 6  87852386.30248  21454456.29348
  22976671.305 1  22976690.664 8 120743190.62211  94085685.86718
  19941043.258 7  19941052.988 9 104790879.025 7  81655266.265 9  19941052.25449
  23651347.766 4  23651369.152 8 124288645.822 4  96848372.040 8  23651368.32846
 23  3 10  3 14 40.0000000  0  7G04G08G09G16G26G27G31               
  21254832.016 6  21254841.953 9 111694871.162 6  87034993.653 9  21254841.84047
  20679227.156 7  20679239.984 9 108670076.890 7  84678003.976 9  20679238.89149
  23135416.109 3  23135429.258 8 121577500.069 3  94735710.667 8  23135428.72347
  21455025.867 6                 112746904.631 6  87854752.25447  21455034.29747
  22977812.984 1  22977831.250 7 120749198.037 1  94090366.892 7
  19940991.000 7  19941000.570 9 104790603.107 7  81655051.270 9  19940999.91449
  23652992.953 4  23653014.785 8 124297293.558 4  96855110.554 8  23653013.57046
 23  3 10  3 14 45.0000000  0  7G04G08G09G16G26G27G31               
  21254245.367 6  21254255.332 9 111691787.277 6  87032590.599 9  21254255.16847
  20677068.867 7  20677081.793 9 108658733.760 7  84669165.180 9  20677080.60249
  23133159.563 3  23133171.762 8 121565637.494 3  94726467.150 8  23133170.42247
  21455604.508 6                 112749944.919 6  87857121.28348  21455612.46148
  22978957.977 1  22978973.480 8 120755206.640 1  94095048.826 8
  19940941.930 7  19940951.621 9 104790344.967 7  81654850.111 9  19940950.95349
  23654641.031 4  23654662.207 8 124305949.711 4  96861855.628 8  23654661.15646
 23  3 10  3 14 50.0000000  0  7G04G08G09G16G26G27G31               
  21253662.047 6  21253672.117 9 111688721.147 6  87030201.385 9  21253671.41447
  20674913.008 6  20674926.461 9 108647406.670 6  84660338.880 9  20674925.07049
  23130903.914 2  23130918.375 8 121553790.093 2  94717235.417 8  23130916.44947
  21456183.445 6                 112752989.184 6  87859493.43447  21456191.92247
  22980098.000 1                                                
  19940896.180 7  19940905.906 9 104790104.567 7  81654662.774 9  19940905.33649
  23656290.273 4  23656310.945 8 124314614.232 4  96868607.195 8  23656310.03947
 23  3 10  3 14 55.0000000  0  7G04G08G09G16G26G27G31               
  21253081.703 6  21253091.871 9 111685673.000 6  87027826.186 9  21253091.61347
  20672760.313 7  20672773.484 9 108636095.860 7  84651525.275 9  20672772.30549
  23128649.945 1  23128666.227 8 121541958.223 1  94708015.757 8  23128664.87147
  21456764.172 6                 112756037.771 6  87861868.93848  21456771.68048
  22981242.180 1  22981260.000 8 120767227.87111  94104415.90518
  19940853.617 7  19940863.398 9 104789882.243 7  81654489.525 9  19940862.68849
  23657940.328 5  23657961.570 8 124323287.370 5  96875365.482 8  23657960.29347
 23  3 10  3 15  0.0000000  0  7G04G08G09G16G26G27G31               
  21252505.227 6  21252515.727 9 111682644.033 6  87025465.919 9  21252515.29347
  20670611.398 7  20670624.758 9 108624802.470 7  84642725.230 9  20670623.87549
  23126402.367 1  23126418.496 8 121530142.851 1  94698808.894 8  23126417.05947
  21457345.484 6                 112759091.776 6  87864248.67647  21457353.13747
  22982388.867 1  22982405.492 8 120773241.924 1  94109102.114 8
  19940814.945 7  19940824.523 9 104789679.095 7  81654331.229 9  19940823.53549
  23659592.648 5  23659613.809 9 124331970.376 5  96882131.471 9  23659612.61347
 23  3 10  3 15  5.0000000  0  7G04G08G09G16G26G27G31               
  21251931.906 6  21251942.328 9 111679631.488 6  87023118.452 9  21251941.91047
  20668465.086 7  20668478.371 9 108613523.981 7  84633936.802 9  20668477.12549
  23124157.758 4  23124172.117 8 121518341.349 4  94689612.882 8  23124171.85547
  21457927.016 6                 112762148.530 6  87866630.54248  21457934.60248
  22983534.820 1  22983549.453 7 120779255.946 1  94113788.225 7
  19940779.414 7  19940789.059 9 104789492.449 7  81654185.786 9  19940788.05949
  23661245.922 5  23661267.684 8 124340660.456 5  96888902.965 8  23661266.42647
 23  3 10  3 15 10.0000000  0  7G04G08G09G16G26G27G31               
  21251361.805 6  21251372.574 9 111676636.682 6  87020784.813 9  21251372.03947
  20666321.711 6  20666335.176 9 108602261.459 6  84625160.814 9  20666334.07449
  23121915.734 5  23121929.242 8 121506555.009 5  94680428.718 8  23121929.55147
  21458509.219 6                 112765209.276 6  87869015.52347  21458517.12947
  22984679.086 2  22984693.973 8 120785271.310 2  94118475.511 8
  19940747.117 7  19940756.969 9 104789323.574 7  81654054.186 9  19940755.66849
  23662901.750 5  23662922.926 8 124349358.888 5  96895680.985 8  23662921.72347
 23  3 10  3 15 15.0000000  0  7G04G08G09G16G26G27G31               
  21250795.250 6  21250805.355 9 111673658.208 6  87018463.894 9  21250805.25047
  20664181.523 6  20664194.684 9 108591013.614 6  84616396.258 9  20664193.40249
  23119675.766 5  23119689.242 8 121494782.450 5  94671255.316 8  23119689.80947
  21459092.320 6                 112768272.653 6  87871402.55347  21459100.17247
  22985824.000 1  22985839.105 8 120791286.511 1  94123162.581 8
  19940718.047 7  19940728.207 9 104789171.068 7  81653935.349 9  19940727.33249
  23664558.414 5  23664579.477 8 124358064.395 5  96902464.504 8  23664578.09047
 23  3 10  3 15 20.0000000  0  7G04G08G09G16G26G27G31               
  21250231.977 6  21250242.266 9 111670698.083 6  87016157.270 9  21250241.68047
  20662044.352 6  20662057.559 9 108579782.392 6  84607644.656 9  20662056.16449
  23117437.516 4  23117451.570 8 121483025.673 4  94662094.187 8  23117451.35947
  21459675.930 6                 112771340.585 6  87873793.13948  21459683.95348
  22986967.703 1  22986984.711 7 120797303.502 1  94127851.097 7
  19940692.508 7  19940702.676 9 104789036.891 7  81653830.794 9  19940701.69149
  23666216.461 6  23666237.363 8 124366778.771 6  96909254.926 8  23666236.18447
 23  3 10  3 15 25.0000000  0  7G04G08G09G16G26G27G31               
  21249671.758 6  21249682.426 9 111667755.140 6  87013864.049 9  21249681.75447
  20659910.156 6  20659923.555 9 108568566.651 6  84598905.118 9  20659921.83649
  23115203.297 3  23115216.699 8 121471283.584 3  94652944.547 8  23115216.28947
  21460260.852 6                 112774412.001 6  87876186.42848  21460268.25848
  22988111.297 1  22988129.461 7 120803321.266 1  94132540.237 7
  19940670.227 7  19940680.266 9 104788919.969 7  81653739.681 9  19940679.64849
  23667876.367 6  23667896.824 9 124375501.042 6  96916051.495 9  23667896.33247
 23  3 10  3 15 30.0000000  0  7G04G08G09G16G26G27G31               
  21249115.469 6  21249125.098 9 111664829.654 6  87011584.422 9  21249124.72347
  20657778.680 6  20657792.129 9 108557366.609 6  84590177.821 9  20657790.44949
  23112970.938 1  23112985.039 8 121459556.521 1  94643806.563 8  23112984.68047
  21460846.188 6                 112777487.148 6  87878582.63648  21460853.55148
  22989259.719 1  22989273.555 7 120809340.069 1  94137230.146 7
  19940651.328 7  19940661.578 9 104788820.532 7  81653662.193 9  19940660.87949
  23669537.953 6  23669558.617 8 124384231.452 6  96922854.407 8  23669557.71947
 23  3 10  3 15 35.0000000  0  7G04G08G09G16G26G27G31               
  21248561.891 6  21248572.496 9 111661921.068 6  87009317.959 9  21248571.99247
  20655650.414 6  20655663.441 9 108546181.908 6  84581462.476 9  20655661.98049
  23110741.984 2  23110757.051 8 121447843.846 2  94634679.751 8  23110756.39847
  21461432.094 6                 112780565.467 6  87880981.30648  21461439.32448
  22990406.000 2  22990419.984 7 120815359.276 2  94141920.358 7
  19940635.555 7  19940645.711 9 104788738.023 7  81653597.894 9  19940645.25849
  23671200.328 6  23671220.715 9 124392969.413 6  96929663.210 9  23671219.73447
 23  3 10  3 15 40.0000000  0  7G04G08G09G16G26G27G31               
  21248011.172 6  21248021.574 9 111659027.723 6  87007063.384 9  21248021.00447
  20653524.648 6  20653537.582 9 108535010.782 6  84572757.701 9  20653536.15249
  23108516.156 4  23108530.551 8 121436143.858 4  94625562.900 8  23108530.65247
  21462017.969 6                 112783645.272 6  87883381.14448  21462025.18848
  22991553.016 2  22991565.270 8 120821377.320 2  94146609.677 8
  19940622.547 7  19940632.758 9 104788670.730 7  81653545.456 9  19940632.43849
  23672864.148 6  23672884.520 8 124401713.275 6  96936476.617 8  23672883.10247
 23  3 10  3 15 45.0000000  0  7G04G08G09G16G26G27G31               
  21247464.359 6  21247474.262 9 111656151.925 6  87004822.469 9  21247473.99647
  20651402.031 6  20651415.113 9 108523855.668 6  84564065.415 9  20651413.93449
  23106293.352 4  23106307.543 8 121424458.859 4  94616457.724 8  23106307.50447
  21462605.094 6                 112786728.848 6  87885783.90947  21462612.25447
  22992697.102 1  22992711.348 8 120827396.447 1  94151299.809 8
  19940613.438 7  19940623.195 9 104788620.982 7  81653506.689 9  19940622.76249
  23674528.922 5  23674549.770 8 124410465.299 5  96943296.391 8  23674548.96147
 23  3 10  3 15 50.0000000  0  7G04G08G09G16G26G27G31               
  21246920.242 6  21246930.039 9 111653293.748 6  87002595.291 9  21246929.71547
  20649281.938 6  20649295.008 9 108512716.557 6  84555385.593 9  20649293.80949
  23104072.867 4  23104086.746 8 121412789.021 4  94607364.356 8  23104087.34447
  21463192.375 6                 112789816.358 6  87888189.74648  21463199.80948
  22993840.336 1  22993856.676 8 120833416.725 1  94155990.891 8
  19940607.195 7  19940617.496 9 104788588.883 7  81653481.669 9  19940616.89849
  23676196.320 5  23676217.441 8 124419225.616 5  96950122.624 8  23676216.06347
 23  3 10  3 15 55.0000000  0  7G04G08G09G16G26G27G31               
  21246379.383 6  21246389.309 9 111650450.941 6  87000380.094 9  21246389.25447
  20647164.852 6  20647177.676 9 108501591.065 6  84546716.381 9  20647176.76249
  23101853.398 3  23101868.117 8 121401132.093 3  94598281.034 8  23101868.42247
  21463780.797 6                 112792905.501 6  87890596.84248  21463787.81348
  22994981.492 1  22995002.211 8 120839435.83611  94160681.08318
  19940604.211 7  19940614.629 9 104788572.149 7  81653468.607 9  19940613.91449
  23677864.328 6  23677885.711 8 124427991.976 6  96956953.559 8  23677884.40647
 23  3 10  3 16  0.0000000  0  7G04G08G09G16G26G27G31               
  21245842.367 6  21245852.512 9 111647627.713 6  86998180.147 9  21245851.93847
  20645051.039 6  20645064.172 9 108490483.575 6  84538061.190 9  20645062.89549
  23099637.984 3  23099652.723 8 121389492.343 3  94589211.079 8  23099652.17647
  21464369.688 6                 112796000.415 6  87893008.45048  21464376.27348
  22996128.875 1  22996148.172 8 120845458.14411  94165373.72018
  19940604.922 7  19940614.352 9 104788574.938 7  81653470.776 9  19940613.69949
  23679533.258 5  23679555.559 8 124436768.516 5  96963792.416 8  23679554.43447
 23  3 10  3 16  5.0000000  0  7G04G08G09G16G26G27G31               
  21245308.250 6  21245318.059 9 111644820.782 6  86995992.892 9  21245317.62147
  20642940.633 6  20642953.426 9 108479390.702 6  84529417.393 9  20642952.21149
  23097425.781 3  23097440.234 8 121377866.418 3  94580151.901 8  23097438.71947
  21464958.570 6                 112799097.894 6  87895422.05747  21464966.11747
  22997277.250 1  22997294.836 8 120851480.382 1  94170066.311 8
  19940608.336 7  19940618.242 9 104788594.054 7  81653485.669 9  19940617.72749
  23681205.422 5  23681227.270 8 124445552.022 5  96970636.717 8  23681226.18447
 23  3 10  3 16 10.0000000  0  7G04G08G09G16G26G27G31               
  21244777.273 6  21244787.277 9 111642030.644 6  86993818.725 9  21244787.15247
  20640832.047 7  20640845.777 9 108468312.999 7  84520785.426 9  20640844.48049
  23095217.055 4  23095231.652 8 121366254.806 4  94571103.877 8  23095228.55147
  21465549.125 6                 112802198.412 6  87897838.01948  21465556.25448
  22998424.227 1  22998440.695 8 120857502.848 1  94174759.072 8
  19940615.016 7  19940625.273 9 104788629.913 7  81653513.607 9  19940624.49249
  23682878.016 5  23682900.168 8 124454342.979 5  96977486.818 8  23682898.94147
 23  3 10  3 16 15.0000000  0  7G04G08G09G16G26G27G31               
  21244249.125 6  21244259.594 9 111639256.473 6  86991657.003 9  21244259.17247
  20638727.180 7  20638740.375 9 108457249.684 7  84512164.665 9  20638739.04749
  23093009.039 4  23093024.633 8 121354656.775 4  94562066.468 8  23093021.41047
  21466139.219 6                 112805301.123 6  87900255.69447  21466146.77047
  22999568.953 1  22999587.180 8 120863524.989 1  94179451.570 8
  19940625.188 7  19940635.012 9 104788681.768 7  81653554.010 9  19940634.41849
  23684552.039 5  23684573.828 8 124463140.563 5  96984342.079 8  23684572.95747
 23  3 10  3 16 20.0000000  0  7G04G08G09G16G26G27G31               
  21243724.109 6  21243734.316 9 111636497.410 6  86989507.064 9  21243733.79347
  20636624.391 7  20636637.637 9 108446199.815 7  84503554.379 9  20636636.25449
  23090806.258 4  23090819.977 8 121343071.359 4  94553038.907 8  23090817.76247
  21466730.195 6                 112808405.181 6  87902674.42747  21466737.27747
  23000713.445 1  23000733.215 8 120869545.69411  94184142.99718
  19940637.867 7  19940647.727 9 104788748.651 7  81653606.119 9  19940647.30549
  23686227.016 5  23686249.098 8 124471943.855 5  96991201.795 8  23686247.72747
 23  3 10  3 16 25.0000000  0  6G04G08G09G16G27G31                  
  21243202.289 6  21243212.879 9 111633756.066 6  86987370.927 9  21243212.36348
  20634525.172 6  20634538.207 9 108435166.190 6  84494956.745 9  20634536.93849
  23088603.430 5  23088617.703 8 121331501.284 5  94544023.286 8  23088616.17247
  21467320.938 6                 112811513.232 6  87905096.27548  21467329.04748
  19940653.656 7  19940663.484 9 104788833.267 7  81653672.048 9  19940662.96149
  23687904.258 5  23687925.598 9 124480755.604 5  96998068.090 9  23687924.59447
 23  3 10  3 16 30.0000000  0  6G04G08G09G16G27G31                  
  21242684.625 6  21242694.520 9 111631032.052 6  86985248.296 9  21242693.85248
  20632428.563 7  20632441.148 9 108424148.256 7  84486371.345 9  20632440.04749
  23086404.188 4  23086418.809 8 121319946.146 4  94535019.227 8  23086417.96547
  21467913.664 6                 112814624.844 6  87907520.89348  21467921.23448
  19940673.406 7  19940683.395 9 104788935.160 7  81653751.447 9  19940682.84849
  23689582.125 5  23689604.137 9 124489575.323 5  97004940.605 9  23689602.96147
 23  3 10  3 16 35.0000000  0  6G04G08G09G16G27G31                  
  21242169.461 6  21242179.781 9 111628325.747 6  86983139.456 9  21242179.21148
  20630334.797 6  20630348.113 9 108413146.317 6  84477798.416 9  20630346.71949
  23084209.117 4  23084222.914 8 121308406.252 4  94526027.118 8  23084222.84847
  21468506.070 6                 112817740.333 6  87909948.52948  21468514.08648
  19940696.078 7  19940706.484 9 104789054.688 7  81653844.577 9  19940705.78549
  23691262.969 5  23691283.430 9 124498403.336 5  97011819.566 9  23691282.26647
 23  3 10  3 16 40.0000000  0  6G04G08G09G16G27G31                  
  21241657.352 6  21241667.699 9 111625635.603 6  86981043.208 9  21241666.98047
  20628244.211 7  20628257.168 9 108402159.065 7  84469236.918 9  20628255.88749
  23082015.344 4  23082029.656 8 121296880.172 4  94517045.688 8  23082029.73447
  21469099.680 6                 112820858.275 6  87912378.07047  21469106.63347
  19940721.961 7  19940732.320 9 104789190.379 7  81653950.302 9  19940731.66849
  23692945.266 6  23692965.039 9 124507238.226 6  97018703.907 9  23692963.85947
 23  3 10  3 16 45.0000000  0  7G04G08G09G16G26G27G31               
  21241149.141 6  21241159.129 9 111622963.012 6  86978960.646 9  21241158.67247
  20626156.320 6  20626169.824 9 108391187.741 6  84460687.839 9  20626168.60549
  23079825.016 4  23079839.176 8 121285369.246 4  94508076.144 8  23079838.69147
  21469693.844 6                 112823979.970 6  87914810.53747  21469700.83247
  23006448.086 1                 120899663.93011                
  19940751.109 7  19940761.063 9 104789343.525 7  81654069.637 9  19940760.89149
  23694627.422 6  23694648.109 9 124516081.281 6  97025594.617 9  23694646.50047
 23  3 10  3 16 50.0000000  0  7G04G08G09G16G26G27G31               
  21240644.008 6  21240653.953 9 111620307.885 6  86976891.689 9  21240653.54347
  20624071.313 6  20624084.391 9 108380232.399 6  84452151.217 9  20624083.47749
  23077637.758 5  23077651.637 8 121273873.385 5  94499118.345 8  23077650.21947
  21470288.859 6                 112827105.367 6  87917245.89947  21470295.60247
  23007592.539 1  23007611.094 8 120905690.095 1  94212317.09018  23007613.90245
  19940783.320 7  19940793.801 9 104789514.105 7  81654202.555 9  19940793.17249
  23696312.516 6  23696332.250 9 124524932.517 6  97032491.679 9  23696330.93447
 23  3 10  3 16 55.0000000  0  7G04G08G09G16G26G27G31               
  21240141.844 6  21240151.941 9 111617669.188 6  86974835.533 9  21240151.36348
  20621989.344 6  20622002.746 9 108369291.937 6  84443626.182 9  20622001.81349
  23075453.156 5  23075467.090 8 121262391.623 5  94490171.554 8  23075464.80547
  21470883.813 6                 112830233.386 6  87919683.30447  21470890.55147
  23008737.961 1  23008758.422 8 120911716.273 1  94217012.728 8  23008760.04345
  19940819.047 7  19940829.371 9 104789701.033 7  81654348.197 9  19940829.04749
  23697998.180 6  23698017.676 9 124533790.864 6  97039394.284 9  23698016.25447
 23  3 10  3 17  0.0000000  0  6G04G08G09G16G27G31                  
  21239643.305 6  21239652.539 9 111615047.224 6  86972792.415 9  21239652.50048
  20619910.664 6  20619923.371 9 108358366.688 6  84435113.007 9  20619922.19949
  23073270.813 5  23073285.406 8 121250924.200 5  94481235.891 8  23073282.41847
  21471479.516 6                 112833364.333 6  87922122.97347  21471487.09447
  19940857.820 7  19940868.012 9 104789904.649 7  81654506.850 9  19940867.65649
  23699684.914 6  23699705.043 9 124542656.618 6  97046302.671 9  23699703.89147
 23  3 10  3 17  5.0000000  0  6G04G08G09G16G27G31                  
  21239147.336 6  21239157.598 9 111612443.677 6  86970763.661 9  21239157.22748
  20617834.766 6  20617848.020 9 108347458.351 6  84426612.998 9  20617846.66449
  23071090.172 4  23071105.742 8 121239472.895 4  94472312.820 8  23071103.43847
  21472076.180 6                 112836500.106 6  87924566.41947  21472083.17247
  19940899.875 7  19940910.684 9 104790126.624 7  81654679.806 9  19940909.94549
  23701373.758 6  23701393.820 9 124551531.479 6  97053218.158 9  23701392.72347
 23  3 10  3 17 10.0000000  0  6G04G08G09G16G27G31                  
  21238655.453 6  21238665.547 9 111609857.842 6  86968748.700 9  21238665.08247
  20615762.055 6  20615775.332 9 108336566.167 6  84418125.580 9  20615773.83649
  23068914.805 5  23068929.645 8 121228036.957 5  94463401.703 8  23068928.09047
  21472673.555 6                 112839639.757 6  87927012.88347  21472680.48847
  19940945.906 7  19940955.746 9 104790366.218 7  81654866.486 9  19940955.44549
  23703064.000 5  23703084.730 9 124560414.664 5  97060140.128 9  23703083.53147
 23  3 10  3 17 15.0000000  0  6G04G08G09G16G27G31                  
  21238166.164 6  21238176.773 9 111607287.764 6  86966746.001 9  21238176.45347
  20613691.680 7  20613705.012 9 108325688.244 7  84409649.278 9  20613703.44149
  23066740.453 5  23066756.313 8 121216614.439 5  94454500.983 8  23066755.73047
  21473271.875 6                 112842781.356 6  87929460.85747  21473278.42247
  19940994.242 7  19941004.199 9 104790621.505 7  81655065.416 9  19941003.56649
  23704755.219 6  23704776.309 9 124569304.285 6  97067067.115 9  23704775.26647
 23  3 10  3 17 20.0000000  0  6G04G08G09G16G27G31                  
  21237679.820 6  21237690.973 9 111604734.643 6  86964756.534 9  21237690.68448
  20611624.547 6  20611638.488 9 108314825.640 6  84401184.920 9  20611637.19949
  23064570.453 4  23064585.621 8 121205206.534 4  94445611.687 8  23064585.51647
  21473869.961 6                 112845926.050 6  87931911.25647  21473876.79347
  19941046.070 7  19941056.457 9 104790893.615 7  81655277.445 9  19941055.71549
  23706448.898 6  23706469.121 9 124578201.506 6  97074000.019 9  23706468.00447
 23  3 10  3 17 25.0000000  0  6G04G08G09G16G27G31                  
  21237197.813 6  21237207.914 9 111602198.405 6  86962780.204 9  21237207.46548
  20609560.469 6  20609573.676 9 108303978.347 6  84392732.490 9  20609572.38349
  23062402.125 4  23062418.125 8 121193813.170 4  94436733.743 8  23062417.68447
  21474469.438 6                 112849073.872 6  87934364.08347  21474476.21147
  19941101.148 7  19941111.207 9 104791182.563 7  81655502.592 9  19941110.45349
  23708143.750 6  23708163.090 9 124587106.305 6  97080938.833 9  23708162.56347
 23  3 10  3 17 30.0000000  0  6G04G08G09G16G27G31                  
  21236718.320 6  21236728.527 9 111599679.162 6  86960817.128 9  21236728.34448
  20607499.000 6  20607512.797 9 108293146.572 6  84384292.160 9  20607511.32849
  23060236.391 4  23060252.527 8 121182434.501 4  94427867.265 8  23060252.48447
  21475068.516 6                 112852224.886 6  87936819.38447  21475075.82447
  19941159.250 7  19941169.516 9 104791488.393 7  81655740.891 9  19941168.56649
  23709839.609 6  23709859.375 9 124596018.732 6  97087883.594 9  23709858.83647
 23  3 10  3 17 35.0000000  0  6G04G08G09G16G27G31                  
  21236242.156 6  21236252.234 9 111597176.476 6  86958866.956 9  21236251.94148
  20605440.586 6  20605454.332 9 108282329.849 6  84375863.543 9  20605452.88749
  23058073.969 4  23058089.617 8 121171070.064 4  94419011.864 8  23058089.39147
  21475668.492 6                 112855378.660 6  87939276.85947  21475675.58247
  19941220.422 7  19941230.777 9 104791810.683 7  81655992.004 9  19941229.75449
  23711536.250 6  23711556.926 8 124604938.360 6  97094833.949 8  23711556.30947
 23  3 10  3 17 40.0000000  0  6G04G08G09G16G27G31                  
  21235769.016 6  21235779.148 9 111594690.313 6  86956929.644 9  21235778.68848
  20603385.570 6  20603398.832 9 108271527.974 6  84367446.511 9  20603397.34449
  23055913.703 4  23055929.273 8 121159719.987 4  94410167.667 8  23055930.01247
  21476269.383 6                 112858535.161 6  87941736.44447  21476276.55547
  19941285.195 7  19941294.887 9 104792149.414 7  81656255.954 9  19941294.12549
  23713234.609 5  23713255.879 8 124613865.231 5  97101789.979 8  23713255.12147
 23  3 10  3 17 45.0000000  0  6G04G08G09G16G27G31                  
  21235299.453 6  21235309.355 9 111592221.592 6  86955005.937 9  21235308.84448
  20601332.328 6  20601346.348 9 108260742.021 6  84359041.877 9  20601345.28149
  23053756.586 3  23053771.594 7 121148385.013 3  94401335.201 7  23053771.35947
  21476870.648 6                 112861695.256 6  87944198.85247  21476877.90647
  19941352.695 7  19941362.645 9 104792505.470 7  81656533.384 9  19941361.52749
  23714934.453 5  23714955.945 9 124622800.141 5  97108752.256 9  23714955.78547
 23  3 10  3 17 50.0000000  0  6G04G08G09G16G27G31                  
  21234832.305 6  21234843.164 9 111589770.216 6  86953095.736 9  21234842.64148
  20599283.727 6  20599297.363 9 108249972.064 6  84350649.707 9  20599296.08649
  23051603.023 3  23051615.383 7 121137065.135 3  94392514.567 7  23051616.88346
  21477472.188 6                 112864858.969 6  87946664.04647  21477479.88747
  19941423.766 7  19941433.711 9 104792878.744 7  81656824.239 9  19941432.45749
  23716637.219 5  23716657.609 9 124631743.041 5  97115720.780 9  23716657.03147
 23  3 10  3 17 55.0000000  0  6G04G08G09G16G27G31                  
  21234369.539 6  21234380.426 9 111587337.102 6  86951199.766 9  21234379.53548
  20597236.664 6  20597250.605 9 108239218.820 6  84342270.562 9  20597249.29749
  23049452.492 4  23049463.598 7 121125761.177 4  94383706.346 7  23049465.45346
  21478075.234 6                 112868027.102 6  87949132.70447  21478083.69947
  19941498.297 7  19941507.980 9 104793270.188 7  81657129.242 9  19941507.01649
  23718340.383 5  23718361.340 9 124640694.935 5  97122696.260 9  23718360.78147
 23  3 10  3 18  0.0000000  0  6G04G08G09G16G27G31                  
  21233909.648 6  21233920.609 9 111584920.618 6  86949316.784 9  21233920.08648
  20595193.828 6  20595207.043 9 108228480.767 6  84333903.255 9  20595205.69549
  23047303.891 5  23047318.195 8 121114471.710 5  94374909.252 8  23047319.64547
  21478678.945 6                 112871198.073 6  87951603.55547  21478686.56347
  19941576.094 7  19941585.730 9 104793678.138 7  81657447.120 9  19941584.71149
  23720044.898 5  23720066.227 9 124649654.092 5  97129677.428 9  23720065.51647
 23  3 10  3 18  5.0000000  0  6G04G08G09G16G27G31                  
  21233453.047 6  21233464.496 9 111582521.233 6  86947447.102 9  21233463.79748
  20593153.000 6  20593166.668 9 108217758.375 6  84325548.145 9  20593165.83249
  23045158.164 4  23045173.488 8 121103197.081 4  94366123.895 8  23045175.05547
  21479283.883 6                 112874372.331 6  87954076.99947  21479291.40647
  19941656.617 7  19941666.387 9 104794103.051 7  81657778.208 9  19941665.33649
  23721751.086 5  23721771.789 9 124658621.017 5  97136664.686 9  23721771.34047
 23  3 10  3 18 10.0000000  0  6G04G08G09G16G27G31                  
  21233000.016 6  21233010.738 9 111580138.500 6  86945590.390 9  21233010.86748
  20591115.313 6  20591129.438 9 108207051.101 6  84317204.821 9  20591128.39149
  23043015.672 5  23043031.480 8 121091936.800 5  94357349.541 8  23043033.09447
  21479887.797 6                 112877549.435 6  87956552.63148  21479895.55548
  19941740.805 7  19941750.719 9 104794544.483 7  81658122.179 9  19941749.46549
  23723458.883 5  23723479.664 9 124667595.325 5  97143657.648 9  23723478.96147
 23  3 10  3 18 15.0000000  0  6G04G08G09G16G27G31                  
  21232549.648 6  21232560.387 9 111577772.247 6  86943746.530 9  21232560.14848
  20589080.789 6  20589095.164 9 108196358.950 6  84308873.277 9  20589094.18449
  23040874.922 4  23040891.895 8 121080690.816 4  94348586.440 8  23040892.99646
  21480492.594 6                 112880729.221 6  87959030.35147  21480500.57847
  19941828.039 7  19941838.164 9 104795002.275 7  81658478.896 9  19941837.05949
  23725168.063 5  23725189.145 8 124676576.757 5  97150656.161 8  23725188.32447
 23  3 10  3 18 20.0000000  0  6G04G08G09G16G27G31                  
  21232102.125 6  21232113.094 9 111575422.885 6  86941915.835 9  21232112.75448
  20587049.266 6  20587062.637 9 108185682.268 6  84300553.781 9  20587061.91849
  23038737.633 4  23038754.152 8 121069459.528 4  94339834.780 8  23038755.07446
  21481097.961 6                 112883912.089 6  87961510.48248  21481106.32048
  19941918.461 7  19941927.961 9 104795476.811 7  81658848.653 9  19941926.94949
  23726878.859 5  23726899.695 8 124685565.798 5  97157660.593 8  23726898.80547
 23  3 10  3 18 25.0000000  0  7G04G08G09G16G26G27G31               
  21231658.758 6  21231669.758 9 111573090.347 6  86940098.239 9  21231669.16847
  20585020.625 6  20585034.457 9 108175020.845 6  84292246.184 9  20585033.45749
  23036603.984 4  23036618.301 7 121058242.858 4  94331094.514 7  23036619.79346
  21481704.820 6                 112887097.984 6  87963992.97847  21481712.88747
  23029410.344 1                 121020306.56711                
  19942011.813 7  19942021.480 9 104795968.027 7  81659231.411 9  19942020.55949
  23728591.070 5  23728611.258 8 124694562.302 5  97164670.866 8  23728610.14147
 23  3 10  3 18 30.0000000  0  7G04G08G09G16G26G27G31               
  21231218.133 6  21231229.277 9 111570775.734 6  86938294.620 9  21231228.48047
  20582995.180 6  20583008.563 9 108164375.998 6  84283951.520 9  20583007.87949
  23034472.234 3  23034486.230 7 121047041.866 3  94322366.424 7  23034487.09846
  21482311.680 6                 112890287.969 6  87966478.66147  21482320.13347
  23030561.508 1  23030572.992 8 121026345.516 1  94306344.91518
  19942108.734 7  19942118.535 9 104796477.043 7  81659628.035 9  19942117.62549
  23730304.500 5  23730325.238 8 124703567.373 5  97171687.823 8  23730323.82847
 23  3 10  3 18 35.0000000  0  7G04G08G09G16G26G27G31               
  21230781.555 6  21230792.168 9 111568478.408 6  86936504.487 9  21230791.23447
  20580972.641 7  20580986.281 9 108153746.955 7  84275669.143 9  20580984.93449
  23032344.258 3  23032356.621 7 121035856.020 3  94313650.293 7  23032357.35246
  21482919.648 6                 112893481.450 6  87968967.05847  21482927.46947
  23031706.664 1  23031721.828 8 121032385.512 1  94311051.304 8
  19942208.906 7  19942218.328 9 104797003.156 7  81660038.001 9  19942217.83249
  23732019.711 5  23732040.012 8 124712580.395 5  97178710.975 8  23732039.05147
 23  3 10  3 18 40.0000000  0  7G04G08G09G16G26G27G31               
  21230347.141 6  21230357.449 9 111566196.585 6  86934726.415 9  21230356.96948
  20578952.523 7  20578966.094 9 108143132.030 7  84267397.784 9  20578965.18849
  23030217.242 4  23030231.320 7 121024683.466 4  94304944.365 7  23030230.45346
  21483527.719 6                 112896676.628 6  87971456.80247  21483535.75847
  23032855.406 1  23032871.242 8 121038424.560 1  94315757.044 8
  19942311.844 7  19942321.844 9 104797544.611 7  81660459.911 9  19942321.09449
  23733735.797 6  23733756.410 8 124721599.570 6  97185738.902 8  23733755.23047
 23  3 10  3 18 45.0000000  0  6G04G08G09G16G27G31                  
  21229915.859 6  21229926.875 9 111563932.830 6  86932962.404 9  21229926.59448
  20576935.438 7  20576949.582 9 108132533.698 7  84259139.346 9  20576948.95349
  23028095.703 5  23028109.078 7 121013526.817 5  94296250.909 7  23028108.23446
  21484136.172 6                 112899876.060 6  87973949.84647  21484144.19947
  19942418.039 7  19942428.113 9 104798103.972 7  81660895.778 9  19942427.28149
  23735453.820 5  23735474.980 9 124730627.460 5  97192773.629 9  23735473.82447
 23  3 10  3 18 50.0000000  0  6G04G08G09G16G27G31                  
  21229488.539 6  21229499.617 9 111561687.246 6  86931212.570 9  21229499.10947
  20574921.992 7  20574936.043 9 108121952.056 7  84250893.908 9  20574935.25449
  23025975.211 5  23025989.406 8 121002386.165 5  94287569.875 8  23025989.84446
  21484746.047 6                 112903079.813 6  87976446.25147  21484753.93047
  19942528.156 7  19942538.059 9 104798681.330 7  81661345.664 9  19942537.52749
  23737172.914 5  23737194.430 8 124739664.188 5  97199815.258 8  23737193.45747
 23  3 10  3 18 55.0000000  0  6G04G08G09G16G27G31                  
  21229064.797 6  21229075.559 9 111559457.943 6  86929475.402 9  21229075.16448
  20572910.938 7  20572924.559 9 108111385.374 7  84242660.139 9  20572923.84449
  23023856.930 4  23023872.281 8 120991259.671 4  94278899.894 8  23023873.04746
  21485355.211 6                 112906286.070 6  87978944.61647  21485363.81347
  19942641.211 7  19942651.324 9 104799274.800 7  81661808.100 9  19942650.61349
  23738894.148 5  23738915.488 9 124748707.869 5  97206862.289 9  23738914.35547
 23  3 10  3 19  0.0000000  0  6G04G08G09G16G27G31                  
  21228643.563 6  21228654.156 9 111557244.651 6  86927750.730 9  21228653.94548
  20570902.625 6  20570916.891 9 108100833.347 6  84234437.790 9  20570916.21549
  23021741.820 2  23021757.293 7 120980147.086 2  94270240.658 7  23021758.16446
  21485966.164 6                 112909494.570 6  87981444.73147  21485974.28147
  19942756.969 7  19942766.941 9 104799884.145 7  81662282.908 9  19942766.37149
  23740616.984 6  23740637.434 9 124757758.244 6  97213914.535 9  23740636.28947
 23  3 10  3 19  5.0000000  0  7G04G08G09G16G26G27G31               
  21228225.500 6  21228236.211 9 111555049.055 6  86926039.842 9  21228236.05947
  20568898.016 7  20568911.664 9 108090297.540 7  84226228.063 9  20568910.66449
  23019630.477 3  23019645.027 8 120969049.984 3  94261593.558 8  23019646.15646
  21486578.352 6                 112912706.909 6  87983947.83647  21486585.91447
  23038609.813 1  23038617.277 7 121068636.16511  94339301.19617
  19942876.289 7  19942886.586 9 104800510.962 7  81662771.330 9  19942885.90249
  23742340.578 6  23742361.078 8 124766816.968 6  97220973.285 8  23742360.17647
 23  3 10  3 19 10.0000000  0  6G04G08G09G16G27G31                  
  21227811.063 6  21227821.395 9 111552869.238 6  86924341.262 9  21227820.90647
  20566896.117 6  20566909.512 9 108079776.105 6  84218029.550 9  20566908.47349
  23017522.320 3  23017536.254 8 120957966.545 3  94252957.082 8  23017537.36747
  21487189.344 6                 112915921.167 6  87986452.43547  21487196.91447
  19942998.305 7  19943008.719 9 104801153.394 7  81663271.910 9  19943007.95349
  23744065.883 5  23744086.281 8 124775882.207 5  97228037.129 8  23744085.36747
 23  3 10  3 19 15.0000000  0  6G04G08G09G16G27G31                  
  21227399.555 6  21227409.668 9 111550705.680 6  86922655.332 9  21227409.46147
  20564897.031 7  20564910.543 9 108069269.513 7  84209842.600 9  20564909.56649
  23015416.508 4  23015429.074 7 120946897.313 4  94244331.738 7  23015429.20746
  21487801.391 6                 112919137.818 6  87988958.89147  21487809.09447
  19943123.930 7  19943134.066 9 104801811.891 7  81663785.017 9  19943133.12549
  23745791.922 5  23745812.570 8 124784954.337 5  97235106.325 8  23745811.59047
 23  3 10  3 19 20.0000000  0  6G04G08G09G16G27G31                  
  21226990.938 6  21227001.023 9 111548559.174 6  86920982.708 9  21227001.10948
  20562900.133 6  20562913.906 9 108058778.581 6  84201667.860 9  20562913.14149
  23013312.508 5  23013326.039 7 120935842.931 5  94235717.946 7  23013325.26246
  21488414.477 6                 112922357.719 6  87991467.88947  21488422.15247
  19943252.594 7  19943262.898 9 104802487.239 7  81664311.257 9  19943261.91449
  23747519.703 5  23747540.512 8 124794034.221 5  97242181.561 8  23747539.74247
 23  3 10  3 19 25.0000000  0  6G04G08G09G16G27G31                  
  21226586.008 6  21226595.988 9 111546429.276 6  86919323.019 9  21226596.05147
  20560906.531 6  20560920.629 9 108048302.931 6  84193505.021 9  20560919.53549
  23011211.641 4  23011225.395 7 120924803.110 4  94227115.534 7  23011224.07846
  21489027.656 6                 112925580.404 6  87993979.05347  21489035.07047
  19943383.914 7  19943394.375 9 104803179.005 7  81664850.292 9  19943393.69949
  23749249.055 5  23749270.043 8 124803121.394 5  97249262.469 8  23749268.80547
 23  3 10  3 19 30.0000000  0  6G04G08G09G16G27G31                  
  21226183.578 6  21226194.563 9 111544316.479 6  86917676.660 9  21226194.05148
  20558916.734 7  20558929.762 9 108037843.053 7  84185354.459 9  20558928.95749
  23009112.727 2  23009127.543 8 120913778.260 2  94218524.793 8  23009126.71146
  21489641.805 6                 112928806.324 6  87996492.74547  21489649.24247
  19943518.953 7  19943529.465 9 104803887.672 7  81665402.489 9  19943528.64549
  23750979.891 5  23751000.391 8 124812216.315 5  97256349.461 8  23750999.48847
 23  3 10  3 19 35.0000000  0  6G04G08G09G16G27G31                  
  21225784.680 6  21225795.316 9 111542220.885 6  86916043.690 9  21225794.69148
  20556928.883 7  20556942.121 9 108027399.008 7  84177216.258 9  20556941.09849
  23007018.188 3  23007033.395 8 120902768.584 3  94209945.809 8  23007032.05146
  21490256.133 6                 112932035.611 6  87999009.04247  21490263.35547
  19943656.961 7  19943667.309 9 104804613.327 7  81665967.920 9  19943666.64549
  23752711.836 5  23752732.645 8 124821319.120 5  97263442.514 8  23752731.60547
 23  3 10  3 19 40.0000000  0  6G04G08G09G16G27G31                  
  21225389.336 6  21225400.141 9 111540141.574 6  86914423.421 9  21225399.35547
  20554944.797 6  20554957.875 9 108016969.916 6  84169089.694 9  20554956.75849
  23004925.633 4  23004940.945 8 120891773.142 4  94201377.893 8  23004940.66847
  21490871.070 6                 112935267.306 6  88001527.24847  21490878.41047
  19943797.891 7  19943808.215 9 104805355.041 7  81666545.869 9  19943807.92249
  23754444.547 5  23754466.348 8 124830428.888 5  97270541.058 8  23754465.25447
 23  3 10  3 19 45.0000000  0  6G04G08G09G16G27G31                  
  21224996.508 6  21225007.059 9 111538079.590 6  86912816.647 9  21225006.44148
  20552962.648 7  20552976.227 9 108006556.679 7  84160975.492 9  20552975.08649
  23002837.172 4  23002850.785 8 120880792.956 4  94192821.929 8  23002851.39147
  21491486.836 6                 112938502.559 6  88004048.21047  21491494.17647
  19943942.438 7  19943952.703 9 104806113.882 7  81667137.169 9  19943951.90249
  23756179.469 4  23756201.168 8 124839546.630 4  97277645.797 8  23756200.35946
 23  3 10  3 19 50.0000000  0  6G04G08G09G16G27G31                  
  21224608.328 6  21224618.855 9 111536034.814 6  86911223.291 9  21224617.59047
  20550983.930 7  20550997.504 9 107996159.222 7  84152873.582 9  20550996.58649
  23000750.500 3  23000764.508 8 120869827.859 3  94184277.674 8  23000764.90246
  21492103.656 6                 112941741.124 6  88006571.74447  21492110.78547
  19944090.430 7  19944100.520 9 104806889.674 7  81667741.672 9  19944100.20749
  23757916.219 5  23757937.688 8 124848672.274 5  97284756.701 8  23757936.66047
 23  3 10  3 19 55.0000000  0  6G04G08G09G16G27G31                  
  21224222.289 6  21224232.844 9 111534007.088 6  86909643.205 9  21224231.95348
  20549008.523 6  20549022.082 9 107985777.530 6  84144783.951 9  20549020.98049
  22998664.789 2  22998680.480 8 120858877.841 2  94175745.181 8  22998680.97346
  21492720.148 6                 112944982.935 6  88009097.81047  21492727.79747
  19944240.633 7  19944251.285 9 104807682.330 7  81668359.328 9  19944250.59849
  23759654.445 5  23759675.305 8 124857805.623 5  97291873.604 8  23759674.18446
 23  3 10  3 20  0.0000000  0  6G04G08G09G16G27G31                  
  21223839.797 6  21223850.074 9 111531996.377 6  86908076.381 9  21223849.35948
  20547036.500 7  20547049.406 9 107975411.561 7  84136706.577 9  20547048.84049
  22996585.570 3  22996599.164 8 120847942.706 3  94167224.318 8  22996600.11746
  21493337.844 6                 112948227.905 6  88011626.35647  21493344.98447
  19944395.016 7  19944405.438 9 104808491.755 7  81668990.021 9  19944404.95749
  23761394.531 4  23761415.184 8 124866946.660 4  97298996.519 8  23761413.95746
 23  3 10  3 20  5.0000000  0  7G04G08G09G16G26G27G31               
  21223460.109 6  21223470.984 9 111530002.765 6  86906522.877 9  21223470.28948
  20545066.617 7  20545079.859 9 107965061.333 7  84128641.474 9  20545079.02749
  22994508.148 2  22994521.391 8 120837022.701 2  94158715.260 8  22994521.98446
  21493955.633 6                 112951476.147 6  88014157.42847  21493963.69547
  23052414.070 1                                                
  19944552.273 7  19944562.777 9 104809318.037 7  81669633.868 9  19944561.78549
  23763135.336 5  23763156.141 8 124876095.535 5  97306125.514 8  23763155.50446
 23  3 10  3 20 10.0000000  0  7G04G08G09G16G26G27G31               
  21223083.719 6  21223094.469 9 111528024.740 6  86904981.526 9  21223094.10248
  20543099.859 7  20543112.742 9 107954725.492 7  84120587.584 9  20543111.59049
  22992430.570 1  22992446.359 8 120826116.258 1  94150216.757 8  22992445.96146
  21494574.250 6                 112954726.124 6  88016689.84347  21494582.16047
  23053562.555 1                                                
  19944712.836 7  19944722.453 9 104810159.670 7  81670289.669 9  19944722.00849
  23764876.211 4  23764898.441 8 124885250.617 4  97313259.358 8  23764896.94946
 23  3 10  3 20 15.0000000  0  7G04G08G09G16G26G27G31               
  21222710.445 6  21222721.410 9 111526063.829 6  86903453.513 9  21222720.78948
  20541135.805 7  20541149.074 9 107944405.343 7  84112545.927 9  20541148.30549
  22990360.797 1  22990375.031 8 120815224.93711  94141729.91318  22990374.95746
  21495193.156 6                 112957979.351 6  88019224.80647  21495201.29747
  23054718.117 1  23054733.000 8 121153265.95911  94405281.08318
  19944876.047 7  19944885.855 9 104811018.153 7  81670958.623 9  19944885.39549
  23766620.969 5  23766641.500 8 124894413.596 5  97320399.302 8  23766640.37546
 23  3 10  3 20 20.0000000  0  7G04G08G09G16G26G27G31               
  21222340.953 6  21222351.570 9 111524119.741 6  86901938.617 9  21222350.32448
  20539174.469 7  20539187.813 9 107934100.668 7  84104516.311 9  20539187.35249
  22988289.922 1  22988304.578 8 120804348.48711  94133254.80118  22988305.43446
  21495813.016 6                 112961235.585 6  88021762.11347  21495820.78147
  23055866.820 1  23055884.941 8 121159316.64811  94409995.80818
  19945042.563 7  19945052.430 9 104811893.247 7  81671640.508 9  19945051.68049
  23768365.320 4  23768386.891 8 124903584.019 4  97327545.127 8  23768385.67246
 23  3 10  3 20 25.0000000  0  6G04G08G09G16G27G31                  
  21221974.195 6  21221984.730 9 111522193.081 6  86900437.276 9  21221983.99248
  20537217.141 7  20537230.582 9 107923812.266 7  84096499.376 9  20537230.00449
  22986224.672 1  22986237.051 8 120793487.34211  94124791.53218  22986237.98846
  21496433.359 6                 112964495.404 6  88024302.20847  21496441.38347
  19945212.820 7  19945222.449 9 104812785.490 7  81672335.758 9  19945221.73849
  23770112.773 5  23770132.770 8 124912762.535 5  97334697.219 8  23770131.68046
 23  3 10  3 20 30.0000000  0  6G04G08G09G16G27G31                  
  21221610.922 6  21221621.688 9 111520283.340 6  86898949.145 9  21221620.50448
  20535262.141 7  20535275.176 9 107913539.421 7  84088494.570 9  20535274.44549
  22984160.250 1  22984173.008 8 120782641.201 1  94116340.068 8  22984173.68446
  21497053.867 6                 112967758.250 6  88026844.68847  21497062.33647
  19945385.461 7  19945395.531 9 104813694.401 7  81673043.986 9  19945394.59849
  23771860.867 4  23771881.195 8 124921948.649 4  97341855.271 8  23771879.94546
 23  3 10  3 20 35.0000000  0  6G04G08G09G16G27G31                  
  21221250.211 6  21221261.168 9 111518389.715 6  86897473.552 9  21221260.35948
  20533310.234 7  20533323.988 9 107903281.491 7  84080501.387 9  20533323.02749
  22982097.906 1                                                
  21497675.734 6                 112971023.382 6  88029388.91947  21497683.50047
  19945561.398 7  19945571.082 9 104814619.159 7  81673764.568 9  19945570.63349
  23773610.117 4  23773630.414 8 124931141.557 4  97349018.594 8  23773629.35246
 23  3 10  3 20 40.0000000  0  6G04G08G09G16G27G31                  
  21220893.805 6  21220904.527 9 111516513.928 6  86896011.886 9  21220903.89848
  20531361.438 7  20531374.836 9 107893040.191 7  84072521.161 9  20531373.66849
  22980039.719 1  22980053.391 8 120760993.12011  94099471.33718  22980053.77046
  21498297.711 6                 112974292.604 6  88031936.36847  21498305.69147
  19945740.281 7  19945750.297 9 104815561.507 7  81674498.851 9  19945749.72749
  23775361.102 3  23775381.625 8 124940343.007 3  97356188.573 8  23775380.55546
 23  3 10  3 20 45.0000000  0  6G04G08G09G16G27G31                  
  21220539.375 6  21220550.164 9 111514653.771 6  86894562.363 9  21220549.58248
  20529415.344 7  20529428.609 9 107882813.130 7  84064552.051 9  20529427.65649
  22977985.680 1  22977998.063 8 120750190.563 1  94091053.870 8  22977996.83246
  21498920.148 6                 112977563.605 6  88034485.15647  21498927.57447
  19945922.781 7  19945933.223 9 104816519.183 7  81675245.079 9  19945932.43849
  23777113.344 4  23777133.566 8 124949550.802 4  97363363.435 8  23777132.17246
 23  3 10  3 20 50.0000000  0  6G04G08G09G16G27G31                  
  21220188.766 6  21220200.191 9 111512812.314 6  86893127.443 9  21220199.94948
  20527472.352 7  20527485.805 9 107872603.413 7  84056596.427 9  20527484.73049
  22975931.938 1  22975944.855 7 120739405.013 1  94082649.537 7  22975943.92246
  21499543.242 6                 112980839.436 6  88037037.73047  21499551.31647
  19946108.734 7  19946118.996 9 104817495.297 7  81676005.678 9  19946118.46549
  23778868.383 4  23778888.242 8 124958767.969 4  97370545.715 8  23778886.64846
 23  3 10  3 20 55.0000000  0  7G04G08G09G16G26G27G31               
  21219841.508 6  21219852.824 9 111510987.811 6  86891705.713 9  21219852.84448
  20525532.805 7  20525545.699 9 107862409.402 7  84048653.044 9  20525544.66849
  22973879.953 1  22973895.934 8 120728634.279 1  94074256.790 8  22973894.13346
  21500167.570 6                 112984118.361 6  88039592.70747  21500175.25847
  23063928.609 1                 121201691.06411                
  19946297.422 7  19946307.660 9 104818488.085 7  81676779.271 9  19946307.24649
  23780623.406 5  23780643.219 8 124967992.813 5  97377733.896 8  23780641.94146
 23  3 10  3 21  0.0000000  0  5G04G08G16G27G31                     
  21219497.703 6  21219508.184 9 111509179.755 6  86890296.816 9  21219508.30548
  20523595.703 7  20523609.109 9 107852230.688 7  84040721.566 9  20523607.98049
  21500792.297 6                 112987399.832 6  88042149.66347  21500799.89547
  19946489.250 7  19946499.430 9 104819497.027 7  81677565.447 9  19946498.75849
  23782379.336 4  23782399.992 8 124977224.751 4  97384927.630 8  23782399.06646
 23  3 10  3 21  5.0000000  0  5G04G08G16G27G31                     
  21219156.531 6  21219167.746 9 111507387.063 6  86888899.881 9  21219167.84848
  20521661.352 6  20521674.465 9 107842066.002 6  84032801.042 9  20521673.59849
  21501416.750 6                 112990682.845 6  88044707.84847  21501424.44547
  19946684.242 7  19946694.453 9 104820521.056 7  81678363.395 9  19946693.73849
  23784137.844 3  23784157.879 8 124986462.772 3  97392126.094 8  23784156.48046
 23  3 10  3 21 10.0000000  0  6G04G08G09G16G27G31                  
  21218818.664 6  21218829.773 9 111505611.128 6  86887515.998 9  21218829.80948
  20519730.063 7  20519743.773 9 107831916.889 7  84024892.646 9  20519742.12549
  22967755.305 1                                                
  21502042.070 6                 112993968.712 6  88047268.22547  21502049.71547
  19946882.234 7  19946892.188 9 104821561.515 7  81679174.130 9  19946891.89849
  23785896.727 4  23785917.168 8 124995708.256 4  97399330.347 8  23785916.24246
 23  3 10  3 21 15.0000000  0  6G04G08G09G16G27G31                  
  21218483.688 6  21218494.977 9 111503852.834 6  86886145.875 9  21218494.76648
  20517801.938 7  20517815.371 9 107821784.062 7  84016996.947 9  20517813.94149
  22965721.195 1                                                
  21502668.727 6                 112997258.369 6  88049831.58647  21502675.97747
  19947083.359 7  19947093.434 9 104822619.333 7  81679998.393 9  19947092.98849
  23787658.508 5  23787677.582 8 125004962.095 5  97406541.114 8  23787677.19146
 23  3 10  3 21 20.0000000  0  6G04G08G09G16G27G31                  
  21218152.414 6  21218163.578 9 111502110.146 6  86884787.878 9  21218163.14547
  20515876.227 7  20515889.637 9 107811665.629 7  84009112.454 9  20515888.48849
  22963677.289 1  22963688.031 8 120674994.39611  94032460.48018  22963688.19545
  21503294.211 6                 113000549.803 6  88052396.30047  21503302.21147
  19947287.461 7  19947297.785 9 104823692.468 7  81680834.593 9  19947297.11749
  23789420.156 4  23789439.648 8 125014222.207 4  97413756.808 8  23789439.10246
 23  3 10  3 21 25.0000000  0  5G04G08G16G27G31                     
  21217823.938 6  21217835.211 9 111500385.104 6  86883443.660 9  21217835.06348
  20513954.344 7  20513967.164 9 107801563.604 7  84001240.761 9  20513966.22749
  21503921.641 6                 113003844.946 6  88054963.93347  21503929.12547
  19947495.398 7  19947505.563 9 104824782.897 7  81681684.278 9  19947504.82049
  23791183.844 5  23791203.426 8 125023490.601 5  97420978.927 8  23791202.68046
 23  3 10  3 21 30.0000000  0  5G04G08G16G27G31                     
  21217498.867 6  21217510.113 9 111498676.724 6  86882112.425 9  21217510.11348
  20512034.828 7  20512047.641 9 107791477.090 7  83993381.137 9  20512046.90649
  21504549.461 6                 113007142.987 6  88057533.80147  21504556.96547
  19947705.828 7  19947716.180 9 104825889.717 7  81682546.719 9  19947715.10949
  23792947.789 4  23792968.887 8 125032766.407 4  97428206.816 8  23792967.89146
 23  3 10  3 21 35.0000000  0  5G04G08G16G27G31                     
  21217177.313 6  21217188.051 9 111496984.935 6  86880794.128 9  21217187.71948
  20510118.531 7  20510131.297 9 107781405.969 7  83985533.517 9  20510129.92649
  21505177.570 6                 113010443.770 6  88060105.81447  21505185.41847
  19947919.477 7  19947929.680 9 104827012.803 7  81683421.834 9  19947929.27749
  23794714.922 4  23794734.680 8 125042049.472 4  97435440.377 8  23794734.46546
 23  3 10  3 21 40.0000000  0  5G04G08G16G27G31                     
  21216858.875 6  21216869.879 9 111495310.186 6  86879489.094 9  21216869.53148
  20508204.727 7  20508218.219 9 107771350.599 7  83977698.174 9  20508216.92649
  21505805.984 6                 113013747.721 6  88062680.29447  21505813.87147
  19948136.602 7  19948146.734 9 104828152.606 7  81684309.986 9  19948146.08249
  23796483.242 4  23796502.801 8 125051340.362 4  97442680.053 8  23796502.30546
 23  3 10  3 21 45.0000000  0  6G04G08G09G16G27G31                  
  21216543.305 6  21216553.496 9 111493651.598 6  86878196.668 9  21216553.68848
  20506294.383 7  20506307.293 9 107761310.167 7  83969874.470 9  20506306.36749
  22953541.180 1                 120621726.23911                
  21506435.781 6                 113017054.017 6  88065256.60747  21506443.28547
  19948356.195 7  19948366.648 9 104829308.257 7  81685210.470 9  19948366.18849
  23798252.500 5  23798271.559 8 125060638.118 5  97449925.068 8  23798271.68046
 23  3 10  3 21 50.0000000  0  6G04G08G09G16G27G31                  
  21216230.094 6  21216241.211 9 111492009.259 6  86876916.885 9  21216240.94147
  20504386.367 7  20504399.063 9 107751284.726 7  83962062.434 9  20504397.89149
  22951522.164 2  22951535.008 8 120611117.043 2  93982699.48818  22951536.29346
  21507064.742 6                 113020362.660 6  88067834.74547  21507073.04347
  19948579.297 7  19948589.469 9 104830479.779 7  81686123.344 9  19948588.91449
  23800022.602 4  23800042.867 8 125069942.703 4  97457175.380 8  23800041.87546
 23  3 10  3 21 55.0000000  0  6G04G08G09G16G27G31                  
  21215921.375 6  21215932.531 9 111490384.310 6  86875650.660 9  21215932.18447
  20502481.727 7  20502495.211 9 107741275.586 7  83954263.107 9  20502493.94949
  22949507.547 4  22949519.367 8 120600523.430 4  93974444.650 8  22949520.67647
  21507695.469 6                 113023674.864 6  88070415.65447  21507703.34047
  19948805.742 7  19948815.582 9 104831668.398 7  81687049.523 9  19948814.77049
  23801795.055 5  23801814.406 8 125079255.469 5  97464432.100 8  23801813.18046
 23  3 10  3 22  0.0000000  0  6G04G08G09G16G27G31                  
  21215615.188 6  21215626.246 9 111488776.534 6  86874397.834 9  21215625.61347
  20500580.367 7  20500593.211 9 107731282.391 7  83946476.201 9  20500591.93049
  22947494.641 3  22947506.293 8 120589945.137 3  93966201.830 8  22947507.33647
  21508326.211 6                 113026990.306 6  88072999.07747  21508333.83647
  19949034.836 7  19949045.590 9 104832873.854 7  81687988.823 9  19949044.91049
  23803568.281 5  23803587.793 8 125088576.128 5  97471694.978 8  23803586.91846
 23  3 10  3 22  5.0000000  0  6G04G08G09G16G27G31                  
  21215312.773 6  21215323.332 9 111487185.308 6  86873157.890 9  21215322.69547
  20498681.055 7  20498694.496 9 107721304.492 7  83938701.225 9  20498693.00849
  22945483.859 2  22945495.723 8 120579381.647 2  93957970.499 8  22945497.22347
  21508957.469 6                 113030308.491 6  88075584.65747  21508965.53947
  19949267.141 7  19949277.684 9 104834095.496 7  81688940.739 9  19949277.03949
  23805343.297 4  23805362.836 8 125097904.018 4  97478963.451 8  23805361.52046
 23  3 10  3 22 10.0000000  0  6G04G08G09G16G27G31                  
  21215012.969 6  21215023.359 9 111485609.308 6  86871929.819 9  21215022.57847
  20496785.281 7  20496798.191 9 107711340.689 7  83930937.236 9  20496796.92649
  22943476.000 1  22943488.242 8 120568831.573 1  93949749.677 8  22943489.23446
  21509589.148 6                 113033627.997 6  88078171.26048  21509597.45748
  19949502.367 7  19949513.117 9 104835332.031 7  81689904.261 9  19949512.29349
  23807120.313 5  23807138.926 8 125107237.847 5  97486236.584 8  23807137.30146
 23  3 10  3 22 15.0000000  0  5G04G08G16G27G31                     
  21214716.555 6  21214726.711 9 111484051.436 6  86870715.854 9  21214726.29347
  20494892.008 7  20494905.590 9 107701393.927 7  83923186.533 9  20494904.27049
  21510221.773 6                 113036951.772 6  88080761.19147  21510229.90247
  19949741.094 7  19949751.551 9 104836586.299 7  81690881.599 9  19949750.99249
  23808898.422 4  23808916.855 8 125116580.484 4  97493516.568 8  23808914.47346
 23  3 10  3 22 20.0000000  0  6G04G08G09G16G27G31                  
  21214422.961 6  21214433.715 9 111482508.413 6  86869513.476 9  21214433.44948
  20493001.820 7  20493015.410 9 107691460.851 7  83915446.492 9  20493013.93449
  22939466.203 2                 120547648.27712                
  21510854.258 6                 113040276.546 6  88083351.91447  21510862.57047
  19949982.898 7  19949993.270 9 104837855.116 7  81691870.274 9  19949992.60949
  23810675.594 3  23810696.254 8 125125928.614 3  97500800.866 8  23810694.29346
 23  3 10  3 22 25.0000000  0  6G04G08G09G16G27G31                  
  21214132.750 6  21214143.426 9 111480982.639 6  86868324.515 9  21214142.87547
  20491114.883 7  20491128.430 9 107681543.785 7  83907718.900 9  20491126.65249
  22937468.656 1  22937481.586 8 120537143.101 1  93925153.66018
  21511487.516 6                 113043604.688 6  88085945.25147  21511496.35247
  19950227.352 7  19950237.902 9 104839140.760 7  81692872.072 9  19950237.42649
  23812456.391 4  23812477.129 7 125135284.791 4  97508091.408 7  23812474.58246
 23  3 10  3 22 30.0000000  0  7G04G08G09G16G26G27G31               
  21213845.375 6  21213856.164 9 111479474.208 6  86867149.092 9  21213855.69147
  20489231.398 7  20489244.301 9 107671643.000 7  83900004.012 9  20489242.77749
  22935476.992 2  22935486.613 8 120526653.438 2  93916980.073 8  22935486.21947
  21512120.922 6                 113046936.299 6  88088541.27647  21512130.51647
  23085838.180 1                 121316837.79111                
  19950475.578 7  19950485.738 9 104840443.395 7  81693887.085 9  19950485.18849
  23814239.609 5  23814258.949 8 125144648.850 5  97515388.148 8  23814256.78146
 23  3 10  3 22 35.0000000  0  7G04G08G09G16G26G27G31               
  21213561.578 6  21213572.965 9 111477983.757 6  86865987.646 9  21213572.46547
  20487350.234 7  20487362.938 9 107661759.008 7  83892302.214 9  20487361.45349
  22933482.438 1  22933494.227 8 120516179.921 1  93908818.911 8  22933493.43046
  21512756.469 6                 113050272.049 6  88091140.52947  21512765.39847
  23086991.859 1                                                
  19950726.750 7  19950737.266 9 104841763.638 7  81694915.853 9  19950736.37949
  23816022.125 5  23816042.801 8 125154021.700 5  97522691.684 8  23816041.62546
 23  3 10  3 22 40.0000000  0  7G04G08G09G16G26G27G31               
  21213280.656 6  21213291.645 9 111476508.305 6  86864837.921 9  21213291.10247
  20485472.164 7  20485484.715 9 107651888.919 7  83884611.234 9  20485483.81349
  22931497.461 1  22931503.602 8 120505719.896 1  93900668.213 8  22931503.66446
  21513391.344 6                 113053608.923 6  88093740.69147  21513400.17647
  23088146.336 1                 121328969.59711                
  19950980.891 7  19950990.969 9 104843098.535 7  81695956.012 9  19950990.25049
  23817806.633 4  23817827.934 8 125163400.313 4  97529999.701 8  23817826.73846
 23  3 10  3 22 45.0000000  0  6G04G08G16G26G27G31                  
  21213003.359 6  21213014.785 9 111475050.755 6  86863702.127 9  21213013.80547
  20483597.117 7  20483609.660 9 107642035.520 7  83876933.271 9  20483608.72349
  21514026.586 6                 113056949.812 6  88096343.94747  21514035.61747
  23089301.914 1  23089317.320 7 121335036.677 1  94546891.07817
  19951237.781 7  19951248.316 9 104844450.911 7  81697009.791 9  19951247.57449
  23819593.102 4  23819614.082 8 125172787.484 4  97537314.379 8  23819613.63346
 23  3 10  3 22 50.0000000  0  6G04G08G16G26G27G31                  
  21212729.547 6  21212740.148 9 111473609.686 6  86862579.199 9  21212739.75847
  20481724.430 7  20481737.867 9 107632197.691 7  83869267.438 9  20481736.84449
  21514663.336 6                 113060293.398 6  88098949.31447  21514672.00447
  23090456.148 1                                                
  19951498.242 7  19951508.855 9 104845819.438 7  81698076.175 9  19951507.89549
  23821381.258 5  23821401.734 8 125182181.938 5  97544634.723 8  23821401.36346
 23  3 10  3 22 55.0000000  0  6G04G08G16G26G27G31                  
  21212458.336 6  21212468.953 9 111472184.374 6  86861468.529 9  21212468.76647
  20479855.023 7  20479868.379 9 107622374.385 7  83861612.929 9  20479867.13749
  21515299.305 6                 113063638.796 6  88101556.08747  21515308.48047
  23091609.703 1  23091628.578 8 121347171.14711  94556346.27418
  19951761.375 7  19951772.363 9 104847203.279 7  81699154.482 9  19951772.01649
  23823169.961 5  23823190.414 8 125191582.810 5  97551960.069 8  23823190.56346
 23  3 10  3 23  0.0000000  0  7G04G08G09G16G26G27G31               
  21212190.781 6  21212201.020 9 111470775.985 6  86860371.033 9  21212200.61747
  20477988.688 7  20478002.375 9 107612566.813 7  83853970.669 9  20478001.16049
  22923562.648 1  22923569.926 8 120464024.60611  93868179.66618
  21515936.484 6                 113066987.263 6  88104165.26647  21515945.47747
  23092762.539 1  23092784.355 8 121353238.938 1  94561074.310 8
  19952028.344 7  19952038.660 9 104848603.690 7  81700245.708 9  19952037.88349
  23824960.773 5  23824981.660 8 125200991.356 5  97559291.392 8  23824981.32446
 23  3 10  3 23  5.0000000  0  7G04G08G09G16G26G27G31               
  21211926.031 6  21211936.352 9 111469385.296 6  86859287.349 9  21211935.83247
  20476125.859 7  20476138.816 9 107602775.895 7  83846341.396 9  20476137.59849
  22921581.875 1                                                
  21516574.906 6                 113070339.588 6  88106777.45948  21516583.21548
  23093919.164 1  23093940.277 7 121359308.208 1  94565803.553 7
  19952298.141 7  19952308.371 9 104850021.399 7  81701350.390 9  19952307.93849
  23826752.750 5  23826773.215 8 125210408.308 5  97566629.319 8  23826772.97347
 23  3 10  3 23 10.0000000  0  7G04G08G09G16G26G27G31               
  21211664.039 6  21211674.992 9 111468011.245 6  86858216.629 9  21211674.63347
  20474265.703 7  20474279.195 9 107593000.443 7  83838724.162 9  20474278.33249
  22919605.836 1  22919621.160 8 120443271.61311  93852008.64718  22919621.53546
  21517213.195 6                 113073694.687 6  88109391.78547  21517221.43847
  23095073.219 1  23095093.188 7 121365378.148 1  94570533.296 7
  19952571.039 7  19952581.742 9 104851455.322 7  81702467.729 9  19952581.22749
  23828545.273 5  23828566.766 8 125219832.618 5  97573972.897 8  23828566.43046
 23  3 10  3 23 15.0000000  0  7G04G08G09G16G26G27G31               
  21211405.805 6  21211416.457 9 111466653.311 6  86857158.471 9  21211415.98047
  20472408.031 7  20472421.137 9 107583240.108 7  83831118.708 9  20472420.38749
  22917636.984 1                                                
  21517852.609 6                 113077052.027 6  88112007.89847  21517860.52347
  23096230.273 1  23096246.637 7 121371448.12111  94575263.04817
  19952846.641 7  19952857.250 9 104852904.975 7  81703597.312 9  19952856.64849
  23830340.531 5  23830361.191 8 125229263.796 5  97581321.882 8  23830361.38747
 23  3 10  3 23 20.0000000  0  6G04G08G16G26G27G31                  
  21211150.227 6  21211161.391 9 111465312.198 6  86856113.425 9  21211160.99647
  20470554.211 7  20470567.188 9 107573495.428 7  83823525.450 9  20470565.86749
  21518490.883 6                 113080412.318 6  88114626.25547  21518500.10947
  23097386.180 1  23097400.348 7 121377518.78111  94579993.39517
  19953125.680 6  19953136.039 9 104854371.038 6  81704739.684 9  19953135.61349
  23832136.617 5  23832157.367 8 125238702.428 5  97588676.681 8  23832156.80546
 23  3 10  3 23 25.0000000  0  5G04G08G16G27G31                     
  21210898.523 6  21210909.586 9 111463988.469 6  86855081.910 9  21210909.68047
  20468702.484 7  20468715.902 9 107563766.975 7  83815944.852 9  20468714.51249
  21519132.461 6                 113083776.148 6  88117247.42147  21519140.31347
  19953407.711 7  19953418.117 9 104855854.082 7  81705895.283 9  19953417.39849
  23833935.000 5  23833954.672 8 125248149.251 5  97596037.839 8  23833954.35946
 23  3 10  3 23 30.0000000  0  5G04G08G16G27G31                     
  21210649.852 6  21210661.438 9 111462682.292 6  86854064.074 9  21210660.47348
  20466854.852 7  20466867.727 9 107554055.084 7  83808377.149 9  20466866.78549
  21519772.883 6                 113087143.635 6  88119871.39447  21519780.93847
  19953693.320 7  19953703.805 9 104857354.244 7  81707064.229 9  19953702.78149
  23835734.219 5  23835754.539 8 125257604.296 5  97603405.415 8  23835754.24247
 23  3 10  3 23 35.0000000  0  6G04G08G09G16G27G31                  
  21210404.656 6  21210415.898 9 111461392.462 6  86853058.971 9  21210415.26248
  20465009.539 7  20465022.418 9 107544358.520 7  83800821.398 9  20465021.34449
  22909787.641 1                                                
  21520414.477 6                 113090513.655 6  88122497.37947  21520422.40247
  19953981.789 7  19953992.012 9 104858870.323 7  81708245.574 9  19953991.36749
  23837534.383 6  23837554.848 8 125267066.394 6  97610778.524 8  23837554.94147
 23  3 10  3 23 40.0000000  0  6G04G08G09G16G27G31                  
  21210161.906 6  21210172.781 9 111460118.883 6  86852066.533 9  21210172.37147
  20463167.195 7  20463179.871 9 107534677.139 7  83793277.479 9  20463178.78549
  22907829.586 1  22907842.102 8 120381371.79711  93803777.15418  22907841.54746
  21521056.328 6                 113093886.055 6  88125125.19847  21521063.79347
  19954273.531 7  19954283.238 9 104860402.222 7  81709439.261 9  19954282.60249
  23839336.172 6  23839356.551 8 125276535.528 6  97618157.072 8  23839356.97347
 23  3 10  3 23 45.0000000  0  6G04G08G09G16G27G31                  
  21209922.805 6  21209934.445 9 111458861.226 6  86851086.510 9  21209933.35948
  20461328.047 7  20461340.910 9 107525010.711 7  83785745.212 9  20461339.59449
  22905878.023 1  22905888.598 8 120371107.613 1  93795779.203 8  22905888.11346
  21521698.180 6                 113097260.501 6  88127754.62547  21521706.52747
  19954567.688 7  19954578.301 9 104861949.608 7  81710644.995 9  19954577.37149
  23841138.781 5  23841159.988 8 125286011.268 5  97625540.757 8  23841159.92247
 23  3 10  3 23 50.0000000  0  6G04G08G09G16G27G31                  
  21209686.898 6  21209698.523 9 111457620.339 6  86850119.555 9  21209697.59447
  20459491.391 7  20459504.508 9 107515360.035 7  83778225.201 9  20459503.21949
  22903925.797 1  22903938.477 8 120360858.493 1  93787792.865 8  22903937.51646
  21522341.258 6                 113100637.878 6  88130386.32747  21522348.52347
  19954865.406 6  19954875.840 9 104863513.349 6  81711863.475 9  19954874.97749
  23842944.039 6  23842965.082 8 125295494.514 6  97632930.302 8  23842964.44547
 23  3 10  3 23 55.0000000  0  5G04G08G16G27G31                     
  21209454.219 6  21209465.230 9 111456395.054 6  86849164.758 9  21209464.37947
  20457657.383 7  20457670.762 9 107505723.790 7  83770716.455 9  20457669.55949
  21522984.516 6                 113104016.914 6  88133019.33147  21522991.99647
  19955165.984 7  19955176.016 9 104865092.237 7  81713093.766 9  19955175.27049
  23844749.813 6  23844770.391 8 125304984.059 6  97640324.761 8  23844769.87547
 23  3 10  3 24  0.0000000  0  6G04G08G09G16G27G31                  
  21209223.703 6  21209234.969 9 111455185.050 6  86848221.860 9  21209234.05548
  20455826.289 7  20455839.598 9 107496101.769 7  83763218.781 9  20455838.53149
  22900031.586 2                                                
  21523627.742 6                 113107397.409 6  88135653.43847  21523635.45747
  19955469.484 7  19955479.684 9 104866685.953 7  81714335.612 9  19955478.56649
  23846556.734 6  23846577.426 8 125314479.643 6  97647723.928 8  23846576.88347
 23  3 10  3 24  5.0000000  0  6G04G08G09G16G27G31                  
  21208996.625 6  21209008.273 9 111453992.444 6  86847292.531 9  21209007.81347
  20453998.695 7  20454011.742 9 107486496.071 7  83755733.825 9  20454010.52349
  22898090.859 1  22898105.488 8 120330194.81611  93763898.56718
  21524271.039 6                 113110781.447 6  88138290.35447  21524279.78147
  19955775.703 7  19955785.992 9 104868296.647 7  81715590.690 9  19955784.78549
  23848365.164 6  23848385.855 8 125323983.354 6  97655129.447 8  23848385.21947
 23  3 10  3 24 10.0000000  0  6G04G08G09G16G27G31                  
  21208772.914 6  21208784.625 9 111452817.115 6  86846376.648 9  21208783.97348
  20452173.961 7  20452186.480 9 107476906.705 7  83748261.604 9  20452185.35949
  22896152.273 1  22896166.605 9 120320005.072 1  93755958.505 9  22896166.23047
  21524916.172 6                 113114168.856 6  88140929.85447  21524923.61747
  19956085.711 7  19956095.797 9 104869924.115 7  81716858.846 9  19956094.87149
  23850175.055 6  23850195.637 8 125333495.099 6  97662541.198 8  23850194.78147
 23  3 10  3 24 15.0000000  0  6G04G08G09G16G27G31                  
  21208552.430 6  21208563.895 9 111451658.481 6  86845473.774 9  21208563.69147
  20450351.781 7  20450364.957 9 107467333.038 7  83740801.622 9  20450363.53949
  22894214.961 1  22894230.484 8 120309830.398 1  93748030.164 8  22894230.68046
  21525561.406 6                 113117559.113 6  88143571.59947  21525569.52047
  19956398.430 7  19956408.707 9 104871567.846 7  81718139.666 9  19956407.39549
  23851986.891 6  23852007.719 8 125343014.275 6  97669958.728 8  23852006.48847
 23  3 10  3 24 20.0000000  0  6G04G08G09G16G27G31                  
  21208334.313 6  21208346.078 9 111450515.266 6  86844582.934 9  21208345.76647
  20448533.070 7  20448545.738 9 107457773.803 7  83733352.868 9  20448544.69149
  22892281.570 1  22892296.191 8 120299669.539 1  93740112.613 8  22892296.98046
  21526206.602 6                 113120950.957 6  88146214.56347  21526214.87947
  19956714.102 7  19956724.082 9 104873226.538 7  81719432.146 9  19956723.12149
  23853799.203 6  23853819.629 8 125352539.653 6  97677381.125 8  23853819.02346
 23  3 10  3 24 25.0000000  0  6G04G08G09G16G27G31                  
  21208120.453 6  21208132.574 9 111449389.319 6  86843705.527 9  21208131.78147
  20446716.867 7  20446730.098 9 107448230.734 7  83725916.714 9  20446728.91849
  22890346.172 1  22890364.836 8 120289524.53911  93732207.31718  22890366.03546
  21526852.914 6                 113124346.177 6  88148860.18147  21526861.07847
  19957032.984 7  19957042.801 9 104874902.017 7  81720737.697 9  19957042.10249
  23855613.422 6  23855634.020 8 125362073.046 6  97684809.752 8  23855633.31347
 23  3 10  3 24 30.0000000  0  6G04G08G09G16G27G31                  
  21207910.266 6  21207921.496 9 111448280.301 6  86842841.338 9  21207920.87947
  20444903.883 7  20444916.742 9 107438703.589 7  83718492.965 9  20444915.52749
  22888420.578 1  22888436.820 8 120279394.660 1  93724314.010 8  22888437.68846
  21527499.117 6                 113127744.457 6  88151508.16147  21527507.62147
  19957355.117 7  19957365.230 9 104876593.937 7  81722056.074 9  19957364.12149
  23857429.148 6  23857450.023 8 125371614.044 6  97692244.320 8  23857449.21547
 23  3 10  3 24 35.0000000  0  6G04G08G09G16G27G31                  
  21207702.227 6  21207713.633 9 111447187.642 6  86841989.872 9  21207712.72747
  20443093.750 7  20443106.988 9 107429191.896 7  83711081.264 9  20443105.50449
  22886496.820 1  22886512.223 8 120269279.86111  93716432.25518  22886511.75446
  21528146.875 6                 113131145.242 6  88154158.09347  21528154.92247
  19957679.891 7  19957690.020 9 104878301.745 7  81723386.814 9  19957688.74649
  23859246.102 6  23859266.629 8 125381162.214 6  97699684.451 8  23859265.53947
 23  3 10  3 24 40.0000000  0  6G04G08G09G16G27G31                  
  21207496.734 6  21207508.176 9 111446110.111 6  86841150.203 9  21207507.09447
  20441287.000 7  20441299.598 9 107419694.388 7  83703680.618 9  20441298.09449
  22884576.195 2  22884590.367 8 120259178.629 2  93708561.188 8  22884589.31647
  21528793.930 6                 113134547.317 6  88156809.04047  21528802.46947
  19958007.758 7  19958017.930 9 104880024.234 7  81724728.998 9  19958016.82449
  23861064.344 6  23861084.453 8 125390716.248 6  97707129.172 8  23861083.91447
 23  3 10  3 24 45.0000000  0  6G04G08G09G16G27G31                  
  21207294.688 6  21207306.434 9 111445048.529 6  86840322.960 9  21207305.02747
  20439482.094 7  20439495.645 9 107410211.909 7  83696291.679 9  20439494.23849
  22882656.617 1  22882671.543 8 120249091.796 1  93700701.336 8  22882670.24247
  21529441.547 6                 113137951.425 6  88159461.57147  21529450.18447
  19958338.234 7  19958348.445 9 104881762.171 7  81726083.229 9  19958347.19949
  23862884.008 6  23862904.145 8 125400276.942 6  97714579.084 8  23862903.34047
 23  3 10  3 24 50.0000000  0  6G04G08G09G16G27G31                  
  21207096.625 6  21207108.098 9 111444005.209 6  86839509.948 9  21207107.17247
  20437680.813 7  20437694.063 9 107400746.641 7  83688916.157 9  20437692.80149
  22880743.094 1  22880754.891 8 120239021.741 1  93692854.557 8  22880754.40646
  21530089.742 6                 113141359.972 6  88162117.56047  21530099.01647
  19958672.430 7  19958682.953 9 104883517.899 7  81727451.318 9  19958681.91449
  23864704.828 6  23864725.117 8 125409846.700 6  97722036.071 8  23864724.11347
 23  3 10  3 24 55.0000000  0  6G04G08G09G16G27G31                  
  21206901.359 6  21206912.641 9 111442979.063 6  86838710.325 9  21206911.52047
  20435882.859 7  20435895.980 9 107391297.546 7  83681553.220 9  20435894.53149
  22878825.539 1  22878842.539 8 120228967.32911  93685019.95718  22878842.32846
  21530739.156 6                 113144771.784 6  88164776.07647  21530748.23447
  19959010.023 7  19959019.836 9 104885290.279 7  81728832.378 9  19959018.91449
  23866527.211 6  23866547.422 8 125419424.319 6  97729499.161 8  23866546.88347
 23  3 10  3 25  0.0000000  0  6G04G08G09G16G27G31                  
  21206708.750 6  21206719.594 9 111441967.626 6  86837922.146 9  21206719.01247
  20434087.523 7  20434100.621 9 107381862.140 7  83674200.959 9  20434099.13349
  22876918.148 1  22876930.570 8 120218926.199 1  93677195.631 8  22876931.30546
  21531388.453 6                 113148184.467 6  88167435.31347  21531398.15247
  19959349.836 7  19959359.742 9 104887076.904 7  81730224.555 9  19959359.28549
  23868350.742 6  23868371.840 8 125429007.413 6  97736966.550 8  23868370.79347
 23  3 10  3 25  5.0000000  0  6G04G08G09G16G27G31                  
  21206519.594 6  21206530.574 9 111440972.318 6  86837146.552 9  21206529.97347
  20432294.719 7  20432307.973 9 107372441.910 7  83666860.529 9  20432306.82849
  22875008.711 2  22875023.063 8 120208899.739 2  93669382.779 8  22875023.67246
  21532038.531 6                 113151599.439 6  88170096.28847  21532047.78147
  19959692.773 7  19959703.641 9 104888879.161 7  81731628.897 9  19959702.79349
  23870175.680 6  23870196.621 8 125438597.415 6  97744439.284 8  23870195.11347
 23  3 10  3 25 10.0000000  0  6G04G08G09G16G27G31                  
  21206333.156 6  21206343.957 9 111439993.440 6  86836383.745 9  21206343.76247
  20430505.313 7  20430518.105 9 107363037.109 7  83659532.110 9  20430516.73849
  22873106.242 3  22873117.391 8 120198888.217 3  93661581.583 8  22873117.63747
  21532689.047 6                 113155016.965 6  88172759.25847  21532697.74247
  19960038.719 7  19960048.934 9 104890697.316 7  81733045.632 9  19960048.17649
  23872001.930 6  23872022.449 8 125448194.572 6  97751917.591 8  23872021.61347
 23  3 10  3 25 15.0000000  0  6G04G08G09G16G27G31                  
  21206150.469 6  21206161.301 9 111439032.225 6  86835634.708 9  21206160.88347
  20428718.555 7  20428731.223 9 107353648.992 7  83652216.716 9  20428730.15649
  22871204.023 3  22871215.332 8 120188892.917 3  93653793.055 8  22871215.79347
  21533340.141 6                 113158438.262 6  88175425.19347  21533348.86347
  19960387.750 7  19960398.578 9 104892532.580 7  81734475.688 9  19960397.92249
  23873830.008 6  23873850.461 8 125457800.094 6  97759402.392 8  23873849.60247
 23  3 10  3 25 20.0000000  0  6G04G08G09G16G27G31                  
  21205970.828 6  21205981.703 9 111438087.931 6  86834898.869 9  21205981.33647
  20426935.195 7  20426948.301 9 107344277.020 7  83644913.883 9  20426947.18449
  22869303.930 2  22869315.801 8 120178913.012 2  93646016.492 8  22869315.40647
  21533991.086 6                 113161862.633 6  88178093.49047  21534000.80947
  19960740.398 7  19960750.953 9 104894384.311 7  81735918.588 9  19960750.43449
  23875658.992 6  23875679.707 8 125467413.348 6  97766893.261 8  23875678.73447
 23  3 10  3 25 25.0000000  0  6G04G08G09G16G27G31                  
  21205793.586 6  21205805.078 9 111437159.446 6  86834175.331 9  21205804.55147
  20425154.602 7  20425167.484 9 107334919.837 7  83637622.575 9  20425166.01649
  22867406.641 1  22867419.008 8 120168947.499 1  93638251.160 8  22867418.32046
  21534643.250 6                 113165288.915 6  88180763.30947  21534652.60247
  19961095.586 7  19961106.176 9 104896251.281 7  81737373.364 9  19961105.55949
  23877489.625 6  23877510.074 8 125477033.110 6  97774389.181 8  23877508.95347
 23  3 10  3 25 30.0000000  0  6G04G08G09G16G27G31                  
  21205620.719 6  21205631.641 9 111436246.944 6  86833464.251 9  21205631.26247
  20423376.422 7  20423389.723 9 107325577.667 7  83630342.965 9  20423388.29349
  22865512.320 2  22865524.973 8 120158996.588 2  93630497.146 8  22865524.47346
  21535296.461 6                 113168717.386 6  88183434.82547  21535305.53147
  19961453.656 7  19961463.879 9 104898133.759 7  81738840.211 9  19961463.64549
  23879321.930 6  23879341.707 8 125486659.656 6  97781890.406 8  23879340.70747
 23  3 10  3 25 35.0000000  0  6G04G08G09G16G27G31                  
  21205449.945 6  21205460.703 9 111435349.837 6  86832765.182 9  21205460.39147
  20421602.070 7  20421614.773 9 107316249.936 7  83623074.605 9  20421613.57849
  22863621.422 2  22863634.590 8 120149059.690 2  93622754.065 8  22863633.46547
  21535949.313 6                 113172147.364 6  88186107.48247  21535958.28147
  19961814.672 7  19961825.262 9 104900031.063 7  81740318.612 9  19961824.80149
  23881155.070 6  23881174.879 8 125496292.365 6  97789396.407 8  23881173.65247
 23  3 10  3 25 40.0000000  0  6G04G08G09G16G27G31                  
  21205282.359 6  21205293.887 9 111434469.363 6  86832079.082 9  21205292.71947
  20419829.531 7  20419842.680 9 107306937.978 7  83615818.546 9  20419841.12149
  22861736.352 3  22861747.215 8 120139137.963 3  93615022.844 8  22861746.00047
  21536601.984 6                 113175580.154 6  88188782.37247  21536611.62147
  19962179.102 7  19962189.461 9 104901944.528 7  81741809.608 9  19962188.69549
  23882989.555 6  23883008.859 8 125505932.482 6  97796908.190 8  23883007.96947
 23  3 10  3 25 45.0000000  0  6G04G08G09G16G27G31                  
  21205118.148 6  21205129.188 9 111433606.021 6  86831406.321 9  21205128.41847
  20418060.945 7  20418073.602 9 107297642.188 7  83608575.087 9  20418072.32449
  22859851.992 3  22859862.074 8 120129231.973 3  93607303.890 8  22859861.54747
  21537255.969 6                 113179016.136 6  88191459.76147  21537265.25447
  19962546.203 7  19962556.746 9 104903874.547 7  81743313.512 9  19962555.83249
  23884825.156 6  23884845.508 8 125515580.449 6  97804426.108 8  23884844.53147
 23  3 10  3 25 50.0000000  0  6G04G08G09G16G27G31                  
  21204956.125 6  21204967.918 9 111432758.601 6  86830745.928 9  21204967.02747
  20416294.422 7  20416307.703 9 107288361.433 7  83601343.310 9  20416306.21149
  22857968.852 3  22857979.664 8 120119340.460 3  93599596.214 8  22857978.89847
  21537910.117 6                 113182454.252 6  88194138.75247  21537919.50847
  19962916.328 7  19962927.238 9 104905819.915 7  81744829.385 9  19962926.23449
  23886662.773 6  23886682.680 8 125525235.100 6  97811949.193 8  23886681.35547
 23  3 10  3 25 55.0000000  0  7G04G08G09G16G26G27G31               
  21204798.070 6  21204809.461 9 111431926.750 6  86830097.707 9  21204808.35547
  20414531.578 7  20414544.746 9 107279095.363 7  83594123.006 9  20414543.41049
  22856089.172 4  22856100.586 8 120109463.149 4  93591899.658 8  22856099.91047
  21538565.063 6                 113185894.084 6  88196819.12647  21538574.13747
  23133242.469 1                 121565998.07711                
  19963289.586 7  19963300.164 9 104907780.346 7  81746356.967 9  19963299.29749
  23888501.109 6  23888520.543 8 125534896.082 6  97819477.252 8  23888519.40647
 23  3 10  3 26  0.0000000  0  7G04G08G09G16G26G27G31               
  21204643.008 6  21204655.043 9 111431112.096 6  86829462.868 9  21204653.87147
  20412770.992 7  20412783.848 9 107269845.625 7  83586915.428 9  20412782.43849
  22854209.906 1  22854223.898 8 120099601.657 1  93584215.411 8  22854223.25046
  21539220.063 6                 113189337.299 6  88199502.13147  21539229.58247
  23134402.172 1  23134421.113 6 121572082.233 1  94731583.33716
  19963665.711 7  19963676.484 9 104909757.439 7  81747897.552 9  19963675.97749
  23890340.984 6  23890359.996 8 125544565.066 6  97827011.527 8  23890358.96947
 23  3 10  3 26  5.0000000  0  7G04G08G09G16G26G27G31               
  21204491.453 6  21204502.918 9 111430313.699 6  86828840.718 9  21204501.71947
  20411013.773 6  20411027.297 9 107260611.258 6  83579719.816 9  20411026.11749
  22852337.398 2  22852350.004 8 120089755.141 2  93576542.736 8  22852350.03147
  21539876.289 6                 113192782.912 6  88202186.99747  21539885.01247
  23135560.141 1                 121578166.729 1                
  19964044.891 7  19964055.523 9 104911750.229 7  81749450.355 9  19964055.02049
  23892181.836 6  23892201.676 8 125554241.084 6  97834551.298 8  23892200.84447
 23  3 10  3 26 10.0000000  0  7G04G08G09G16G26G27G31               
  21204342.750 6  21204354.152 9 111429532.544 6  86828232.001 9  21204353.20747
  20409259.852 6  20409272.789 9 107251393.274 6  83572536.975 9  20409271.61349
  22850464.672 1  22850478.996 8 120079924.437 1  93568882.466 8  22850479.17247
  21540532.148 6                 113196231.850 6  88204874.45047  21540541.23447
  23136716.633 1  23136734.289 7 121584252.56311  94741057.66217
  19964427.070 7  19964437.965 9 104913759.650 7  81751016.124 9  19964437.30549
  23894024.609 6  23894044.820 8 125563925.112 6  97842097.294 8  23894043.48847
 23  3 10  3 26 15.0000000  0  7G04G08G09G16G26G27G31               
  21204197.242 6  21204209.012 9 111428768.017 6  86827636.226 9  21204208.36747
  20407508.398 6  20407521.484 9 107242191.102 6  83565366.472 9  20407520.56349
  22848597.281 3  22848611.641 8 120070109.028 3  93561234.056 8  22848611.16847
  21541188.813 6                 113199683.604 6  88207564.09447  21541197.83647
  23137872.906 1  23137893.668 7 121590339.093 1  94745800.213 7
  19964812.641 7  19964823.527 9 104915785.172 7  81752594.438 9  19964822.70749
  23895868.734 6  23895888.594 8 125573616.560 6  97849649.074 8  23895887.28947
 23  3 10  3 26 20.0000000  0  7G04G08G09G16G26G27G31               
  21204054.773 6  21204066.172 9 111428019.883 6  86827053.228 9  21204065.35547
  20405760.461 6  20405773.383 9 107233004.544 6  83558208.119 9  20405772.10949
  22846729.984 2  22846746.762 8 120060308.642 2  93553597.398 8  22846746.32846
  21541846.320 6                 113203137.868 6  88210255.70447  21541855.66847
  23139033.914 1  23139051.742 7 121596426.06611  94750543.32017
  19965201.133 7  19965211.539 9 104917826.525 7  81754185.092 9  19965210.90649
  23897714.055 6  23897734.492 8 125583315.172 6  97857206.455 8  23897732.66047
 23  3 10  3 26 25.0000000  0  7G04G08G09G16G26G27G31               
  21203915.484 6  21203927.750 9 111427288.519 6  86826483.300 9  21203926.84847
  20404015.500 7  20404028.539 9 107223833.857 7  83551062.136 9  20404027.35249
  22844871.648 3  22844884.676 8 120050523.793 3  93545972.823 8  22844884.96547
  21542504.625 6                 113206595.105 6  88212949.63147  21542513.05947
  23140193.125 1  23140212.008 7 121602513.895 1  94755287.057 7
  19965592.938 7  19965603.520 9 104919884.107 7  81755788.382 9  19965602.46549
  23899561.328 6  23899581.734 8 125593021.398 6  97864769.735 8  23899580.41847
 23  3 10  3 26 30.0000000  0  7G04G08G09G16G26G27G31               
  21203779.539 6  21203791.848 9 111426574.306 6  86825926.728 9  21203791.04348
  20402273.273 7  20402286.605 9 107214679.494 7  83543928.855 9  20402285.07449
  22843012.984 4  22843025.934 8 120040754.777 4  93538360.618 8  22843025.80547
  21543162.938 6                 113210055.580 6  88215646.07047  21543171.66447
  23141347.492 1                                                
  19965987.055 7  19965997.992 9 104921958.206 7  81757404.553 9  19965997.04749
  23901409.852 6  23901429.707 8 125602735.529 6  97872339.167 8  23901428.65647
 23  3 10  3 26 35.0000000  0  7G04G08G09G16G26G27G31               
  21203646.938 6  21203658.859 9 111425876.566 6  86825382.980 9  21203658.07847
  20400534.516 7  20400547.480 9 107205540.770 7  83536807.771 9  20400546.10549
  22841155.906 4  22841169.941 8 120031000.859 4  93530760.153 8  22841169.53547
  21543822.891 6                 113213518.724 6  88218344.60347  21543830.70747
  23142508.188 1                                                
  19966385.188 7  19966395.855 9 104924048.226 7  81759033.127 9  19966395.18849
  23903259.313 6  23903280.129 8 125612456.899 6  97879914.280 8  23903279.09047
 23  3 10  3 26 40.0000000  0  7G04G08G09G16G26G27G31               
  21203517.461 6  21203529.277 9 111425195.675 6  86824852.391 9  21203528.87147
  20398798.031 7  20398811.402 9 107196418.049 7  83529699.167 9  20398810.11349
  22839302.508 3  22839316.328 8 120021262.563 3  93523171.859 8  22839316.12147
  21544481.531 6                 113216984.873 6  88221045.47447  21544490.32447
  23143666.672 1  23143696.895 6 121620783.34711  94769522.84016
  19966786.297 7  19966796.574 9 104926154.540 7  81760674.399 9  19966795.66849
  23905111.023 6  23905131.539 8 125622185.939 6  97887495.342 8  23905130.44947
 23  3 10  3 26 45.0000000  0  7G04G08G09G16G26G27G31               
  21203390.563 6  21203402.789 9 111424530.009 6  86824333.661 9  21203402.39547
  20397065.031 7  20397078.371 9 107187309.604 7  83522601.687 9  20397077.32449
  22837452.391 3  22837465.754 8 120011538.144 3  93515594.409 8  22837465.12547
  21545141.953 6                 113220452.334 6  88223747.36647  21545150.07447
  23144826.609 1  23144854.996 6 121626873.27511  94774268.19016
  19967190.000 7  19967199.715 9 104928275.428 7  81762327.025 9  19967198.99249
  23906963.836 6  23906984.242 8 125631920.951 6  97895081.067 8  23906982.71547
 23  3 10  3 26 50.0000000  0  7G04G08G09G16G26G27G31               
  21203267.375 5  21203279.086 9 111423879.865 5  86823827.019 9  21203278.97748
  20395334.563 6  20395348.012 9 107178216.008 6  83515515.770 9  20395346.89549
  22835603.000 3  22835618.879 8 120001827.980 3  93508028.044 8  22835618.23446
  21545801.898 6                 113223921.574 6  88226450.65347  21545810.28147
  23145984.633 1  23146011.969 6 121632962.83511  94779013.00616
  19967596.008 7  19967606.316 9 104930411.331 7  81763991.351 9  19967605.25849
  23908817.430 6  23908838.164 8 125641662.297 6  97902671.729 8  23908836.98047
 23  3 10  3 26 55.0000000  0  7G04G08G09G16G26G27G31               
  21203146.664 6  21203158.566 9 111423245.681 6  86823332.811 9  21203158.11347
  20393606.781 6  20393620.180 9 107169137.529 6  83508441.632 9  20393619.31349
  22833758.219 3  22833773.230 8 119992132.481 3  93500473.044 8  22833773.57447
  21546462.773 6                 113227392.938 6  88229155.56947  21546470.96547
  23147145.148 1                 121639052.572 1                
  19968005.578 7  19968015.543 9 104932562.548 7  81765667.608 9  19968014.82449
  23910672.547 6  23910693.379 8 125651410.328 6  97910267.626 8  23910692.28947
 23  3 10  3 27  0.0000000  0  7G04G08G09G16G26G27G31               
  21203028.930 6  21203040.797 9 111422628.034 6  86822851.490 9  21203040.49248
  20391882.523 6  20391895.656 9 107160074.651 6  83501379.646 9  20391894.46149
  22831915.219 1  22831931.305 7 119982452.282 1  93492930.109 7  22831930.78546
  21547122.906 6                 113230866.955 6  88231862.58047  21547131.98447
  23148304.586 1                 121645142.843 1                
  19968417.602 7  19968428.199 9 104934729.678 7  81767356.262 9  19968427.34449
  23912528.906 6  23912549.555 9 125661165.694 6  97917869.210 9  23912549.07447
 23  3 10  3 27  5.0000000  0  7G04G08G09G16G26G27G31               
  21202914.883 6  21202926.762 9 111422026.506 6  86822382.726 9  21202926.16448
  20390160.352 6  20390174.059 9 107151027.159 6  83494329.671 9  20390173.09849
  22830077.461 2  22830091.203 8 119972787.110 2  93485398.669 8  22830090.48047
  21547784.250 6                 113234343.297 6  88234571.40247  21547793.13347
  23149464.297 2                 121651233.395 2                
  19968833.359 7  19968843.871 9 104936912.374 7  81769057.062 9  19968842.96149
  23914386.352 6  23914407.746 9 125670928.035 6  97925476.207 9  23914407.27747
 23  3 10  3 27 10.0000000  0  7G04G08G09G16G26G27G31               
  21202803.266 6  21202815.379 9 111421441.344 6  86821926.723 9  21202815.00448
  20388441.586 7  20388455.563 9 107141995.232 7  83487291.796 9  20388454.48849
  22828240.609 1  22828254.313 7 119963136.899 1  93477879.051 7  22828253.64846
  21548447.141 6                 113237822.163 6  88237282.16847  21548454.65647
  23150622.531 1  23150646.313 7 121657324.517 1  94798025.77217
  19969251.938 7  19969261.742 9 104939110.809 7  81770770.113 9  19969261.55149
  23916245.742 6  23916266.184 9 125680697.510 6  97933088.781 9  23916265.74647
 23  3 10  3 27 15.0000000  0  7G04G08G09G16G26G27G31               
  21202695.102 6  21202707.355 9 111420872.493 6  86821483.432 9  21202706.70347
  20386726.133 6  20386739.316 9 107132978.876 6  83480266.063 9  20386738.71549
  22826408.055 2  22826420.105 8 119953501.818 2  93470371.233 8  22826419.88346
  21549109.977 6                 113241303.475 6  88239994.86447  21549117.40247
  23151781.719 1  23151804.375 7 121663416.003 1  94802772.375 7
  19969672.867 7  19969683.008 9 104941324.940 7  81772495.405 9  19969682.44149
  23918105.578 6  23918127.043 9 125690474.141 6  97940706.932 9  23918126.41847
 23  3 10  3 27 20.0000000  0  7G04G08G09G16G26G27G31               
  21202589.711 6  21202601.848 9 111420318.959 6  86821052.068 9  21202601.34448
  20385012.961 6  20385026.469 9 107123977.087 6  83473251.695 9  20385025.45749
  22824575.945 4  22824589.250 8 119943880.766 4  93462874.342 8  22824588.09447
  21549772.773 6                 113244786.272 6  88242708.69047  21549780.56647
  23152940.992 1  23152962.227 7 121669507.041 1  94807518.488 7
  19970097.086 7  19970107.156 9 104943553.751 7  81774232.112 9  19970106.81349
  23919967.219 6  23919988.262 9 125700256.810 6  97948329.817 9  23919987.77747
 23  3 10  3 27 25.0000000  0  7G04G08G09G16G26G27G31               
  21202487.844 6  21202499.609 9 111419782.772 6  86820634.221 9  21202499.27047
  20383303.484 7  20383316.664 9 107114991.837 7  83466250.201 9  20383315.62549
  22822749.227 2  22822761.914 8 119934275.853 2  93455390.017 8  22822760.62146
  21550435.781 6                 113248272.578 6  88245425.29247  21550443.96547
  23154100.914 1  23154120.922 7 121675599.560 1  94812265.861 7
  19970524.297 7  19970534.836 9 104945799.316 7  81775981.901 9  19970534.02349
  23921830.742 6  23921852.129 9 125710047.689 6  97955959.051 9  23921851.36347
 23  3 10  3 27 30.0000000  0  7G04G08G09G16G26G27G31               
  21202389.305 6  21202400.344 9 111419264.231 6  86820230.133 9  21202399.92247
  20381596.469 6  20381609.887 9 107106023.330 6  83459261.768 9  20381608.72749
  22820923.578 2  22820937.832 8 119924687.476 2  93447918.543 8  22820936.65247
  21551100.320 6                 113251762.662 6  88248144.80347  21551107.93047
  23155259.883 1  23155280.688 7 121681693.923 1  94817014.574 7
  19970954.789 7  19970965.273 9 104948061.909 7  81777744.946 9  19970964.82449
  23923696.234 6  23923716.395 9 125719846.970 6  97963594.882 9  23923716.22347
 23  3 10  3 27 35.0000000  0  7G04G08G09G16G26G27G31               
  21202293.961 6  21202305.512 9 111418763.248 6  86819839.725 9  21202304.87547
  20379892.938 6  20379906.398 9 107097071.704 6  83452286.483 9  20379905.26649
  22819099.578 1  22819116.816 8 119915115.467 1  93440459.764 8  22819115.93446
  21551765.078 6                 113255256.528 6  88250867.26747  21551772.46947
  23156421.672 2  23156440.148 7 121687790.025 2  94821764.663 7
  19971389.219 7  19971398.926 9 104950341.443 7  81779521.201 9  19971397.98849
  23925561.836 6  23925582.773 9 125729654.620 6  97971237.209 9  23925582.44947
 23  3 10  3 27 40.0000000  0  7G04G08G09G16G26G27G31               
  21202201.281 6  21202213.313 9 111418277.984 6  86819461.574 9  21202212.37548
  20378192.500 7  20378205.977 9 107088135.063 7  83445322.861 9  20378204.80549
  22817279.750 1  22817298.246 8 119905557.948 1  93433012.339 8  22817297.73046
  21552430.375 6                 113258752.248 6  88253591.17647  21552437.88347
  23157580.680 1  23157601.191 7 121693885.904 1  94826514.626 7
  19971825.719 7  19971835.770 9 104952636.025 7  81781309.173 9  19971835.01249
  23927428.742 6  23927450.059 9 125739468.802 6  97978884.630 9  23927449.93047
 23  3 10  3 27 45.0000000  0  7G04G08G09G16G26G27G31               
  21202111.859 6  21202123.984 9 111417808.987 6  86819096.075 9  21202123.22348
  20376494.977 6  20376508.418 9 107079213.962 6  83438371.359 9  20376507.21149
  22815468.125 1  22815482.297 8 119896015.500 1  93425576.631 8  22815482.21946
  21553095.758 6                 113262250.383 6  88256316.97847  21553103.39547
  23158739.609 1                                                
  19972265.375 7  19972275.570 9 104954946.255 7  81783109.343 9  19972274.73049
  23929297.984 6  23929319.234 9 125749290.084 6  97986537.570 9  23929318.95347
 23  3 10  3 27 50.0000000  0  7G04G08G09G16G26G27G31               
  21202026.234 6  21202037.820 9 111417355.418 6  86818742.607 9  21202037.30547
  20374800.039 7  20374813.277 9 107070307.302 7  83431431.109 9  20374812.53149
  22813655.016 2  22813669.121 8 119886487.332 2  93418152.059 8  22813668.89846
  21553761.906 6                 113265750.112 6  88259044.01747  21553769.96947
  23159899.461 1  23159922.910 7 121706078.28211  94836015.09017
  19972707.758 7  19972717.398 9 104957271.259 7  81784921.025 9  19972716.87149
  23931167.891 6  23931189.148 9 125759117.573 6  97994195.382 9  23931188.75447
 23  3 10  3 27 55.0000000  0  7G04G08G09G16G26G27G31               
  21201942.797 6  21201954.352 9 111416917.152 6  86818401.075 9  21201953.70748
  20373108.328 7  20373121.316 9 107061415.207 7  83424502.214 9  20373120.23049
  22811844.820 2  22811857.543 8 119876973.251 2  93410738.509 8  22811857.50047
  21554428.711 6                 113269251.346 6  88261772.23147  21554436.39847
  23161059.711 1  23161081.652 7 121712173.848 1  94840764.746 7
  19973152.750 7  19973163.309 9 104959610.941 7  81786744.136 9  19973162.20349
  23933039.492 6  23933061.223 9 125768951.196 6  98001857.956 9  23933059.98847
 23  3 10  3 28  0.0000000  0  7G04G08G09G16G26G27G31               
  21201862.867 6  21201873.980 9 111416495.987 6  86818072.852 9  21201873.34047
  20371418.930 6  20371432.461 9 107052539.570 6  83417586.133 9  20371431.60949
  22810038.063 2  22810050.500 8 119867475.124 2  93403337.392 8  22810049.25047
  21555095.445 6                 113272755.871 6  88264502.99447  21555102.91047
  23162220.313 1                                                
  19973601.297 7  19973611.281 9 104961967.044 7  81788580.054 9  19973610.51649
  23934912.398 5  23934933.523 9 125778792.702 5  98009526.662 9  23934932.85547
 23  3 10  3 28  5.0000000  0  7G04G08G09G16G26G27G31               
  21201785.664 6  21201797.348 9 111416091.659 6  86817757.762 9  21201796.66047
  20369733.219 6  20369746.301 9 107043680.095 6  83410682.651 9  20369745.29349
  22808233.664 2  22808245.691 8 119857992.772 2  93395948.561 8  22808244.41047
  21555762.695 6                 113276263.423 6  88267236.14247  21555770.71947
  23163380.734 1  23163402.332 8 121724368.55011  94850266.86718
  19974052.469 7  19974062.746 9 104964339.354 7  81790428.594 9  19974061.87149
  23936786.688 5  23936807.367 9 125788641.864 5  98017201.334 9  23936806.84047
 23  3 10  3 28 10.0000000  0  7G04G08G09G16G26G27G31               
  21201711.375 6  21201723.355 9 111415703.186 6  86817455.018 9  21201722.76247
  20368049.961 6  20368063.301 9 107034835.639 6  83403790.859 9  20368062.13349
  22806430.578 1  22806443.984 8 119848525.145 1  93388571.226 8  22806443.65646
  21556430.656 6                 113279772.964 6  88269970.81647  21556438.86747
  23164542.859 1  23164564.824 8 121730466.462 1  94855018.426 8
  19974507.016 7  19974517.418 9 104966726.852 7  81792288.971 9  19974516.11349
  23938661.609 5  23938683.195 9 125798497.742 5  98024881.223 9  23938682.26647
 23  3 10  3 28 15.0000000  0  7G04G08G09G16G26G27G31               
  21201640.945 6  21201653.250 9 111415332.370 6  86817166.020 9  21201652.67647
  20366370.484 6  20366383.750 9 107026008.230 6  83396912.367 9  20366382.78549
  22804630.500 1  22804646.453 8 119839074.054 1  93381206.698 8  22804646.08246
  21557098.867 6                 113283286.274 6  88272708.44047  21557107.40647
  23165700.352 1  23165724.805 8 121736566.30211  94859771.50518
  19974964.531 6  19974974.813 9 104969131.348 6  81794162.592 9  19974973.79349
  23940539.781 5  23940560.094 9 125808362.097 5  98032567.744 9  23940559.38747
 23  3 10  3 28 20.0000000  0  7G04G08G09G16G26G27G31               
  21201573.320 6  21201585.723 9 111414977.247 6  86816889.265 9  21201585.68448
  20364693.375 6  20364706.332 9 107017195.826 6  83390045.563 9  20364705.53149
  22802836.188 1  22802851.316 8 119829637.525 1  93373853.543 8  22802851.53947
  21557767.797 6                 113286801.525 6  88275447.56647  21557776.37147
  23166861.750 1  23166886.633 8 121742666.02311  94864524.46218
  19975424.930 7  19975434.887 9 104971550.877 7  81796047.928 9  19975433.76249
  23942417.633 6  23942437.969 9 125818232.970 6  98040259.343 9  23942437.06347
 23  3 10  3 28 25.0000000  0  7G04G08G09G16G26G27G31               
  21201509.266 6  21201520.867 9 111414637.457 6  86816624.467 9  21201520.85247
  20363019.047 7  20363032.465 9 107008398.115 7  83383190.197 9  20363031.36749
  22801043.203 2  22801059.785 8 119820215.293 2  93366511.554 8  22801060.31647
  21558437.156 6                 113290318.270 6  88278187.87347  21558445.79347
  23168023.750 1  23168046.844 7 121748765.357 1  94869277.157 7
  19975888.008 7  19975898.461 9 104973985.076 7  81797944.695 9  19975897.33249
  23944297.102 5  23944317.676 9 125828109.967 5  98047955.710 9  23944316.69147
