     2.11           OBSERVATION DATA    Mixed(MIXED)        RINEX VERSION / TYPE
cnvtToRINEX 3.08.0  convertToRINEX OPR  10-Mar-23 03:39 UTC PGM / RUN BY / DATE 
----------------------------------------------------------- COMMENT             
CK02                                                        MARKER NAME         
CK02                                                        MARKER NUMBER       
GNSS Observer       Trimble                                 OBSERVER / AGENCY   
5218486828          R4-2                4.43                REC # / TYPE / VERS 
                    TRMR4-2         NONE                    ANT # / TYPE        
 -2956617.4394  5076007.2052  2476386.5291                  APPROX POSITION XYZ 
        1.6900        0.0000        0.0000                  ANTENNA: DELTA H/E/N
     1     1     0                                          WAVELENGTH FACT L1/2
     4    C1    L1    L2    P2                              # / TYPES OF OBSERV 
  2023     3    10     2    50   14.0000000     GPS         TIME OF FIRST OBS   
  2023     3    10     3    28   29.0000000     GPS         TIME OF LAST OBS    
     0                                                      RCV CLOCK OFFS APPL 
    18                                                      LEAP SECONDS        
     9                                                      # OF SATELLITES     
   G04  2296  2296  2296  2296                              PRN / # OF OBS      
   G08  2296  2296  2296  2296                              PRN / # OF OBS      
   G09  2296  2296  2296  2296                              PRN / # OF OBS      
   G16  2296  2296  2296  2296                              PRN / # OF OBS      
   G21    77    77    26    26                              PRN / # OF OBS      
   G26  2296  2296  2296  2296                              PRN / # OF OBS      
   G27  2296  2296  2296  2296                              PRN / # OF OBS      
   G28   730   694   300   300                              PRN / # OF OBS      
   G31  2296  2287  2287  2296                              PRN / # OF OBS      
CARRIER PHASE MEASUREMENTS: PHASE SHIFTS REMOVED            COMMENT             
                                                            END OF HEADER       
 23  3 10  2 50 14.0000000  0  8G04G08G09G16G26G27G28G31            
  21472648.953 6 112839523.492 6  87926955.71348  21472661.47748
  21339197.883 6 112138242.910 6  87380515.74749  21339215.81649
  23815278.461 5 125150112.609 5  97519654.16548  23815295.03148
  21222936.633 6 111527278.863 6  86904415.12548  21222947.23848
  22553356.227 5 118518681.138 5  92352279.87247  22553374.41447
  20005630.938 7 105130299.750 7  81919764.67849  20005644.26249
  23678393.898 4 124430806.116 4  96959171.78146  23678419.53546
  23140170.852 5 121602406.003 5  94755199.93847  23140194.38747
 23  3 10  2 50 15.0000000  0  8G04G08G09G16G26G27G28G31            
  21471990.328 6 112836063.117 6  87924259.31347  21472002.90647
  21338253.695 6 112133278.808 6  87376647.61749  21338271.19949
  23814327.523 5 125145117.451 5  97515761.86048  23814344.94148
  21222655.250 6 111525799.599 6  86903262.44948  21222666.05148
  22553227.359 5 118518002.975 5  92351751.41447  22553245.68447
  20005071.906 7 105127359.686 7  81917473.71549  20005084.79349
  23678361.430 4 124430633.679 4  96959037.41646  23678386.68046
  23140061.406 5 121601831.333 5  94754752.13347  23140085.07847
 23  3 10  2 50 16.0000000  0  8G04G08G09G16G26G27G28G31            
  21471331.602 6 112832603.935 6  87921563.84647  21471344.71947
  21337309.133 6 112128315.763 6  87372780.30949  21337326.67649
  23813377.281 5 125140123.258 5  97511870.29448  23813394.48848
  21222373.398 6 111524321.043 6  86902110.32648  21222384.78548
  22553098.578 5 118517325.335 5  92351223.37847  22553116.27047
  20004512.102 7 105124420.863 7  81915183.72649  20004525.16049
  23678329.117 4 124430462.183 4  96958903.78446  23678354.24646
  23139952.375 6 121601257.486 6  94754304.96147  23139975.92647
 23  3 10  2 50 17.0000000  0  8G04G08G09G16G26G27G28G31            
  21470673.961 6 112829145.722 6  87918869.12447  21470686.23447
  21336364.672 6 112123353.561 6  87368913.65649  21336382.32449
  23812426.094 5 125135129.896 5  97507979.36448  23812443.89848
  21222092.555 6 111522843.016 6  86900958.61348  21222103.56648
  22552969.742 5 118516648.068 5  92350695.63747  22552987.79347
  20003953.500 7 105121483.094 7  81912894.55349  20003966.48049
  23678296.547 3 124430291.313 3  96958770.64246  23678321.61346
  23139843.328 5 121600684.274 5  94753858.28947  23139867.15647
 23  3 10  2 50 18.0000000  0  8G04G08G09G16G26G27G28G31            
  21470016.336 6 112825688.426 6  87916175.12647  21470028.78547
  21335421.125 6 112118392.129 6  87365047.60849  21335438.40649
  23811476.688 5 125130137.233 5  97504088.98948  23811493.89548
  21221811.773 6 111521365.444 6  86899807.25148  21221822.39148
  22552840.695 5 118515971.032 5  92350168.06747  22552858.55947
  20003394.641 7 105118546.290 7  81910606.12849  20003407.50049
  23678264.414 3 124430121.021 3  96958637.96046  23678289.22346
  23139734.508 5 121600111.614 5  94753412.04747  23139757.77747
 23  3 10  2 50 19.0000000  0  8G04G08G09G16G26G27G28G31            
  21469358.266 6 112822231.895 6  87913481.72247  21469371.03147
  21334476.461 6 112113431.318 6  87361182.04949  21334493.82049
  23810525.813 5 125125145.164 5  97500199.05148  23810543.55148
  21221530.219 6 111519888.133 6  86898656.10448  21221541.46548
  22552712.195 5 118515294.155 5  92349640.62747  22552730.09047
  20002835.594 7 105115610.292 7  81908318.33849  20002848.65249
  23678231.563 3 124429951.143 3  96958505.59946  23678256.71146
  23139625.164 5 121599539.375 5  94752966.14747  23139648.95347
 23  3 10  2 50 20.0000000  0  8G04G08G09G16G26G27G28G31            
  21468700.813 6 112818776.415 6  87910789.14647  21468713.50447
  21333532.898 6 112108471.435 6  87357317.21649  21333550.32849
  23809575.828 5 125120153.924 5  97496309.75348  23809593.63348
  21221248.891 6 111518411.396 6  86897505.39748  21221260.10548
  22552583.836 5 118514617.668 5  92349113.48747  22552601.76247
  20002277.344 7 105112675.383 7  81906031.39749  20002290.52049
  23678199.609 4 124429781.968 4  96958373.77846  23678224.38746
  23139516.750 5 121598967.789 5  94752520.74047  23139540.23447
 23  3 10  2 50 21.0000000  0  8G04G08G09G16G26G27G28G31            
  21468043.406 6 112815321.631 6  87908097.10047  21468055.74247
  21332589.336 6 112103512.183 6  87353452.87148  21332606.20748
  23808626.094 4 125115163.185 4  97492420.86548  23808644.37548
  21220967.883 6 111516934.949 6  86896354.92147  21220979.10247
  22552454.438 5 118513941.258 5  92348586.40147  22552472.98047
  20001718.984 7 105109741.283 7  81903745.08149  20001731.89549
  23678166.930 4 124429613.158 4  96958242.24046  23678192.31646
  23139407.750 6 121598396.633 6  94752075.67547  23139431.00047
 23  3 10  2 50 22.0000000  0  8G04G08G09G16G26G27G28G31            
  21467386.742 6 112811867.538 6  87905405.59047  21467398.50847
  21331645.453 6 112098553.453 6  87349588.92348  21331662.28948
  23807676.766 4 125110172.939 4  97488532.37148  23807694.77048
  21220687.133 6 111515458.682 6  86895204.57248  21220698.42248
  22552325.969 5 118513264.888 5  92348059.34147  22552344.57447
  20001160.961 7 105106807.917 7  81901459.34149  20001173.57449
  23678135.203 4 124429444.691 4  96958110.97546  23678160.28146
  23139299.055 5 121597825.766 5  94751630.82347  23139322.30147
 23  3 10  2 50 23.0000000  0  8G04G08G09G16G26G27G28G31            
  21466729.305 6 112808414.360 6  87902714.80247  21466741.64847
  21330702.008 6 112093595.521 6  87345725.60249  21330719.45349
  23806727.492 3 125105183.475 3  97484644.49348  23806745.20748
  21220406.141 6 111513982.868 6  86894054.58848  21220417.66848
  22552196.938 5 118512588.796 5  92347532.51047  22552215.52347
  20000602.773 7 105103875.510 7  81899174.34649  20000615.53549
  23678103.523 4 124429276.847 4  96957980.19646  23678128.32846
  23139191.258 6 121597255.481 6  94751186.43947  23139214.23047
 23  3 10  2 50 24.0000000  0  8G04G08G09G16G26G27G28G31            
  21466072.234 6 112804962.063 6  87900024.69947  21466084.27047
  21329758.711 6 112088638.332 6  87341862.85849  21329775.92649
  23805778.422 4 125100194.667 4  97480757.12148  23805795.73448
  21220125.625 6 111512507.471 6  86892904.92448  21220136.56648
  22552068.641 5 118511912.944 5  92347005.87147  22552087.02747
  20000044.945 7 105100944.058 7  81896890.09549  20000057.88349
  23678071.500 4 124429109.542 4  96957849.82146  23678096.57446
  23139082.289 6 121596685.684 6  94750742.41447  23139106.13747
 23  3 10  2 50 25.0000000  0  8G04G08G09G16G26G27G28G31            
  21465415.813 6 112801510.838 6  87897335.43147  21465427.42647
  21328815.875 6 112083682.135 6  87338000.89249  21328833.03549
  23804829.125 4 125095206.714 4  97476870.40848  23804846.91448
  21219844.430 6 111511032.708 6  86891755.75948  21219855.98048
  22551940.125 5 118511237.555 5  92346479.58347  22551958.42247
  19999487.523 7 105098013.751 7  81894606.73749  19999500.27349
  23678039.945 4 124428942.982 4  96957720.03046  23678064.87546
  23138974.023 6 121596116.662 6  94750299.00747  23138997.41447
 23  3 10  2 50 26.0000000  0  8G04G08G09G16G26G27G28G31            
  21464759.000 6 112798060.411 6  87894646.78947  21464771.00447
  21327873.008 6 112078726.603 6  87334139.43949  21327889.52749
  23803880.031 4 125090219.405 4  97472984.18548  23803897.09848
  21219564.305 6 111509558.258 6  86890606.83348  21219575.05148
  22551811.070 5 118510562.290 5  92345953.39647  22551830.10247
  19998930.156 7 105095084.274 7  81892324.02849  19998942.61749
  23678008.555 3 124428776.829 3  96957590.57946  23678032.95346
  23138865.820 6 121595548.063 6  94749855.92847  23138889.56347
 23  3 10  2 50 27.0000000  0  8G04G08G09G16G26G27G28G31            
  21464102.781 6 112794611.093 6  87891958.99548  21464114.52348
  21326929.844 6 112073772.014 6  87330278.72549  21326946.94949
  23802932.172 4 125085232.972 4  97469098.64848  23802948.78148
  21219283.930 6 111508084.403 6  86889458.37648  21219294.88748
  22551683.305 5 118509887.517 5  92345427.59147  22551701.79347
  19998372.695 7 105092155.942 7  81890042.21449  19998385.39849
  23677977.320 3 124428611.432 3  96957461.68946  23678001.56346
  23138757.625 6 121594980.190 6  94749413.41447  23138781.09847
 23  3 10  2 50 28.0000000  0  8G04G08G09G16G26G27G28G31            
  21463446.688 6 112791162.899 6  87889272.09648  21463458.26648
  21325987.555 6 112068818.470 6  87326418.82249  21326004.20349
  23801983.570 5 125080247.503 5  97465213.86548  23801999.86748
  21219003.633 6 111506611.279 6  86888310.47848  21219014.57048
  22551554.891 5 118509213.210 5  92344902.14247  22551573.28547
  19997815.539 7 105089228.841 7  81887761.35449  19997828.66449
  23677946.625 3 124428446.939 3  96957333.53846  23677970.45346
  23138649.844 6 121594413.146 6  94748971.55447  23138673.46147
 23  3 10  2 50 29.0000000  0  8G04G08G09G16G26G27G28G31            
  21462790.813 6 112787715.698 6  87886585.95848  21462802.76648
  21325044.883 6 112063865.760 6  87322559.56749  21325061.76649
  23801034.633 4 125075262.854 4  97461329.73848  23801051.52748
  21218723.672 6 111505138.655 6  86887162.97548  21218734.18848
  22551426.195 5 118508539.283 5  92344376.99647  22551445.03147
  19997258.633 7 105086302.789 7  81885481.31249  19997271.82049
  23677915.125 4 124428283.040 4  96957205.83446  23677939.20346
  23138542.141 6 121593846.729 6  94748530.17447  23138565.71547
 23  3 10  2 50 30.0000000  0  8G04G08G09G16G26G27G28G31            
  21462134.336 6 112784269.158 6  87883900.34647  21462146.29347
  21324102.664 6 112058913.550 6  87318700.70849  21324119.14849
  23800086.422 5 125070278.600 5  97457445.92148  23800103.17648
  21218443.391 6 111503666.231 6  86886015.62748  21218454.16448
  22551298.281 5 118507865.356 5  92343851.85147  22551316.68447
  19996702.336 7 105083377.425 7  81883201.80849  19996715.32849
  23677883.148 3 124428119.442 3  96957078.37246  23677908.23446
  23138435.375 6 121593280.562 6  94748088.99747  23138458.29347
 23  3 10  2 50 31.0000000  0  8G04G08G09G16G26G27G28G31            
  21461478.836 6 112780823.723 6  87881215.59547  21461490.95747
  21323160.195 6 112053962.344 6  87314842.62349  21323177.02349
  23799137.852 5 125065295.321 5  97453562.85848  23799154.71148
  21218162.781 6 111502194.426 6  86884868.76448  21218174.37548
  22551170.000 5 118507191.912 5  92343327.09047  22551188.57847
  19996145.469 7 105080453.244 7  81880923.22049  19996158.62549
  23677852.578 3 124427956.630 3  96956951.49446  23677876.96146
  23138326.914 6 121592715.208 6  94747648.45147  23138350.11747
 23  3 10  2 50 32.0000000  0  8G04G08G09G16G26G27G28G31            
  21460823.867 6 112777379.233 6  87878531.57147  21460835.55147
  21322218.039 6 112049011.929 6  87310985.16349  21322234.98449
  23798190.016 5 125060312.770 5  97449680.37048  23798207.08248
  21217883.078 6 111500723.119 6  86883722.28848  21217894.51648
  22551042.031 5 118506518.780 5  92342802.56047  22551060.35947
  19995589.563 7 105077530.061 7  81878645.41349  19995602.67649
  23677821.563 3 124427794.437 3  96956825.09046  23677846.46546
  23138219.391 6 121592150.431 6  94747208.34947  23138242.77047
 23  3 10  2 50 33.0000000  0  8G04G08G09G16G26G27G28G31            
  21460168.180 6 112773935.578 6  87875848.20347  21460180.41847
  21321275.836 6 112044062.215 6  87307128.25048  21321292.63348
  23797242.203 5 125055330.854 5  97445798.37848  23797258.87948
  21217603.008 6 111499252.180 6  86882576.09948  21217614.37948
  22550913.852 5 118505845.854 5  92342278.19447  22550932.21947
  19995033.484 7 105074607.779 7  81876368.30849  19995046.60549
  23677791.914 4 124427632.746 4  96956699.11446  23677815.73846
  23138112.508 6 121591586.153 6  94746768.64547  23138135.43047
 23  3 10  2 50 34.0000000  0  8G04G08G09G16G26G27G28G31            
  21459512.484 6 112770492.759 6  87873165.48647  21459525.42647
  21320334.555 6 112039113.230 6  87303271.90048  21320351.10248
  23796293.758 4 125050349.640 4  97441916.92247  23796310.69547
  21217322.969 6 111497781.596 6  86881430.18848  21217334.53548
  22550786.516 5 118505173.100 5  92341753.95047  22550804.38347
  19994477.313 7 105071686.370 7  81874091.88749  19994490.74649
  23677760.867 4 124427471.605 4  96956573.57446  23677785.00446
  23138005.320 5 121591022.338 5  94746329.30747  23138027.58647
 23  3 10  2 50 35.0000000  0  8G04G08G09G16G26G27G28G31            
  21458858.047 6 112767050.669 6  87870483.33447  21458870.42247
  21319392.805 6 112034164.806 6  87299415.99248  21319409.68448
  23795345.719 4 125045368.892 4  97438035.81548  23795362.84848
  21217044.039 6 111496311.268 6  86880284.47548  21217054.73448
  22550658.336 5 118504500.425 5  92341229.78047  22550676.65247
  19993921.406 7 105068765.749 7  81871816.07749  19993934.68449
  23677730.078 4 124427310.725 4  96956448.22846  23677754.41046
  23137897.516 6 121590458.886 6  94745890.23047  23137920.75847
 23  3 10  2 50 36.0000000  0  8G04G08G09G16G26G27G28G31            
  21458203.656 6 112763609.391 6  87867801.80647  21458215.46147
  21318451.289 6 112029217.096 6  87295560.63549  21318467.93049
  23794397.211 4 125040388.795 4  97434155.22148  23794415.19148
  21216764.039 6 111494841.302 6  86879139.03448  21216775.03948
  22550529.711 5 118503827.941 5  92340705.76547  22550548.30547
  19993366.141 7 105065846.009 7  81869540.95349  19993379.35249
  23677699.281 3 124427150.387 3  96956323.28346  23677723.95346
  23137790.570 6 121589895.923 6  94745451.53647  23137813.37547
 23  3 10  2 50 37.0000000  0  8G04G08G09G16G26G27G28G31            
  21457548.227 6 112760168.982 6  87865120.96447  21457560.37547
  21317509.781 6 112024270.145 6  87291705.87249  21317526.80549
  23793449.656 4 125035409.391 4  97430275.15348  23793468.06348
  21216484.117 6 111493371.732 6  86877993.90948  21216495.01248
  22550402.531 5 118503155.679 5  92340181.92047  22550420.19147
  19992810.547 7 105062927.208 7  81867266.56649  19992823.69549
  23677668.781 4 124426990.600 4  96956198.77146  23677693.77346
  23137683.555 6 121589333.451 6  94745013.23547  23137706.02747
 23  3 10  2 50 38.0000000  0  8G04G08G09G16G26G27G28G31            
  21456893.438 6 112756729.277 6  87862440.67447  21456905.62147
  21316568.352 6 112019323.769 6  87287851.55249  21316585.34049
  23792502.313 4 125030430.501 4  97426395.47948  23792520.18048
  21216204.383 6 111491902.386 6  86876848.96048  21216215.83248
  22550274.391 5 118502483.474 5  92339658.13147  22550292.06347
  19992255.305 7 105060009.157 7  81864992.75449  19992268.46549
  23677638.070 4 124426831.170 4  96956074.53246  23677663.00046
  23137576.742 6 121588771.326 6  94744575.20147  23137599.09847
 23  3 10  2 50 39.0000000  0  8G04G08G09G16G26G27G28G31            
  21456239.102 6 112753290.600 6  87859761.18248  21456251.82848
  21315626.906 6 112014378.240 6  87283997.89849  21315644.62149
  23791554.906 4 125025452.461 4  97422516.46648  23791573.28548
  21215924.961 6 111490433.612 6  86875704.46748  21215935.50848
  22550146.164 5 118501811.675 5  92339134.64547  22550164.52047
  19991700.063 7 105057092.190 7  81862719.79149  19991713.51649
  23677608.328 4 124426672.415 4  96955950.83246  23677633.65646
  23137469.695 6 121588209.924 6  94744137.73947  23137492.55947
 23  3 10  2 50 40.0000000  0  8G04G08G09G16G26G27G28G31            
  21455585.406 6 112749853.068 6  87857082.58348  21455597.51248
  21314686.242 6 112009433.762 6  87280145.05049  21314703.41849
  23790608.086 4 125020475.355 4  97418638.20248  23790626.18448
  21215645.664 6 111488965.503 6  86874560.48148  21215656.70748
  22550019.070 5 118501140.401 5  92338611.56347  22550036.77747
  19991145.273 7 105054176.442 7  81860447.78149  19991158.54349
  23677578.078 4 124426514.473 4  96955827.74746  23677603.01646
  23137362.906 6 121587649.283 6  94743700.87147  23137386.21547
 23  3 10  2 50 41.0000000  0  8G04G08G09G16G26G27G28G31            
  21454930.992 6 112746416.313 6  87854404.59448  21454943.81648
  21313745.602 6 112004489.889 6  87276292.68149  21313762.59049
  23789661.383 4 125015498.809 4  97414760.38248  23789679.05148
  21215365.930 6 111487497.743 6  86873416.77148  21215377.53548
  22549891.094 5 118500469.222 5  92338088.55347  22549909.39547
  19990590.656 7 105051261.522 7  81858176.41249  19990604.07849
  23677548.336 3 124426357.025 3  96955705.07546  23677573.21946
  23137256.320 6 121587089.073 6  94743264.33447  23137279.81647
 23  3 10  2 50 42.0000000  0  8G04G08G09G16G26G27G28G31            
  21454277.406 6 112742980.505 6  87851727.33947  21454290.10947
  21312805.063 6 111999546.865 6  87272440.97449  21312822.03949
  23788714.461 4 125010523.026 4  97410883.15048  23788732.01248
  21215086.891 6 111486030.401 6  86872273.38748  21215098.59848
  22549763.594 5 118499798.384 5  92337565.80647  22549781.73847
  19990036.109 7 105048347.585 7  81855905.81149  19990049.47749
  23677518.664 4 124426200.096 4  96955582.81046  23677543.18046
  23137149.961 6 121586529.432 6  94742828.24547  23137173.44147
 23  3 10  2 50 43.0000000  0  8G04G08G09G16G26G27G28G31            
  21453623.828 6 112739545.300 6  87849050.55148  21453636.17248
  21311865.000 6 111994604.290 6  87268589.61849  21311881.83249
  23787767.883 4 125005547.638 4  97407006.25048  23787785.40648
  21214807.977 6 111484563.238 6  86871130.13148  21214819.31648
  22549635.594 5 118499127.495 5  92337043.02447  22549653.59847
  19989481.852 7 105045434.318 7  81853635.73849  19989495.35949
  23677488.234 4 124426043.516 4  96955460.81646  23677513.55546
  23137043.375 6 121585970.045 6  94742392.35547  23137066.75047
 23  3 10  2 50 44.0000000  0  8G04G08G09G16G26G27G28G31            
  21452970.023 6 112736110.987 6  87846374.45547  21452983.19147
  21310923.930 6 111989662.540 6  87264738.89549  21310941.40249
  23786821.523 4 125000573.003 4  97403129.92048  23786838.65248
  21214528.609 6 111483096.500 6  86869987.21048  21214540.16048
  22549507.906 5 118498456.866 5  92336520.44147  22549525.83247
  19988927.570 7 105042522.044 7  81851366.43349  19988941.23449
  23677458.203 4 124425887.450 4  96955339.20746  23677483.69146
  23136937.000 5 121585411.251 5  94741956.91347  23136960.62147
 23  3 10  2 50 45.0000000  0  8G04G08G09G16G26G27G28G31            
  21452316.516 6 112732677.361 6  87843698.90447  21452329.77347
  21309983.586 6 111984721.274 6  87260888.56649  21310001.45349
  23785874.797 4 124995598.837 4  97399253.95548  23785892.30548
  21214249.445 6 111481629.962 6  86868844.45247  21214261.07047
  22549380.219 5 118497786.293 5  92335997.90947  22549398.56647
  19988373.648 7 105039610.476 7  81849097.67949  19988386.94149
  23677428.828 4 124425731.746 4  96955217.86945  23677454.07845
  23136830.781 6 121584852.754 6  94741521.70847  23136853.87947
 23  3 10  2 50 46.0000000  0  8G04G08G09G16G26G27G28G31            
  21451663.406 6 112729244.718 6  87841024.10547  21451676.36347
  21309043.828 6 111979780.887 6  87257038.92249  21309060.98049
  23784927.914 4 124990625.476 4  97395378.61648  23784945.94948
  21213970.445 6 111480163.938 6  86867702.09048  21213981.82848
  22549252.891 5 118497116.057 5  92335475.64547  22549271.35547
  19987819.828 7 105036699.945 7  81846829.73049  19987833.37549
  23677398.773 4 124425576.680 4  96955097.03045  23677424.78945
  23136724.500 5 121584294.888 5  94741086.98647  23136747.86347
 23  3 10  2 50 47.0000000  0  8G04G08G09G16G26G27G28G31            
  21451010.422 6 112725813.028 6  87838350.05947  21451023.25047
  21308103.344 6 111974841.328 6  87253189.92049  21308120.68049
  23783981.750 4 124985652.833 4  97391503.82048  23783999.44148
  21213691.383 6 111478698.385 6  86866560.10148  21213703.07048
  22549125.180 5 118496446.166 5  92334953.63647  22549143.24247
  19987266.141 7 105033790.434 7  81844562.57749  19987279.36349
  23677369.977 4 124425422.261 4  96954976.72146  23677395.42646
  23136619.266 6 121583737.649 6  94740652.76847  23136641.83647
 23  3 10  2 50 48.0000000  0  8G04G08G09G16G26G27G28G31            
  21450357.422 6 112722382.121 6  87835676.62247  21450370.85247
  21307163.695 6 111969902.386 6  87249341.40049  21307180.50449
  23783036.023 4 124980680.842 4  97387629.53548  23783053.32448
  21213412.656 6 111477233.187 6  86865418.38648  21213424.09048
  22548998.250 5 118495776.342 5  92334431.67447  22549016.11347
  19986712.703 7 105030881.750 7  81842296.06749  19986725.72749
  23677340.531 4 124425268.240 4  96954856.72446  23677366.60546
  23136513.273 6 121583180.808 6  94740218.85747  23136536.30947
 23  3 10  2 50 49.0000000  0  8G04G08G09G16G26G27G28G31            
  21449705.211 6 112718952.182 6  87833003.93847  21449717.60547
  21306224.031 6 111964964.316 6  87245493.56249  21306241.20349
  23782089.617 4 124975709.582 4  97383755.82048  23782107.52348
  21213134.047 6 111475768.462 6  86864277.04548  21213145.17248
  22548870.688 5 118495106.908 5  92333910.04047  22548888.67247
  19986159.359 7 105027974.102 7  81840030.36049  19986172.52349
  23677311.422 4 124425114.887 4  96954737.23346  23677336.97346
  23136407.313 5 121582624.601 5  94739785.45047  23136430.19147
 23  3 10  2 50 50.0000000  0  8G04G08G09G16G26G27G28G31            
  21449052.414 6 112715522.983 6  87830331.82447  21449065.31347
  21305284.773 6 111960026.844 6  87241646.18349  21305301.19949
  23781144.242 4 124970738.937 4  97379882.58648  23781161.48048
  21212854.688 6 111474304.039 6  86863135.93348  21212866.81648
  22548743.156 5 118494437.539 5  92333388.43847  22548761.35947
  19985606.453 7 105025067.258 7  81837765.28749  19985619.39849
  23677281.969 3 124424961.918 3  96954618.04146  23677308.26246
  23136301.547 6 121582068.759 6  94739352.32447  23136324.24247
 23  3 10  2 50 51.0000000  0  8G04G08G09G16G26G27G28G31            
  21448399.664 6 112712094.674 6  87827660.42047  21448413.30547
  21304345.336 6 111955090.153 6  87237799.41649  21304362.09849
  23780198.055 3 124965768.920 3  97376009.85148  23780215.67648
  21212576.813 6 111472839.976 6  86861995.09948  21212588.35248
  22548616.141 5 118493768.440 5  92332867.05347  22548634.56347
  19985053.156 7 105022161.367 7  81835500.95149  19985066.55149
  23677253.367 3 124424809.514 3  96954499.28546  23677279.30546
  23136195.383 6 121581513.471 6  94738919.61647  23136218.68047
 23  3 10  2 50 52.0000000  0  8G04G08G09G16G26G27G28G31            
  21447747.750 6 112708667.418 6  87824989.83248  21447761.18448
  21303405.984 6 111950154.384 6  87233953.36249  21303422.75449
  23779252.516 4 124960799.794 4  97372137.80548  23779270.13348
  21212298.297 6 111471376.537 6  86860854.74848  21212309.66848
  22548488.703 5 118493099.764 5  92332345.99747  22548507.38347
  19984500.242 7 105019256.560 7  81833237.46649  19984513.89849
  23677224.555 3 124424657.781 3  96954381.06246  23677250.21546
  23136090.063 6 121580958.867 6  94738487.45147  23136113.40247
 23  3 10  2 50 53.0000000  0  8G04G08G09G16G26G27G28G31            
  21447095.570 6 112705241.077 6  87822319.95747  21447108.95747
  21302466.906 6 111945219.394 6  87230107.90749  21302483.80549
  23778307.055 4 124955831.406 4  97368266.34048  23778324.71548
  21212019.664 6 111469913.528 6  86859714.73848  21212031.60948
  22548361.328 5 118492431.346 5  92331825.14647  22548379.81647
  19983947.766 7 105016352.755 7  81830974.75549  19983961.18449
  23677195.219 3 124424506.667 3  96954263.32246  23677221.54346
  23135984.422 6 121580404.856 6  94738055.73547  23136007.77047
 23  3 10  2 50 54.0000000  0  8G04G08G09G16G26G27G28G31            
  21446443.586 6 112701815.521 6  87819650.68848  21446456.81648
  21301528.383 6 111940285.086 6  87226262.99549  21301544.69549
  23777362.227 4 124950863.633 4  97364395.34148  23777379.69948
  21211741.656 6 111468450.884 6  86858575.00848  21211753.48448
  22548234.750 5 118491763.079 5  92331304.40047  22548252.98847
  19983394.992 7 105013449.800 7  81828712.71449  19983408.58249
  23677165.781 3 124424356.021 3  96954145.94846  23677192.68046
  23135879.461 6 121579851.262 6  94737624.35347  23135902.94147
 23  3 10  2 50 55.0000000  0  8G04G08G09G16G26G27G28G31            
  21445792.070 6 112698390.680 6  87816981.96847  21445805.36747
  21300589.547 6 111935351.332 6  87222418.51049  21300605.63749
  23776416.336 4 124945896.325 4  97360524.72248  23776434.13348
  21211463.047 6 111466988.428 6  86857435.43948  21211474.67248
  22548107.289 5 118491094.914 5  92330783.74347  22548125.66447
  19982843.063 7 105010547.591 7  81826451.25449  19982856.60549
  23677137.922 3 124424205.749 3  96954028.81246  23677164.29346
  23135774.586 5 121579298.024 5  94737193.24547  23135797.25847
 23  3 10  2 50 56.0000000  0  8G04G08G09G16G26G27G28G31            
  21445140.500 6 112694966.611 6  87814313.85947  21445154.12147
  21299650.258 6 111930418.224 6  87218574.53549  21299667.32449
  23775470.875 4 124940929.613 4  97356654.55748  23775489.34448
  21211184.758 6 111465526.310 6  86856296.12548  21211196.34848
  22547980.672 5 118490426.812 5  92330263.14647  22547998.50047
  19982290.859 7 105007646.201 7  81824190.43549  19982304.49249
  23677108.594 3 124424055.838 3  96953911.98945  23677135.96145
  23135668.578 5 121578745.203 5  94736762.45747  23135692.05147
 23  3 10  2 50 57.0000000  0  8G04G08G09G16G26G27G28G31            
  21444489.469 6 112691543.178 6  87811646.24348  21444502.60548
  21298712.156 6 111925485.640 6  87214730.96549  21298728.49649
  23774526.320 4 124935963.378 4  97352784.76148  23774543.87548
  21210906.633 6 111464064.354 6  86855156.93748  21210918.21948
  22547853.188 5 118489758.793 5  92329742.61347  22547871.47747
  19981738.820 7 105004745.549 7  81821930.18349  19981752.66449
  23677079.719 3 124423906.344 3  96953795.51746  23677107.59846
  23135563.398 5 121578192.708 5  94736331.92447  23135586.96547
 23  3 10  2 50 58.0000000  0  8G04G08G09G16G26G27G28G31            
  21443837.602 6 112688120.840 6  87808979.48448  21443851.49648
  21297773.359 6 111920554.035 6  87210888.15249  21297790.29349
  23773581.086 4 124930997.981 4  97348915.62047  23773598.98047
  21210628.734 6 111462603.018 6  86854018.21847  21210639.98847
  22547726.531 5 118489091.192 5  92329222.39547  22547744.48447
  19981187.359 7 105001846.006 7  81819670.80149  19981201.01649
  23677051.852 2 124423757.528 2  96953679.55145  23677079.08645
  23135458.656 5 121577640.898 5  94735901.93247  23135482.13347
 23  3 10  2 50 59.0000000  0  8G04G08G09G16G26G27G28G31            
  21443187.094 6 112684699.141 6  87806313.22948  21443200.30948
  21296834.727 6 111915622.919 6  87207045.72349  21296851.94149
  23772636.508 4 124926033.113 4  97345046.91247  23772654.74647
  21210350.695 6 111461141.881 6  86852879.67048  21210362.45348
  22547599.289 5 118488423.581 5  92328702.16447  22547617.46147
  19980635.727 7 104998947.202 7  81817411.99349  19980648.94149
  23677023.594 2 124423609.029 2  96953563.83845  23677050.77045
  23135353.406 5 121577089.419 5  94735472.20247  23135377.37547
 23  3 10  2 51  0.0000000  0  8G04G08G09G16G26G27G28G31            
  21442536.016 6 112681278.397 6  87803647.70948  21442549.10548
  21295896.875 6 111910692.612 6  87203203.93949  21295913.36349
  23771691.781 3 124921068.942 3  97341178.73347  23771709.52747
  21210072.578 6 111459681.156 6  86851741.43648  21210083.82848
  22547472.234 5 118487756.285 5  92328182.18247  22547490.33647
  19980083.648 7 104996049.366 7  81815153.93849  19980097.77749
  23676995.578 2 124423461.170 2  96953448.63645  23677022.69145
  23135249.234 5 121576538.504 5  94735042.91347  23135272.06647
 23  3 10  2 51  1.0000000  0  8G04G08G09G16G26G27G28G31            
  21441884.984 6 112677858.467 6  87800982.81948  21441898.68448
  21294959.039 6 111905763.016 6  87199362.69449  21294975.60249
  23770747.297 4 124916105.424 4  97337311.05048  23770765.10248
  21209795.086 6 111458220.839 6  86850603.52148  21209806.10948
  22547345.391 5 118487089.177 5  92327662.34847  22547363.21547
  19979532.859 7 104993152.431 7  81812896.57749  19979546.10949
  23676967.594 2 124423313.792 2  96953333.83545  23676994.49245
  23135144.484 5 121575988.079 5  94734613.99847  23135167.82447
 23  3 10  2 51  2.0000000  0  8G04G08G09G16G26G27G28G31            
  21441234.555 6 112674439.247 6  87798318.49448  21441247.62948
  21294020.914 6 111900834.021 6  87195521.92549  21294037.54349
  23769803.242 4 124911142.463 4  97333443.79448  23769820.44148
  21209517.273 6 111456760.739 6  86849465.77848  21209528.48448
  22547218.047 5 118486422.114 5  92327142.55547  22547236.28547
  19978981.633 7 104990256.249 7  81810639.81249  19978995.23449
  23676939.531 2 124423166.783 2  96953219.27745  23676966.58645
  23135039.188 5 121575438.037 5  94734185.38547  23135062.81347
 23  3 10  2 51  3.0000000  0  8G04G08G09G16G26G27G28G31            
  21440583.664 6 112671021.037 6  87795654.95447  21440597.80147
  21293083.375 6 111895905.897 6  87191681.82549  21293100.05949
  23768858.219 4 124906180.300 4  97329577.16548  23768876.52748
  21209239.594 6 111455301.176 6  86848328.45348  21209250.64848
  22547091.578 5 118485755.437 5  92326623.05447  22547109.89147
  19978430.836 7 104987361.140 7  81808383.88049  19978444.11749
  23676911.914 2 124423020.352 2  96953105.18245  23676938.73845
  23134934.758 5 121574888.591 5  94733757.23347  23134959.07447
 23  3 10  2 51  4.0000000  0  8G04G08G09G16G26G27G28G31            
  21439933.328 6 112667604.150 6  87792992.45547  21439947.28947
  21292145.750 6 111890978.967 6  87187842.66549  21292162.72349
  23767914.289 4 124901219.243 4  97325711.40748  23767932.29748
  21208961.602 6 111453842.482 6  86847191.80448  21208973.06348
  22546964.469 5 118485089.443 5  92326104.08747  22546983.17647
  19977880.250 7 104984467.396 7  81806129.01649  19977893.81649
  23676883.789 2 124422874.988 2  96952991.92845  23676911.32845
  23134830.055 5 121574340.122 5  94733329.85247  23134854.43847
 23  3 10  2 51  5.0000000  0  8G04G08G09G16G26G27G28G31            
  21439283.531 6 112664187.530 6  87790330.21347  21439297.44947
  21291207.969 6 111886052.164 6  87184003.65449  21291224.96149
  23766969.766 4 124896258.295 4  97321845.81348  23766988.37148
  21208684.352 6 111452383.583 6  86846055.05348  21208695.46548
  22546838.094 5 118484423.059 5  92325584.87247  22546856.68847
  19977329.758 7 104981573.991 7  81803874.46849  19977343.39549
  23676855.688 2 124422729.556 2  96952878.68545  23676883.52045
  23134726.188 5 121573791.615 5  94732902.47847  23134749.89547
 23  3 10  2 51  6.0000000  0  8G04G08G09G16G26G27G28G31            
  21438633.047 6 112660771.641 6  87787668.53248  21438647.27748
  21290270.352 6 111881125.941 6  87180165.07649  21290287.69549
  23766026.133 4 124891297.815 4  97317980.57347  23766044.22347
  21208406.438 6 111450924.942 6  86844918.48748  21208417.94148
  22546711.258 5 118483756.797 5  92325065.74747  22546730.21947
  19976779.195 7 104978681.363 7  81801620.51149  19976792.80549
  23676828.656 2 124422584.513 2  96952765.70245  23676856.01645
  23134621.555 6 121573243.449 6  94732475.36147  23134645.94947
 23  3 10  2 51  7.0000000  0  8G04G08G09G16G26G27G28G31            
  21437983.500 6 112657356.599 6  87785007.46847  21437997.47747
  21289333.250 6 111876200.441 6  87176327.04149  21289350.22349
  23765082.695 4 124886338.073 4  97314115.87447  23765100.60947
  21208128.813 6 111449466.660 6  86843782.17547  21208140.36747
  22546584.523 5 118483090.725 5  92324546.74847  22546603.27047
  19976228.766 7 104975789.651 7  81799367.24749  19976242.56649
  23676801.164 2 124422439.926 2  96952653.01945  23676828.72345
  23134517.336 5 121572695.798 5  94732048.61847  23134541.36747
 23  3 10  2 51  8.0000000  0  8G04G08G09G16G26G27G28G31            
  21437333.813 6 112653942.352 6  87782347.00447  21437347.81347
  21288395.891 6 111871275.627 6  87172489.52149  21288413.23849
  23764138.719 4 124881378.932 4  97310251.60947  23764156.38747
  21207851.484 6 111448008.722 6  86842646.11647  21207862.98447
  22546456.945 5 118482424.817 5  92324027.84347  22546476.30947
  19975678.406 7 104972898.804 7  81797114.63149  19975691.77749
  23676772.664 2 124422295.882 2  96952540.80845  23676801.23045
  23134413.273 5 121572148.559 5  94731622.18747  23134436.88347
 23  3 10  2 51  9.0000000  0  8G04G08G09G16G26G27G28G31            
  21436684.203 6 112650529.071 6  87779687.28447  21436698.26647
  21287458.930 6 111866351.609 6  87168652.62449  21287476.18049
  23763194.867 4 124876420.520 4  97306387.88647  23763212.61747
  21207574.219 6 111446551.245 6  86841510.40847  21207585.76647
  22546330.992 5 118481759.222 5  92323509.17247  22546349.55547
  19975128.938 7 104970008.927 7  81794862.76949  19975142.42649
  23676745.297 2 124422152.396 2  96952428.99145  23676773.80145
  23134309.086 5 121571601.908 5  94731196.19447  23134333.45347
 23  3 10  2 51 10.0000000  0  8G04G08G09G16G26G27G28G31            
  21436034.922 6 112647116.604 6  87777028.20547  21436049.05947
  21286521.727 6 111861428.372 6  87164816.33249  21286539.39849
  23762251.320 4 124871462.775 4  97302524.68847  23762269.68847
  21207296.867 6 111445094.139 6  86840374.98847  21207308.59047
  22546204.172 5 118481093.780 5  92322990.61847  22546223.09447
  19974579.180 7 104967119.973 7  81792611.62149  19974592.82849
  23676717.953 1 124422009.418 1  96952317.53345  23676746.21945
  23134205.875 5 121571055.804 5  94730770.64447  23134229.53947
 23  3 10  2 51 11.0000000  0  8G04G08G09G16G26G27G28G31            
  21435385.352 6 112643704.950 6  87774369.76947  21435399.82047
  21285585.719 6 111856505.772 6  87160980.53349  21285602.48049
  23761308.477 3 124866505.622 3  97298661.95947  23761326.48447
  21207019.930 6 111443637.399 6  86839239.86147  21207031.17647
  22546078.047 5 118480428.554 5  92322472.23747  22546096.43047
  19974029.641 7 104964231.881 7  81790361.15049  19974042.75849
  23676691.664 1 124421866.973 1  96952206.52945  23676719.08245
  23134101.773 5 121570510.118 5  94730345.42347  23134125.49647
 23  3 10  2 51 12.0000000  0  8G04G08G09G16G26G27G28G31            
  21434736.727 6 112640294.019 6  87771711.89747  21434750.87547
  21284649.063 6 111851583.835 6  87157145.25549  21284665.89849
  23760365.539 3 124861549.024 3  97294799.69147  23760383.40247
  21206742.375 6 111442180.891 6  86838104.91248  21206753.98848
  22545950.820 5 118479763.394 5  92321953.92147  22545969.87547
  19973479.766 7 104961344.565 7  81788111.29249  19973493.57849
  23676664.281 2 124421724.847 2  96952095.79745  23676691.82445
  23133997.352 5 121569964.819 5  94729920.49547  23134021.60947
 23  3 10  2 51 13.0000000  0  8G04G08G09G16G26G27G28G31            
  21434087.969 6 112636883.817 6  87769054.59347  21434102.07047
  21283712.141 6 111846662.477 6  87153310.43149  21283730.04349
  23759422.461 4 124856592.968 4  97290937.84647  23759440.26247
  21206465.445 6 111440724.671 6  86836970.19348  21206477.28148
  22545824.375 5 118479098.379 5  92321435.72747  22545843.59847
  19972930.844 7 104958458.076 7  81785862.08049  19972944.34449
  23676637.891 2 124421583.132 2  96951985.36345  23676664.95745
  23133893.711 5 121569419.937 5  94729495.89247  23133917.62547
 23  3 10  2 51 14.0000000  0  8G04G08G09G16G26G27G28G31            
  21433438.992 6 112633474.569 6  87766398.04047  21433453.38347
  21282775.906 6 111841741.902 6  87149476.21949  21282793.05549
  23758479.492 3 124851637.700 3  97287076.59948  23758497.11348
  21206188.867 6 111439268.886 6  86835835.80448  21206199.93048
  22545697.883 5 118478433.568 5  92320917.67947  22545716.76247
  19972381.789 7 104955572.531 7  81783613.60449  19972395.58249
  23676610.477 1 124421441.993 1  96951875.42145  23676638.21145
  23133790.672 5 121568875.551 5  94729071.68147  23133814.41047
 23  3 10  2 51 15.0000000  0  8G04G08G09G16G26G27G28G31            
  21432790.156 6 112630065.903 6  87763741.94248  21432804.28148
  21281839.875 6 111836821.780 6  87145642.36349  21281856.77349
  23757536.094 4 124846682.778 4  97283215.61747  23757554.25047
  21205911.430 6 111437813.241 6  86834701.53348  21205923.08648
  22545571.523 5 118477768.754 5  92320399.64147  22545590.46947
  19971832.625 7 104952687.653 7  81781365.64649  19971846.21549
  23676583.164 1 124421301.127 1  96951765.69045  23676611.21545
  23133686.867 5 121568331.443 5  94728647.68547  23133710.93047
 23  3 10  2 51 16.0000000  0  8G04G08G09G16G26G27G28G31            
  21432141.813 6 112626657.804 6  87761086.27148  21432155.61748
  21280903.273 6 111831902.100 6  87141808.84449  21280920.58649
  23756593.539 4 124841728.290 4  97279354.95248  23756611.41048
  21205635.172 6 111436357.679 6  86833567.32348  21205645.98848
  22545444.641 5 118477103.883 5  92319881.56247  22545463.61747
  19971284.063 7 104949803.399 7  81779118.17949  19971297.24249
  23676556.898 2 124421160.507 2  96951656.14445  23676584.11745
  23133583.570 5 121567787.588 5  94728223.89847  23133607.44147
 23  3 10  2 51 17.0000000  0  8G04G08G09G16G26G27G28G31            
  21431493.195 6 112623250.529 6  87758431.25248  21431507.15248
  21279967.078 6 111826983.104 6  87137975.86749  21279984.69549
  23755651.102 4 124836774.367 4  97275494.73748  23755668.53948
  21205358.047 6 111434902.437 6  86832433.37948  21205369.17648
  22545318.117 5 118476439.170 5  92319363.58847  22545337.36747
  19970735.242 7 104946920.010 7  81776871.38149  19970748.85549
  23676530.328 2 124421020.345 2  96951546.90945  23676557.88745
  23133479.992 5 121567244.138 5  94727800.41047  23133504.19147
 23  3 10  2 51 18.0000000  0  8G04G08G09G16G26G27G28G31            
  21430845.555 6 112619844.090 6  87755776.88348  21430859.17648
  21279031.453 6 111822064.846 6  87134143.45849  21279048.36349
  23754708.539 4 124831821.145 4  97271635.08948  23754726.22348
  21205081.211 6 111433447.618 6  86831299.74947  21205092.41047
  22545192.117 5 118475774.708 5  92318845.80147  22545210.72747
  19970186.734 7 104944037.545 7  81774625.30049  19970200.37149
  23676504.484 2 124420880.708 2  96951438.09245  23676531.04745
  23133376.867 5 121566701.246 5  94727377.35447  23133400.71547
 23  3 10  2 51 19.0000000  0  8G04G08G09G16G26G27G28G31            
  21430197.203 6 112616438.440 6  87753123.13348  21430210.69548
  21278095.805 6 111817147.198 6  87130311.52449  21278113.39849
  23753765.703 4 124826868.488 4  97267775.89248  23753783.46548
  21204804.305 6 111431993.077 6  86830166.33648  21204815.78948
  22545065.773 5 118475110.320 5  92318328.08647  22545084.42647
  19969638.406 7 104941155.906 7  81772379.86749  19969652.00449
  23676477.609 2 124420741.544 2  96951329.64046  23676504.60546
  23133273.563 5 121566158.739 5  94726954.60447  23133297.65247
 23  3 10  2 51 20.0000000  0  8G04G08G09G16G26G27G28G31            
  21429549.172 6 112613033.775 6  87750470.14848  21429563.13348
  21277160.125 6 111812230.432 6  87126480.27749  21277177.30549
  23752823.305 4 124821916.629 4  97263917.31347  23752841.46547
  21204527.453 6 111430539.071 6  86829033.34647  21204538.67647
  22544939.234 5 118474446.293 5  92317810.66247  22544958.02747
  19969090.148 7 104938275.317 7  81770135.24549  19969103.91849
  23676451.773 2 124420602.987 2  96951221.70546  23676478.29746
  23133170.148 5 121565616.827 5  94726532.32647  23133193.91047
 23  3 10  2 51 21.0000000  0  8G04G08G09G16G26G27G28G31            
  21428901.891 6 112609629.929 6  87747817.79248  21428915.48448
  21276224.281 6 111807314.386 6  87122649.60249  21276241.61349
  23751881.648 4 124816965.467 4  97260059.27048  23751899.05548
  21204250.727 6 111429085.430 6  86827900.63247  21204262.64147
  22544813.016 5 118473782.470 5  92317293.37947  22544831.35547
  19968542.047 7 104935395.618 7  81767891.32449  19968555.35549
  23676424.672 1 124420464.908 1  96951114.12146  23676451.75846
  23133067.266 5 121565075.461 5  94726110.47947  23133091.18447
 23  3 10  2 51 22.0000000  0  8G04G08G09G16G26G27G28G31            
  21428253.688 6 112606226.998 6  87745166.15547  21428267.23847
  21275288.750 6 111802399.093 6  87118819.50249  21275306.78949
  23750939.523 4 124812014.960 4  97256201.72748  23750957.46148
  21203974.328 6 111427632.200 6  86826768.23948  21203986.21948
  22544686.430 5 118473118.875 5  92316776.29247  22544705.17247
  19967994.672 7 104932516.849 7  81765648.12049  19968007.90649
  23676398.500 2 124420327.447 2  96951007.01045  23676425.57445
  23132964.625 5 121564534.607 5  94725689.02447  23132988.12947
 23  3 10  2 51 23.0000000  0  8G04G08G09G16G26G27G28G31            
  21427606.719 6 112602824.873 6  87742515.14648  21427620.18048
  21274354.211 6 111797484.516 6  87114989.96949  21274371.25449
  23749996.641 4 124807065.079 4  97252344.67548  23750015.28548
  21203697.938 6 111426179.296 6  86825636.10548  21203709.28948
  22544560.406 5 118472455.503 5  92316259.36947  22544579.09847
  19967446.750 7 104929638.956 7  81763405.60549  19967460.20749
  23676373.063 2 124420190.396 2  96950900.21245  23676399.84045
  23132862.102 6 121563994.184 6  94725267.89747  23132885.12947
 23  3 10  2 51 24.0000000  0  8G04G08G09G16G26G27G28G31            
  21426959.133 6 112599423.517 6  87739864.73548  21426973.27348
  21273418.930 6 111792570.563 6  87111160.91849  21273436.15649
  23749055.125 4 124802115.772 4  97248488.08947  23749073.65247
  21203421.336 6 111424726.686 6  86824504.19748  21203432.71948
  22544434.273 5 118471792.213 5  92315742.50647  22544452.94147
  19966899.609 7 104926761.893 7  81761163.73349  19966913.09449
  23676347.102 2 124420053.795 2  96950793.76545  23676373.98845
  23132759.242 6 121563454.216 6  94724847.12947  23132782.23447
 23  3 10  2 51 25.0000000  0  8G04G08G09G16G26G27G28G31            
  21426311.844 6 112596022.969 6  87737214.96148  21426325.98848
  21272483.898 6 111787657.297 6  87107332.40549  21272501.34049
  23748113.352 4 124797167.105 4  97244631.99847  23748131.75047
  21203144.961 6 111423274.451 6  86823372.58548  21203156.28948
  22544308.273 5 118471129.127 5  92315225.80247  22544326.79347
  19966352.117 7 104923885.716 7  81758922.55649  19966365.39849
  23676321.172 2 124419917.697 2  96950687.68645  23676347.87545
  23132656.273 6 121562914.696 6  94724426.71547  23132679.68447
 23  3 10  2 51 26.0000000  0  8G04G08G09G16G26G27G28G31            
  21425664.961 6 112592623.146 6  87734565.74148  21425678.97748
  21271548.672 6 111782744.635 6  87103504.35449  21271566.22749
  23747172.211 4 124792218.957 4  97240776.30347  23747190.06347
  21202868.914 6 111421822.467 6  86822241.16248  21202880.17648
  22544181.898 5 118470466.126 5  92314709.17047  22544200.48847
  19965804.805 7 104921010.313 7  81756681.98549  19965818.31649
  23676295.055 2 124419781.904 2  96950581.87845  23676322.13345
  23132554.461 6 121562375.575 6  94724006.62047  23132576.89847
 23  3 10  2 51 27.0000000  0  8G04G08G09G16G26G27G28G31            
  21425018.500 6 112589224.197 6  87731917.21448  21425031.70748
  21270614.055 6 111777832.680 6  87099676.85449  21270631.07449
  23746230.281 4 124787271.461 4  97236921.11347  23746248.61747
  21202592.188 6 111420370.838 6  86821110.02148  21202603.87948
  22544056.039 6 118469803.313 6  92314192.68547  22544074.47747
  19965258.070 7 104918135.798 7  81754442.09749  19965271.31649
  23676269.977 2 124419646.716 2  96950476.55545  23676296.09045
  23132451.594 5 121561836.915 5  94723586.87247  23132474.68447
 23  3 10  2 51 28.0000000  0  8G04G08G09G16G26G27G28G31            
  21424372.063 6 112585826.004 6  87729269.25047  21424385.05147
  21269679.594 6 111772921.381 6  87095849.85449  21269697.42649
  23745288.969 3 124782324.582 3  97233066.38347  23745307.42647
  21202316.523 6 111418919.536 6  86819979.12448  21202327.53948
  22543929.891 6 118469140.651 6  92313676.29647  22543948.35947
  19964710.859 7 104915262.147 7  81752202.87749  19964724.19949
  23676244.000 2 124419511.955 2  96950371.56045  23676270.64545
  23132349.383 5 121561298.698 5  94723167.47047  23132372.48847
 23  3 10  2 51 29.0000000  0  8G04G08G09G16G26G27G28G31            
  21423725.375 6 112582428.746 6  87726622.01448  21423738.50448
  21268745.211 6 111768010.908 6  87092023.48649  21268762.66849
  23744348.102 3 124777378.445 3  97229212.24847  23744366.04747
  21202040.398 6 111417468.704 6  86818848.57848  21202051.84048
  22543804.102 6 118468478.299 6  92313160.14647  22543822.35547
  19964164.602 7 104912389.479 7  81749964.40949  19964177.47749
  23676217.578 3 124419377.754 3  96950266.97945  23676244.67645
  23132246.789 6 121560761.087 6  94722748.51747  23132270.18447
 23  3 10  2 51 30.0000000  0  8G04G08G09G16G26G27G28G31            
  21423079.258 6 112579032.245 6  87723975.37747  21423092.52747
  21267811.039 6 111763100.979 6  87088197.56649  21267828.53549
  23743406.961 3 124772432.834 3  97225358.53447  23743425.02747
  21201763.859 6 111416018.104 6  86817718.22648  21201775.63348
  22543677.625 5 118467815.992 5  92312644.04247  22543696.05947
  19963617.484 7 104909517.579 7  81747726.55449  19963631.18049
  23676193.219 3 124419243.980 3  96950162.72545  23676219.38345
  23132144.398 5 121560223.817 5  94722329.84247  23132167.61347
 23  3 10  2 51 31.0000000  0  8G04G08G09G16G26G27G28G31            
  21422433.445 6 112575636.432 6  87721329.27947  21422446.42647
  21266876.617 6 111758191.693 6  87084372.15249  21266894.02049
  23742466.133 3 124767487.808 3  97221505.27847  23742483.97347
  21201488.195 6 111414567.779 6  86816588.09948  21201500.03548
  22543551.836 6 118467153.820 6  92312128.05647  22543570.00047
  19963071.727 7 104906646.474 7  81745489.32249  19963085.23849
  23676167.273 3 124419110.561 3  96950058.76645  23676194.14145
  23132042.586 6 121559686.934 6  94721911.46847  23132065.48047
 23  3 10  2 51 32.0000000  0  8G04G08G09G16G26G27G28G31            
  21421787.375 6 112572241.436 6  87718683.82747  21421800.43447
  21265942.953 6 111753283.068 6  87080547.26049  21265959.94949
  23741524.688 3 124762543.320 3  97217652.42947  23741542.94147
  21201212.141 6 111413117.775 6  86815458.22447  21201224.28147
  22543425.844 6 118466491.748 6  92311612.14547  22543444.16047
  19962524.945 7 104903776.206 7  81743252.75549  19962538.86749
  23676141.547 3 124418977.596 3  96949955.17546  23676168.75846
  23131940.313 5 121559150.450 5  94721493.42647  23131963.37147
 23  3 10  2 51 33.0000000  0  8G04G08G09G16G26G27G28G31            
  21421141.242 6 112568847.372 6  87716039.11447  21421154.48447
  21265008.813 6 111748375.271 6  87076723.00949  21265025.73049
  23740583.938 3 124757599.639 3  97213800.21347  23740602.30147
  21200936.641 6 111411668.254 6  86814328.72847  21200948.07447
  22543300.055 6 118465830.013 6  92311096.50047  22543318.63347
  19961979.125 7 104900906.943 7  81741016.97149  19961992.35549
  23676116.453 3 124418845.261 3  96949852.07945  23676143.32045
  23131838.555 6 121558614.600 6  94721075.88347  23131861.98047
 23  3 10  2 51 34.0000000  0  8G04G08G09G16G26G27G28G31            
  21420495.563 6 112565454.151 6  87713395.04247  21420508.68447
  21264075.438 6 111743468.196 6  87072899.32349  21264092.43049
  23739642.711 2 124752656.612 2  97209948.50747  23739661.66447
  21200660.703 6 111410219.063 6  86813199.47948  21200672.05548
  22543173.891 6 118465168.451 6  92310580.99047  22543192.52747
  19961433.383 7 104898038.574 7  81738781.87949  19961446.63749
  23676092.539 3 124418713.402 3  96949749.34245  23676118.10245
  23131736.117 6 121558079.229 6  94720658.70947  23131759.69547
 23  3 10  2 51 35.0000000  0  8G04G08G09G16G26G27G28G31            
  21419849.719 6 112562061.642 6  87710751.52648  21419862.90648
  21263141.617 6 111738561.673 6  87069076.05749  21263158.70749
  23738702.484 3 124747714.119 3  97206097.20747  23738721.32847
  21200384.836 6 111408770.145 6  86812070.45248  21200396.53548
  22543047.430 5 118464506.992 5  92310065.56547  22543066.61347
  19960887.758 7 104895170.979 7  81736547.39649  19960901.01249
  23676067.328 2 124418581.924 2  96949646.89845  23676093.77345
  23131634.734 5 121557544.190 5  94720241.77747  23131657.99247
 23  3 10  2 51 36.0000000  0  8G04G08G09G16G26G27G28G31            
  21419204.547 6 112558669.822 6  87708108.54948  21419217.66448
  21262208.250 6 111733655.769 6  87065253.27149  21262224.76249
  23737762.414 2 124742772.125 2  97202246.29547  23737780.62147
  21200109.195 6 111407321.415 6  86810941.57648  21200120.69548
  22542922.898 6 118463845.563 6  92309550.16047  22542940.53547
  19960342.227 7 104892304.153 7  81734313.50449  19960355.47749
  23676041.953 2 124418450.844 2  96949544.73845  23676068.82445
  23131533.125 6 121557009.548 6  94719825.16647  23131556.18447
 23  3 10  2 51 37.0000000  0  8G04G08G09G16G26G27G28G31            
  21418559.477 6 112555278.821 6  87705466.21348  21418572.38748
  21261274.344 6 111728750.519 6  87061431.00249  21261291.18449
  23736822.953 3 124737830.723 3  97198395.85247  23736840.25847
  21199833.602 6 111405873.050 6  86809812.97648  21199845.36348
  22542796.219 6 118463184.321 6  92309034.90647  22542814.47747
  19959797.250 7 104889438.170 7  81732080.26949  19959809.93849
  23676016.211 2 124418320.133 2  96949442.88046  23676043.36346
  23131431.453 6 121556475.307 6  94719408.86047  23131454.46947
 23  3 10  2 51 38.0000000  0  8G04G08G09G16G26G27G28G31            
  21417913.773 6 112551888.722 6  87702824.57048  21417927.30148
  21260341.672 6 111723846.074 6  87057609.35849  21260357.70749
  23735882.242 3 124732890.024 3  97194545.95647  23735900.75847
  21199558.266 6 111404425.094 6  86808684.69548  21199569.21148
  22542670.594 5 118462523.347 5  92308519.84447  22542688.59847
  19959251.477 7 104886573.167 7  81729847.79849  19959264.90649
  23675992.234 2 124418190.093 2  96949341.56546  23676018.85546
  23131329.633 6 121555941.654 6  94718993.00947  23131352.88347
 23  3 10  2 51 39.0000000  0  8G04G08G09G16G26G27G28G31            
  21417268.867 6 112548499.485 6  87700183.59748  21417282.03148
  21259408.023 6 111718942.314 6  87053788.24349  21259424.89849
  23734942.867 4 124727949.960 4  97190696.55347  23734960.07447
  21199282.555 6 111402977.542 6  86807556.72948  21199294.03948
  22542545.180 5 118461862.575 5  92308004.93347  22542563.21147
  19958706.859 7 104883709.039 7  81727616.00049  19958719.94949
  23675968.766 2 124418060.454 2  96949240.56446  23675994.52046
  23131228.273 6 121555408.479 6  94718577.53847  23131251.44147
 23  3 10  2 51 40.0000000  0  8G04G08G09G16G26G27G28G31            
  21416624.109 6 112545110.989 6  87697543.20648  21416638.10548
  21258475.305 6 111714039.197 6  87049967.63649  21258491.77049
  23734003.102 3 124723010.563 3  97186847.67147  23734019.96947
  21199006.922 6 111401530.278 6  86806428.99147  21199018.72747
  22542419.203 5 118461201.923 5  92307490.12647  22542437.21147
  19958161.844 7 104880845.749 7  81725384.86249  19958174.83249
  23675943.711 2 124417931.338 2  96949139.95046  23675969.66446
  23131126.813 5 121554875.720 5  94718162.38747  23131149.82447
 23  3 10  2 51 41.0000000  0  8G04G08G09G16G26G27G28G31            
  21415979.438 6 112541723.096 6  87694903.28448  21415992.50448
  21257542.516 6 111709136.556 6  87046147.40049  21257558.85949
  23733062.867 3 124718071.492 3  97182999.06147  23733080.41847
  21198732.156 6 111400083.098 6  86805301.30748  21198743.27748
  22542293.477 5 118460541.196 5  92306975.26747  22542311.82047
  19957617.133 7 104877983.117 7  81723154.24149  19957630.34449
  23675918.758 2 124417802.475 2  96949039.52545  23675945.13345
  23131025.477 5 121554343.212 5  94717747.44147  23131048.67647
 23  3 10  2 51 42.0000000  0  8G04G08G09G16G26G27G28G31            
  21415334.695 6 112538335.878 6  87692263.89648  21415348.13348
  21256609.133 6 111704234.421 6  87042327.55349  21256625.74649
  23732123.477 4 124713132.937 4  97179150.86748  23732140.95348
  21198456.555 6 111398636.162 6  86804173.82248  21198468.12148
  22542167.367 5 118459880.512 5  92306460.44547  22542185.84847
  19957072.547 7 104875121.187 7  81720924.17149  19957085.76649
  23675894.625 3 124417673.962 3  96948939.39646  23675920.57846
  23130924.594 6 121553811.015 6  94717332.73647  23130947.50447
 23  3 10  2 51 43.0000000  0  8G04G08G09G16G26G27G28G31            
  21414690.789 6 112534949.645 6  87689625.26448  21414704.32848
  21255676.461 6 111699333.217 6  87038508.43449  21255693.31349
  23731183.555 3 124708195.174 3  97175303.27447  23731201.22347
  21198181.367 6 111397189.712 6  86803046.72048  21198192.29348
  22542041.625 5 118459220.200 5  92305945.91747  22542060.48847
  19956528.047 7 104872260.342 7  81718694.94249  19956541.14849
  23675869.648 2 124417545.996 2  96948839.70646  23675896.47746
  23130823.219 5 121553279.439 5  94716918.50847  23130846.43047
 23  3 10  2 51 44.0000000  0  8G04G08G09G16G26G27G28G31            
  21414046.375 6 112531564.172 6  87686987.23347  21414059.85247
  21254743.852 6 111694432.609 6  87034689.77149  21254760.31349
  23730243.219 3 124703258.000 3  97171456.14047  23730261.67247
  21197906.359 6 111395743.551 6  86801919.83247  21197917.63747
  22541916.148 5 118458559.965 5  92305431.43147  22541934.52747
  19955983.867 7 104869400.266 7  81716466.30349  19955996.73849
  23675845.336 3 124417418.481 3  96948740.35445  23675872.16845
  23130721.992 6 121552748.254 6  94716504.58047  23130744.91847
 23  3 10  2 51 45.0000000  0  8G04G08G09G16G26G27G28G31            
  21413402.070 6 112528179.533 6  87684349.84447  21413415.92247
  21253812.172 6 111689532.718 6  87030871.68249  21253828.18449
  23729304.617 3 124698321.434 3  97167609.48447  23729322.09047
  21197631.117 6 111394297.750 6  86800793.22948  21197641.85948
  22541790.242 6 118457899.961 6  92304917.13347  22541809.13347
  19955439.797 7 104866541.106 7  81714238.38749  19955452.77349
  23675821.242 2 124417291.511 2  96948641.43245  23675847.76645
  23130621.461 6 121552217.549 6  94716091.03647  23130644.12147
 23  3 10  2 51 46.0000000  0  8G04G08G09G16G26G27G28G31            
  21412758.234 6 112524795.787 6  87681713.16147  21412771.93847
  21252879.586 6 111684633.584 6  87027054.18049  21252896.02749
  23728364.617 2 124693385.533 2  97163763.33447  23728382.59447
  21197355.969 6 111392852.371 6  86799666.95847  21197367.23447
  22541665.055 6 118457240.191 6  92304403.02147  22541683.35247
  19954895.867 7 104863682.893 7  81712011.21449  19954909.23049
  23675797.508 2 124417165.083 2  96948542.93845  23675824.05145
  23130520.195 5 121551687.410 5  94715677.94147  23130543.23847
 23  3 10  2 51 47.0000000  0  8G04G08G09G16G26G27G28G31            
  21412114.914 6 112521413.095 6  87679077.29347  21412127.86347
  21251947.203 6 111679735.353 6  87023237.37949  21251963.68849
  23727425.672 2 124688450.644 2  97159917.96547  23727443.92247
  21197081.250 6 111391407.559 6  86798541.13648  21197091.77048
  22541539.539 6 118456580.809 6  92303889.21647  22541557.92647
  19954352.023 7 104860825.753 7  81709784.86949  19954365.21949
  23675773.773 3 124417039.323 3  96948444.95746  23675800.09446
  23130419.172 6 121551157.953 6  94715265.37747  23130442.65647
 23  3 10  2 51 48.0000000  0  8G04G08G09G16G26G27G28G31            
  21411471.148 6 112518031.048 6  87676441.93048  21411484.07048
  21251014.992 6 111674837.644 6  87019420.98749  21251032.04349
  23726485.688 2 124683516.178 2  97156072.89747  23726504.42247
  21196806.148 6 111389962.948 6  86797415.46448  21196816.97748
  22541414.375 5 118455921.473 5  92303375.44547  22541432.34447
  19953808.766 7 104857969.365 7  81707559.11349  19953821.66449
  23675749.852 2 124416913.872 2  96948347.17045  23675776.47345
  23130318.883 6 121550628.789 6  94714853.03447  23130341.70747
 23  3 10  2 51 49.0000000  0  8G04G08G09G16G26G27G28G31            
  21410827.961 6 112514649.822 6  87673807.20148  21410841.15648
  21250083.563 6 111669940.628 6  87015605.13449  21250099.77049
  23725547.008 2 124678582.342 2  97152228.31347  23725565.32047
  21196531.539 6 111388518.674 6  86796290.05248  21196542.42648
  22541288.859 6 118455262.261 6  92302861.76347  22541306.98847
  19953265.313 7 104855113.824 7  81705334.01949  19953278.05149
  23675726.109 2 124416788.962 2  96948249.84246  23675752.34846
  23130217.766 5 121550100.091 5  94714441.05047  23130241.28547
 23  3 10  2 51 50.0000000  0  8G04G08G09G16G26G27G28G31            
  21410184.773 6 112511269.259 6  87671172.99347  21410197.81647
  21249151.938 6 111665044.163 6  87011789.70449  21249168.28549
  23724608.578 2 124673648.931 2  97148384.07747  23724627.36347
  21196256.117 6 111387074.587 6  86795164.78948  21196267.60548
  22541163.406 6 118454603.160 6  92302348.16047  22541181.73847
  19952721.914 7 104852259.014 7  81703109.49849  19952734.50049
  23675702.961 2 124416664.390 2  96948152.75646  23675728.59046
  23130117.586 5 121549571.743 5  94714029.33347  23130140.80147
 23  3 10  2 51 51.0000000  0  8G04G08G09G16G26G27G28G31            
  21409541.602 6 112507889.447 6  87668539.37248  21409554.26648
  21248220.211 6 111660148.309 6  87007974.75849  21248236.77049
  23723670.008 2 124668716.052 2  97144540.27247  23723688.60547
  21195982.156 6 111385630.781 6  86794039.74748  21195993.11348
  22541037.813 6 118453944.113 6  92301834.59347  22541056.24647
  19952178.797 7 104849405.011 7  81700885.59849  19952191.73449
  23675679.609 2 124416540.098 2  96948055.91145  23675704.92645
  23130017.617 5 121549043.722 5  94713617.85447  23130040.18447
 23  3 10  2 51 52.0000000  0  8G04G08G09G16G26G27G28G31            
  21408898.047 6 112504510.649 6  87665906.53547  21408911.57447
  21247288.094 6 111655253.370 6  87004160.52049  21247305.05949
  23722731.289 2 124663784.067 2  97140697.18847  23722750.25447
  21195707.063 6 111384187.487 6  86792915.10447  21195718.09847
  22540912.648 5 118453285.405 5  92301321.29947  22540930.88347
  19951635.719 7 104846552.059 7  81698662.51749  19951649.14149
  23675656.258 1 124416416.588 1  96947959.68945  23675681.46145
  23129917.008 6 121548516.414 6  94713206.95847  23129939.82047
 23  3 10  2 51 53.0000000  0  8G04G08G09G16G26G27G28G31            
  21408255.445 6 112501132.822 6  87663274.45947  21408268.56647
  21246357.625 6 111650359.274 6  87000346.93749  21246373.80949
  23721792.891 3 124658852.861 3  97136854.69747  23721811.83647
  21195432.500 6 111382744.725 6  86791790.86147  21195443.37147
  22540786.883 5 118452627.070 5  92300808.30847  22540805.22747
  19951093.016 7 104843700.146 7  81696440.24549  19951105.87149
  23675631.734 2 124416293.711 2  96947863.94845  23675658.09845
  23129816.633 5 121547989.699 5  94712796.53247  23129839.84847
 23  3 10  2 51 54.0000000  0  8G04G08G09G16G26G27G28G31            
  21407612.711 6 112497755.878 6  87660643.06548  21407625.86348
  21245425.586 6 111645465.947 6  86996533.95249  21245442.42649
  23720855.273 4 124653922.363 4  97133012.76747  23720873.10547
  21195157.844 6 111381302.364 6  86790666.93847  21195168.96547
  22540662.297 5 118451969.014 5  92300295.53247  22540679.93047
  19950550.859 7 104840849.205 7  81694218.72949  19950563.73849
  23675608.328 2 124416171.374 2  96947768.62045  23675634.86745
  23129716.609 5 121547463.551 5  94712386.53847  23129739.50047
 23  3 10  2 51 55.0000000  0  8G04G08G09G16G26G27G28G31            
  21406970.742 6 112494379.607 6  87658012.20448  21406983.66448
  21244495.016 6 111640573.170 6  86992721.40549  21244511.36349
  23719917.359 3 124648992.268 3  97129171.13147  23719935.48047
  21194883.797 6 111379860.192 6  86789543.16047  21194894.66047
  22540536.859 5 118451310.909 5  92299782.71547  22540555.21147
  19950008.211 7 104837998.941 7  81691997.74149  19950021.27749
  23675585.008 2 124416049.306 2  96947673.50845  23675611.94945
  23129615.875 5 121546937.664 5  94711976.75547  23129639.39847
 23  3 10  2 51 56.0000000  0  8G04G08G09G16G26G27G28G31            
  21406328.453 6 112491004.097 6  87655381.93147  21406341.19147
  21243563.992 6 111635681.019 6  86988909.34349  21243580.55549
  23718979.180 4 124644062.798 4  97125329.98247  23718997.28547
  21194608.930 6 111378418.308 6  86788419.61047  21194620.22347
  22540411.922 5 118450652.994 5  92299270.04147  22540429.85247
  19949466.070 7 104835149.525 7  81689777.41649  19949479.11749
  23675562.156 1 124415927.726 1  96947578.76945  23675588.41845
  23129516.539 6 121546412.229 6  94711567.31047  23129539.52347
 23  3 10  2 51 57.0000000  0  8G04G08G09G16G26G27G28G31            
  21405686.242 6 112487629.264 6  87652752.19348  21405699.43048
  21242633.492 6 111630789.383 6  86985097.69049  21242650.28549
  23718041.359 4 124639133.812 4  97121489.20547  23718059.47747
  21194334.813 6 111376976.626 6  86787296.22547  21194345.82047
  22540286.992 5 118449995.023 5  92298757.32847  22540304.76647
  19948923.797 7 104832300.834 7  81687557.65649  19948936.93449
  23675539.234 2 124415806.450 2  96947484.27545  23675565.46145
  23129416.391 5 121545887.066 5  94711158.08247  23129439.62547
 23  3 10  2 51 58.0000000  0  8G04G08G09G16G26G27G28G31            
  21405044.023 6 112484255.250 6  87650123.09147  21405057.12547
  21241702.656 6 111625898.481 6  86981286.60449  21241719.17249
  23717103.563 4 124634205.512 4  97117648.96747  23717121.28547
  21194060.609 6 111375535.302 6  86786173.11447  21194071.47347
  22540161.648 5 118449337.324 5  92298244.82647  22540179.76247
  19948382.109 7 104829453.021 7  81685338.57749  19948395.32049
  23675517.102 2 124415685.675 2  96947390.15445  23675542.43445
  23129317.500 5 121545362.440 5  94710749.27947  23129339.97747
 23  3 10  2 51 59.0000000  0  8G04G08G09G16G26G27G28G31            
  21404402.313 6 112480882.056 6  87647494.62648  21404415.31648
  21240771.797 6 111621008.275 6  86977476.05449  21240788.52349
  23716165.422 4 124629277.752 4  97113809.15247  23716183.52347
  21193786.352 6 111374094.304 6  86785050.25147  21193797.40247
  22540036.156 5 118448679.765 5  92297732.43447  22540054.33247
  19947840.117 7 104826606.073 7  81683120.18149  19947853.75449
  23675493.617 2 124415565.343 2  96947296.41345  23675519.57045
  23129216.469 5 121544838.224 5  94710340.78447  23129240.01247
 23  3 10  2 52  0.0000000  0  8G04G08G09G16G26G27G28G31            
  21403760.320 6 112477509.604 6  87644866.73448  21403773.28948
  21239841.203 6 111616118.658 6  86973665.96749  21239857.94149
  23715228.492 4 124624350.573 4  97109969.80047  23715245.82447
  21193511.953 6 111372653.568 6  86783927.60348  21193522.89848
  22539911.148 5 118448022.273 5  92297220.09047  22539929.39547
  19947298.664 7 104823759.899 7  81680902.38249  19947312.15249
  23675470.492 2 124415445.409 2  96947202.96745  23675496.97345
  23129117.336 5 121544314.398 5  94709932.59747  23129140.15247
 23  3 10  2 52  1.0000000  0  8G04G08G09G16G26G27G28G31            
  21403118.266 6 112474137.825 6  87642239.36648  21403131.71948
  21238911.117 6 111611229.628 6  86969856.33349  21238927.43449
  23714289.359 3 124619423.953 3  97106130.89047  23714308.28147
  21193237.773 6 111371213.071 6  86782805.12648  21193248.98848
  22539786.813 5 118447364.873 5  92296707.82747  22539804.41847
  19946757.273 7 104820914.508 7  81678685.19249  19946770.23049
  23675448.125 2 124415325.881 2  96947109.83345  23675474.04345
  23129017.383 5 121543790.942 5  94709524.70347  23129040.52347
 23  3 10  2 52  2.0000000  0  8G04G08G09G16G26G27G28G31            
  21402477.133 6 112470767.009 6  87639612.76047  21402490.62947
  21237980.758 6 111606341.374 6  86966047.30449  21237997.26649
  23713352.578 3 124614498.067 3  97102292.54747  23713371.09047
  21192963.977 6 111369773.049 6  86781683.02148  21192974.86348
  22539661.328 5 118446707.745 5  92296195.77047  22539679.34047
  19946215.922 7 104818070.108 7  81676468.77249  19946229.43849
  23675424.891 2 124415206.941 2  96947017.17645  23675451.21545
  23128918.031 5 121543268.062 5  94709117.26547  23128940.91847
 23  3 10  2 52  3.0000000  0  8G04G08G09G16G26G27G28G31            
  21401836.250 6 112467397.309 6  87636987.01547  21401849.06347
  21237050.359 6 111601454.109 6  86962239.04049  21237067.65249
  23712414.883 3 124609573.071 3  97098454.89647  23712434.41447
  21192690.320 6 111368333.634 6  86780561.39548  21192700.96548
  22539536.742 6 118446051.084 6  92295684.08247  22539553.81647
  19945674.930 7 104815226.869 7  81674253.25449  19945688.07449
  23675402.164 2 124415088.722 2  96946925.06745  23675428.80545
  23128819.336 6 121542745.899 6  94708710.37147  23128841.75047
 23  3 10  2 52  4.0000000  0  8G04G08G09G16G26G27G28G31            
  21401194.445 6 112464028.048 6  87634361.61347  21401208.13747
  21236120.773 6 111596567.197 6  86958431.06349  21236137.09049
  23711477.500 3 124604648.489 3  97094617.54847  23711496.90647
  21192416.242 6 111366894.225 6  86779439.76947  21192427.12947
  22539411.625 5 118445394.296 5  92295172.29047  22539429.30147
  19945133.961 7 104812384.146 7  81672038.14549  19945146.92249
  23675380.125 2 124414970.665 2  96946833.08446  23675406.50846
  23128719.477 6 121542223.877 6  94708303.59147  23128742.53947
 23  3 10  2 52  5.0000000  0  8G04G08G09G16G26G27G28G31            
  21400553.914 6 112460659.524 6  87631736.78548  21400567.33248
  21235190.844 6 111591680.879 6  86954623.55149  21235207.62149
  23710541.648 3 124599724.224 3  97090780.46847  23710559.57447
  21192142.070 6 111365455.044 6  86778318.33448  21192153.27348
  22539286.289 5 118444737.510 5  92294660.49847  22539304.27347
  19944593.156 7 104809542.204 7  81669823.64549  19944606.07449
  23675357.234 2 124414852.940 2  96946741.35546  23675384.14546
  23128620.367 6 121541702.208 6  94707897.08247  23128643.12147
 23  3 10  2 52  6.0000000  0  8G04G08G09G16G26G27G28G31            
  21399912.875 6 112457291.726 6  87629112.52448  21399926.10548
  21234261.141 6 111586795.159 6  86950816.50449  21234278.50049
  23709604.453 3 124594800.606 3  97086943.88347  23709622.92647
  21191868.070 6 111364016.127 6  86777197.09547  21191879.43447
  22539161.563 5 118444080.879 5  92294148.83347  22539179.45747
  19944052.477 7 104806701.044 7  81667609.75649  19944065.56349
  23675335.508 2 124414735.700 2  96946650.01346  23675362.34046
  23128520.703 5 121541180.916 5  94707490.87647  23128544.04747
 23  3 10  2 52  7.0000000  0  8G04G08G09G16G26G27G28G31            
  21399272.633 6 112453924.743 6  87626488.89648  21399285.46148
  21233331.852 6 111581910.160 6  86947010.01649  21233348.53149
  23708668.203 3 124589877.600 3  97083107.76447  23708685.96547
  21191594.664 6 111362577.551 6  86776076.12247  21191605.71547
  22539035.875 5 118443424.350 5  92293637.24347  22539054.32447
  19943511.813 7 104803860.764 7  81665396.54749  19943524.90649
  23675313.578 2 124414618.870 2  96946558.97745  23675339.64545
  23128421.891 5 121540660.105 5  94707085.03847  23128445.07847
 23  3 10  2 52  8.0000000  0  8G04G08G09G16G26G27G28G31            
  21398631.680 6 112450558.228 6  87623865.62047  21398645.29347
  21232401.852 6 111577025.513 6  86943203.77949  21232418.77349
  23707730.953 4 124584954.906 4  97079271.88747  23707749.28147
  21191321.047 6 111361138.969 6  86774955.13747  21191332.03547
  22538911.969 5 118442767.729 5  92293125.55847  22538929.53147
  19942971.969 7 104801020.997 7  81663183.73149  19942984.74649
  23675291.148 2 124414502.192 2  96946468.03745  23675317.91045
  23128323.031 6 121540139.404 6  94706679.27147  23128345.76647
 23  3 10  2 52  9.0000000  0  8G04G08G09G16G26G27G28G31            
  21397991.219 6 112447192.525 6  87621242.95847  21398004.19147
  21231472.602 6 111572141.504 6  86939398.02749  21231489.63349
  23706794.867 4 124580032.790 4  97075436.43147  23706812.72347
  21191047.719 6 111359700.706 6  86773834.37347  21191058.13347
  22538786.852 5 118442111.233 5  92292613.95547  22538804.41447
  19942431.273 7 104798182.097 7  81660971.56549  19942444.67649
  23675269.164 2 124414385.976 2  96946377.45945  23675295.32045
  23128223.859 6 121539619.172 6  94706273.86947  23128247.50047
 23  3 10  2 52 10.0000000  0  8G04G08G09G16G26G27G28G31            
  21397350.805 6 112443827.820 6  87618621.07647  21397363.85947
  21230543.375 6 111567258.414 6  86935593.00049  21230560.83249
  23705858.688 4 124575111.512 4  97071601.64547  23705876.07447
  21190773.703 6 111358262.981 6  86772714.04447  21190784.59847
  22538661.688 5 118441455.094 5  92292102.65547  22538679.34447
  19941891.828 7 104795344.237 7  81658760.21949  19941904.80949
  23675247.047 2 124414270.441 2  96946287.42945  23675273.64845
  23128124.727 6 121539099.561 6  94705868.94047  23128148.27347
 23  3 10  2 52 11.0000000  0  8G04G08G09G16G26G27G28G31            
  21396710.875 6 112440464.176 6  87616000.04647  21396724.10947
  21229614.336 6 111562376.245 6  86931788.71449  21229631.31649
  23704922.313 5 124570191.078 5  97067767.54147  23704939.60947
  21190500.422 6 111356825.842 6  86771594.18148  21190511.27748
  22538537.180 5 118440799.379 5  92291591.70047  22538554.77747
  19941351.570 7 104792507.519 7  81656549.78149  19941364.75049
  23675224.938 2 124414155.597 2  96946197.91945  23675251.50445
  23128026.055 5 121538580.657 5  94705464.58347  23128049.53147
 23  3 10  2 52 12.0000000  0  8G04G08G09G16G26G27G28G31            
  21396070.438 6 112437101.448 6  87613379.74147  21396084.37947
  21228685.953 6 111557494.832 6  86927985.02149  21228702.82849
  23703985.539 5 124565271.426 5  97063934.06647  23704003.82447
  21190227.313 6 111355389.151 6  86770474.67848  21190237.72348
  22538412.250 5 118440143.897 5  92291080.92947  22538429.80547
  19940811.914 7 104789671.747 7  81654340.09649  19940824.69949
  23675204.164 2 124414041.322 2  96946108.86145  23675229.87545
  23127928.047 5 121538062.296 5  94705060.65547  23127951.83647
 23  3 10  2 52 13.0000000  0  8G04G08G09G16G26G27G28G31            
  21395431.047 6 112433739.369 6  87610759.94947  21395444.50447
  21227757.000 6 111552613.982 6  86924181.77149  21227774.18449
  23703050.063 5 124560352.212 5  97060100.92847  23703067.41447
  21189953.852 6 111353952.604 6  86769355.29348  21189964.53548
  22538287.469 5 118439488.466 5  92290570.19847  22538305.10547
  19940272.484 7 104786836.696 7  81652130.96849  19940285.93449
  23675181.766 2 124413927.374 2  96946020.09445  23675208.64845
  23127829.148 6 121537544.234 6  94704656.96147  23127852.77047
 23  3 10  2 52 14.0000000  0  8G04G08G09G16G26G27G28G31            
  21394791.156 6 112430377.808 6  87608140.54847  21394804.12947
  21226828.156 6 111547733.484 6  86920378.79249  21226845.30549
  23702113.094 4 124555433.317 4  97056268.04647  23702131.42647
  21189680.445 6 111352516.115 6  86768235.96148  21189691.12548
  22538163.398 5 118438832.890 5  92290059.36247  22538180.48447
  19939732.961 7 104784002.189 7  81649922.26749  19939745.91449
  23675160.164 2 124413813.535 2  96945931.37845  23675186.72745
  23127730.430 5 121537026.360 5  94704253.40947  23127754.00847
 23  3 10  2 52 15.0000000  0  8G04G08G09G16G26G27G28G31            
  21394151.383 6 112427016.728 6  87605521.52347  21394165.32047
  21225899.289 6 111542853.373 6  86916576.10949  21225916.44549
  23701177.086 4 124550514.729 4  97052435.38847  23701195.23447
  21189406.930 6 111351079.647 6  86767116.63648  21189417.84048
  22538038.523 5 118438177.180 5  92289548.41947  22538055.95347
  19939193.953 7 104781168.242 7  81647714.00349  19939207.05149
  23675138.063 2 124413699.924 2  96945842.86745  23675164.68445
  23127632.000 5 121536508.590 5  94703849.93447  23127655.55547
 23  3 10  2 52 16.0000000  0  8G04G08G09G16G26G27G28G31            
  21393511.617 6 112423656.394 6  87602903.08247  21393525.60547
  21224970.664 6 111537973.853 6  86912773.88449  21224987.85249
  23700241.305 5 124545596.682 5  97048603.14647  23700259.53547
  21189133.727 6 111349643.413 6  86765997.49048  21189144.25848
  22537913.938 5 118437521.532 5  92289037.51547  22537931.13347
  19938654.773 7 104778335.076 7  81645506.33649  19938668.21949
  23675116.813 2 124413586.677 2  96945754.64445  23675143.22745
  23127533.547 5 121535991.200 5  94703446.75947  23127557.27047
 23  3 10  2 52 17.0000000  0  8G04G08G09G16G26G27G28G31            
  21392872.719 6 112420296.804 6  87600285.21347  21392886.44947
  21224042.102 6 111533094.970 6  86908972.15549  21224059.51249
  23699305.313 4 124540679.233 4  97044771.36747  23699323.94947
  21188860.531 6 111348207.467 6  86764878.56748  21188871.45348
  22537789.000 5 118436865.998 5  92288526.69147  22537806.30947
  19938115.633 7 104775502.725 7  81643299.31249  19938128.99249
  23675095.375 2 124413473.896 2  96945666.76645  23675121.87945
  23127434.891 5 121535474.217 5  94703043.89247  23127458.84847
 23  3 10  2 52 18.0000000  0  8G04G08G09G16G26G27G28G31            
  21392233.555 6 112416938.113 6  87597668.05147  21392247.26647
  21223114.281 6 111528216.849 6  86905171.02249  21223130.98849
  23698369.398 4 124535762.474 4  97040940.12447  23698388.35947
  21188586.680 6 111346771.953 6  86763759.97948  21188597.68048
  22537664.063 5 118436210.733 5  92288016.08947  22537681.57847
  19937576.672 7 104772671.333 7  81641093.02349  19937590.06349
  23675074.422 2 124413361.572 2  96945579.23945  23675100.56645
  23127337.063 5 121534957.767 5  94702641.45847  23127360.89847
 23  3 10  2 52 19.0000000  0  8G04G08G09G16G26G27G28G31            
  21391594.211 6 112413580.174 6  87595051.47347  21391608.14147
  21222185.750 6 111523339.405 6  86901370.42049  21222202.94549
  23697434.328 4 124530846.273 4  97037109.31347  23697452.64547
  21188314.336 6 111345336.717 6  86762641.60847  21188324.49247
  22537539.250 5 118435555.584 5  92287505.57147  22537557.09447
  19937038.359 7 104769840.737 7  81638887.36749  19937051.40649
  23675052.781 2 124413249.704 2  96945492.07745  23675079.09045
  23127238.750 5 121534441.749 5  94702239.36047  23127262.41047
 23  3 10  2 52 20.0000000  0  8G04G08G09G16G26G27G28G31            
  21390955.906 6 112410222.774 6  87592435.31747  21390969.16447
  21221257.484 6 111518462.327 6  86897570.09949  21221274.62149
  23696498.422 4 124525930.442 4  97033278.79047  23696516.80147
  21188040.891 6 111343901.532 6  86761523.27447  21188051.78547
  22537414.508 5 118434900.307 5  92286994.95947  22537432.85547
  19936499.633 7 104767010.731 7  81636682.16749  19936512.98849
  23675030.984 2 124413138.081 2  96945405.09845  23675057.72345
  23127140.406 5 121533925.866 5  94701837.36747  23127164.27747
 23  3 10  2 52 21.0000000  0  8G04G08G09G16G26G27G28G31            
  21390316.781 6 112406866.365 6  87589819.93047  21390330.45747
  21220329.625 6 111513586.104 6  86893770.45049  21220346.94949
  23695562.656 4 124521015.419 4  97029448.90347  23695581.87147
  21187767.711 6 111342466.846 6  86760405.33547  21187778.68047
  22537290.063 5 118434245.369 5  92286484.60747  22537307.91847
  19935961.273 7 104764181.770 7  81634477.77949  19935974.62949
  23675010.422 2 124413027.036 2  96945318.56845  23675037.03545
  23127042.625 5 121533410.632 5  94701435.88147  23127065.98047
 23  3 10  2 52 22.0000000  0  8G04G08G09G16G26G27G28G31            
  21389677.875 6 112403510.553 6  87587205.00547  21389692.06347
  21219401.484 6 111508710.397 6  86889971.19649  21219419.60949
  23694627.883 4 124516100.794 4  97025619.32547  23694646.52047
  21187495.039 6 111341032.301 6  86759287.50148  21187505.58648
  22537165.875 5 118433590.434 5  92285974.26247  22537183.12947
  19935423.242 7 104761353.483 7  81632273.92049  19935436.42249
  23674989.602 2 124412916.277 2  96945232.26345  23675015.73045
  23126944.625 5 121532895.686 5  94701034.61647  23126968.37947
 23  3 10  2 52 23.0000000  0  8G04G08G09G16G26G27G28G31            
  21389039.703 6 112400155.590 6  87584590.74847  21389053.96147
  21218474.422 6 111503835.412 6  86886172.50749  21218491.56349
  23693693.586 4 124511186.870 4  97021790.29947  23693711.51247
  21187221.969 6 111339598.152 6  86758169.97947  21187232.47747
  22537040.617 6 118432935.665 6  92285464.05047  22537058.01247
  19934885.242 7 104758526.086 7  81630070.75449  19934898.53149
  23674967.992 2 124412806.048 2  96945146.36845  23674994.73045
  23126846.570 6 121532381.205 6  94700633.71147  23126870.09847
 23  3 10  2 52 24.0000000  0  8G04G08G09G16G26G27G28G31            
  21388401.867 6 112396801.462 6  87581977.14247  21388415.35247
  21217546.500 6 111498961.106 6  86882374.34149  21217564.50449
  23692758.984 4 124506273.490 4  97017961.69747  23692776.43847
  21186949.063 6 111338164.306 6  86757052.68747  21186960.30947
  22536916.523 5 118432281.091 5  92284953.98647  22536933.88747
  19934347.383 7 104755699.560 7  81627868.26649  19934360.37949
  23674947.156 2 124412696.303 2  96945060.85545  23674973.79345
  23126749.125 6 121531867.188 6  94700233.17247  23126772.35947
 23  3 10  2 52 25.0000000  0  8G04G08G09G16G26G27G28G31            
  21387763.461 6 112393448.101 6  87579364.13147  21387777.18447
  21216619.031 6 111494087.491 6  86878576.71849  21216636.46149
  23691823.648 4 124501360.813 4  97014133.64447  23691841.69147
  21186675.883 6 111336730.813 6  86755935.67247  21186686.94947
  22536791.828 5 118431626.672 5  92284444.04247  22536809.74647
  19933809.742 7 104752873.875 7  81625666.43349  19933822.65249
  23674926.438 2 124412586.979 2  96944975.68045  23674952.87545
  23126651.445 6 121531353.593 6  94699832.95547  23126674.71547
 23  3 10  2 52 26.0000000  0  8G04G08G09G16G26G27G28G31            
  21387125.820 6 112390095.427 6  87576751.65047  21387139.55147
  21215691.711 6 111489214.414 6  86874779.51249  21215709.34049
  23690888.344 4 124496448.588 4  97010305.92947  23690906.68047
  21186403.266 6 111335297.483 6  86754818.79147  21186414.45347
  22536667.633 5 118430972.253 5  92283934.09947  22536684.87947
  19933271.992 7 104750048.935 7  81623465.18049  19933285.43449
  23674905.344 2 124412477.990 2  96944890.76445  23674931.59445
  23126553.672 6 121530840.354 6  94699433.01747  23126576.98447
 23  3 10  2 52 27.0000000  0  8G04G08G09G16G26G27G28G31            
  21386487.766 6 112386743.615 6  87574139.85447  21386501.23847
  21214765.039 6 111484342.081 6  86870982.89449  21214782.30549
  23689953.961 4 124491537.041 4  97006478.74647  23689971.80147
  21186131.227 6 111333864.606 6  86753702.25948  21186141.56348
  22536542.563 5 118430318.110 5  92283424.37047  22536560.63347
  19932734.547 7 104747224.927 7  81621264.65249  19932747.46149
  23674885.398 3 124412369.537 3  96944806.26545  23674911.03545
  23126455.875 6 121530327.631 6  94699033.48347  23126479.21147
 23  3 10  2 52 28.0000000  0  8G04G08G09G16G26G27G28G31            
  21385850.141 6 112383392.550 6  87571528.63147  21385863.63347
  21213837.656 6 111479470.338 6  86867186.72549  21213855.33249
  23689019.820 4 124486626.041 4  97002652.00047  23689037.69547
  21185858.258 6 111332431.919 6  86752585.87848  21185868.83648
  22536418.211 5 118429664.026 5  92282914.68747  22536436.03147
  19932197.523 7 104744401.671 7  81619064.71149  19932210.77349
  23674864.945 3 124412261.502 3  96944722.08345  23674891.03145
  23126358.711 6 121529815.235 6  94698634.19847  23126382.42647
 23  3 10  2 52 29.0000000  0  8G04G08G09G16G26G27G28G31            
  21385212.281 6 112380042.131 6  87568917.92147  21385225.83647
  21212910.313 6 111474599.139 6  86863390.99549  21212928.33249
  23688085.367 4 124481715.536 4  96998825.63447  23688103.42247
  21185585.734 6 111330999.424 6  86751469.63948  21185596.02348
  22536294.398 6 118429009.959 6  92282405.00447  22536312.00847
  19931660.516 7 104741579.153 7  81616865.34449  19931674.00049
  23674843.492 2 124412153.735 2  96944638.09545  23674870.04745
  23126261.141 6 121529303.185 6  94698235.20047  23126284.84847
 23  3 10  2 52 30.0000000  0  8G04G08G09G16G26G27G28G31            
  21384575.305 6 112376692.479 6  87566307.79447  21384588.68847
  21211983.828 6 111469728.579 6  86859595.75649  21212001.43449
  23687151.094 5 124476805.568 5  96994999.69247  23687168.85247
  21185313.352 6 111329567.246 6  86750353.65848  21185324.08648
  22536169.039 5 118428355.992 5  92281895.41047  22536186.90647
  19931123.352 7 104738757.433 7  81614666.59749  19931136.49649
  23674823.719 2 124412046.423 2  96944554.45345  23674849.59445
  23126163.523 6 121528791.532 6  94697836.49747  23126187.26247
 23  3 10  2 52 31.0000000  0  8G04G08G09G16G26G27G28G31            
  21383937.688 6 112373343.739 6  87563698.38247  21383951.55147
  21211057.078 6 111464858.779 6  86855801.10549  21211074.86349
  23686217.250 5 124471896.356 5  96991174.33947  23686234.65247
  21185041.102 6 111328135.496 6  86749238.00647  21185051.28147
  22536045.523 6 118427702.307 6  92281386.04047  22536062.85547
  19930586.539 7 104735936.717 7  81612468.63849  19930599.91449
  23674803.055 3 124411939.669 3  96944471.25945  23674829.25445
  23126066.539 6 121528280.439 6  94697438.23747  23126090.34047
 23  3 10  2 52 32.0000000  0  8G04G08G09G16G26G27G28G31            
  21383300.461 6 112369995.867 6  87561089.64647  21383313.94947
  21210130.820 6 111459989.725 6  86852007.03649  21210148.44149
  23685282.820 5 124466987.830 5  96987349.51547  23685300.54747
  21184768.656 6 111326704.141 6  86748122.66047  21184779.18047
  22535920.914 6 118427048.872 6  92280876.85847  22535938.74647
  19930049.828 7 104733116.890 7  81610271.37349  19930063.45749
  23674782.773 3 124411833.481 3  96944388.52645  23674808.67245
  23125969.711 6 121527769.854 6  94697040.35647  23125992.97347
 23  3 10  2 52 33.0000000  0  8G04G08G09G16G26G27G28G31            
  21382663.992 6 112366648.797 6  87558481.54047  21382677.37147
  21209203.867 6 111455121.356 6  86848213.51149  21209221.46549
  23684348.313 4 124462079.867 4  96983525.13147  23684366.42247
  21184495.836 6 111325273.061 6  86747007.53047  21184506.53947
  22535796.023 6 118426395.546 6  92280367.76647  22535814.50447
  19929513.563 7 104730297.925 7  81608074.77749  19929526.97349
  23674762.586 2 124411727.696 2  96944306.11345  23674788.38345
  23125872.086 5 121527259.711 5  94696642.82147  23125895.43447
 23  3 10  2 52 34.0000000  0  8G04G08G09G16G26G27G28G31            
  21382027.008 6 112363302.661 6  87555874.16047  21382040.39847
  21208277.961 6 111450253.807 6  86844420.61149  21208295.16049
  23683415.211 4 124457172.712 4  96979701.37247  23683432.43047
  21184223.578 6 111323842.479 6  86745892.78647  21184234.21147
  22535672.398 6 118425742.548 6  92279858.92547  22535689.97347
  19928977.500 7 104727479.931 7  81605878.93649  19928990.50449
  23674743.344 3 124411622.526 3  96944224.18245  23674768.55145
  23125775.078 6 121526750.136 6  94696245.73547  23125798.95747
 23  3 10  2 52 35.0000000  0  8G04G08G09G16G26G27G28G31            
  21381390.578 6 112359957.206 6  87553267.31247  21381403.79747
  21207351.383 6 111445386.817 6  86840628.16049  21207369.51249
  23682481.352 4 124452266.037 4  96975877.98947  23682498.89147
  21183951.430 6 111322412.085 6  86744778.18647  21183962.09047
  22535547.500 6 118425089.592 6  92279350.11547  22535566.07447
  19928441.094 7 104724662.708 7  81603683.69549  19928454.10249
  23674723.461 3 124411517.669 3  96944142.49245  23674748.34445
  23125678.508 5 121526240.897 5  94695848.91947  23125702.01647
 23  3 10  2 52 36.0000000  0  8G04G08G09G16G26G27G28G31            
  21380753.984 6 112356612.301 6  87550660.89447  21380767.29347
  21206425.469 6 111440520.273 6  86836836.05849  21206443.32849
  23681547.742 4 124447359.705 4  96972054.86847  23681565.08647
  21183679.133 6 111320981.751 6  86743663.63748  21183689.89848
  22535423.523 6 118424436.540 6  92278841.23247  22535441.92647
  19927905.367 7 104721846.062 7  81601488.90449  19927918.49649
  23674703.469 3 124411413.057 3  96944060.96745  23674728.60945
  23125581.969 6 121525731.884 6  94695452.28347  23125605.42247
 23  3 10  2 52 37.0000000  0  8G04G08G09G16G26G27G28G31            
  21380117.133 6 112353268.419 6  87548055.26147  21380131.16047
  21205499.016 5 111435654.594 5  86833044.61849  21205517.36349
  23680614.578 4 124442454.248 4  96968232.43247  23680632.00447
  21183407.250 6 111319551.981 6  86742549.52647  21183417.69147
  22535299.391 6 118423783.835 6  92278332.61647  22535317.41847
  19927369.219 7 104719030.496 7  81599294.95649  19927382.42649
  23674683.625 3 124411309.094 3  96943979.95145  23674708.70345
  23125484.883 6 121525223.482 6  94695056.12047  23125508.13747
 23  3 10  2 52 38.0000000  0  8G04G08G09G16G26G27G28G31            
  21379481.484 6 112349925.360 6  87545450.27947  21379494.66847
  21204573.664 5 111430789.630 5  86829253.73749  21204591.55149
  23679680.000 4 124437549.413 4  96964410.48347  23679698.37947
  21183135.195 6 111318122.525 6  86741435.66347  21183145.43847
  22535174.688 6 118423131.321 6  92277824.15747  22535193.58247
  19926833.766 7 104716215.809 7  81597101.69049  19926846.95749
  23674663.414 3 124411205.651 3  96943899.34645  23674688.94145
  23125388.289 6 121524715.592 6  94694660.34847  23125411.89547
 23  3 10  2 52 39.0000000  0  8G04G08G09G16G26G27G28G31            
  21378845.539 6 112346583.205 6  87542845.99347  21378858.65647
  21203648.500 6 111425925.463 6  86825463.48349  21203666.25849
  23678747.664 4 124432645.275 4  96960589.07547  23678765.33247
  21182862.727 6 111316693.509 6  86740322.13448  21182874.06648
  22535050.953 6 118422479.076 6  92277315.90547  22535069.17247
  19926298.469 7 104713402.067 7  81594909.16549  19926311.71949
  23674644.078 3 124411102.742 3  96943819.16145  23674669.20745
  23125291.578 6 121524208.241 6  94694264.99447  23125315.06647
 23  3 10  2 52 40.0000000  0  8G04G08G09G16G26G27G28G31            
  21378209.688 6 112343241.915 6  87540242.39347  21378222.98447
  21202722.516 6 111421062.027 6  86821673.78949  21202740.85249
  23677814.625 5 124427741.872 5  96956768.24547  23677832.29747
  21182591.352 6 111315264.933 6  86739208.95648  21182601.99648
  22534926.617 6 118421827.079 6  92276807.84747  22534945.39547
  19925763.047 7 104710589.279 7  81592717.38149  19925776.26649
  23674625.250 3 124411000.385 3  96943739.40445  23674649.25845
  23125195.234 6 121523701.399 6  94693870.02947  23125218.81647
 23  3 10  2 52 41.0000000  0  8G04G08G09G16G26G27G28G31            
  21377573.406 6 112339901.220 6  87537639.24647  21377587.07047
  21201797.398 6 111416199.075 6  86817884.48049  21201815.39549
  23676881.336 4 124422838.852 4  96952947.71247  23676899.25047
  21182319.516 6 111313836.424 6  86738095.83848  21182330.25048
  22534803.250 6 118421174.975 6  92276299.70847  22534821.51647
  19925228.000 7 104707777.125 7  81590526.09249  19925241.28149
  23674606.281 3 124410898.239 3  96943659.83145  23674630.16445
  23125098.438 6 121523194.797 6  94693475.26447  23125122.35247
 23  3 10  2 52 42.0000000  0  8G04G08G09G16G26G27G28G31            
  21376938.570 6 112336561.402 6  87535036.79147  21376951.59447
  21200871.656 6 111411336.853 6  86814095.73849  21200889.76249
  23675948.141 4 124417936.528 4  96949127.72447  23675966.06647
  21182047.641 6 111312408.323 6  86736983.02448  21182058.76648
  22534679.211 6 118420523.156 6  92275791.78547  22534697.44947
  19924692.938 7 104704965.890 7  81588335.51849  19924706.39849
  23674586.820 3 124410796.671 3  96943580.70045  23674610.38345
  23125002.711 5 121522688.712 5  94693080.90447  23125026.02347
 23  3 10  2 52 43.0000000  0  8G04G08G09G16G26G27G28G31            
  21376303.203 6 112333222.311 6  87532434.89747  21376316.03547
  21199946.930 5 111406475.182 5  86810307.42949  21199965.39849
  23675015.500 4 124413034.707 4  96945308.12247  23675033.46147
  21181776.336 6 111310980.447 6  86735870.39148  21181787.19548
  22534555.023 6 118419871.381 6  92275283.90047  22534573.46547
  19924158.047 7 104702155.432 7  81586145.54649  19924171.77349
  23674567.781 3 124410695.416 3  96943501.78245  23674591.25445
  23124906.102 6 121522182.983 6  94692686.81947  23124930.24247
 23  3 10  2 52 44.0000000  0  8G04G08G09G16G26G27G28G31            
  21375667.359 6 112329883.853 6  87529833.49547  21375680.87147
  21199022.039 6 111401614.130 6  86806519.60449  21199040.27749
  23674083.523 4 124408133.390 4  96941488.91647  23674100.52047
  21181504.445 6 111309552.817 6  86734757.94248  21181515.27048
  22534430.789 6 118419219.642 6  92274776.04247  22534449.77047
  19923623.672 7 104699345.698 7  81583956.14749  19923637.11349
  23674548.250 3 124410594.560 3  96943423.17845  23674571.93445
  23124809.781 6 121521677.557 6  94692292.97347  23124833.59047
 23  3 10  2 52 45.0000000  0  8G04G08G09G16G26G27G28G31            
  21375032.555 6 112326545.922 6  87527232.51047  21375045.79747
  21198097.031 6 111396753.361 6  86802731.99549  21198115.27049
  23673149.859 4 124403232.373 4  96937669.94447  23673167.88347
  21181232.742 6 111308125.150 6  86733645.47347  21181243.56347
  22534306.563 6 118418567.742 6  92274268.05847  22534325.30147
  19923088.961 7 104696536.517 7  81581767.16749  19923101.87549
  23674528.844 3 124410493.792 3  96943344.64045  23674552.92645
  23124714.094 5 121521172.295 5  94691899.25047  23124737.08247
 23  3 10  2 52 46.0000000  0  8G04G08G09G16G26G27G28G31            
  21374397.820 6 112323208.691 6  87524632.06947  21374410.62147
  21197172.633 6 111391893.233 6  86798944.89249  21197190.37549
  23672217.406 4 124398331.860 4  96933851.36047  23672235.25047
  21180961.633 6 111306697.721 6  86732533.18848  21180971.98848
  22534182.742 6 118417915.886 6  92273760.10847  22534201.31347
  19922554.461 7 104693728.088 7  81579578.78249  19922567.50849
  23674510.313 3 124410393.416 3  96943266.42645  23674533.98845
  23124617.875 6 121520667.379 6  94691505.80347  23124641.29747
 23  3 10  2 52 47.0000000  0  8G04G08G09G16G26G27G28G31            
  21373763.094 6 112319872.302 6  87522032.28947  21373775.66447
  21196247.648 6 111387033.820 6  86795158.34149  21196265.47749
  23671285.234 4 124393432.044 4  96930033.31647  23671302.90247
  21180690.063 6 111305270.656 6  86731421.18748  21180700.72748
  22534058.711 6 118417264.251 6  92273252.33247  22534077.16847
  19922020.023 7 104690920.545 7  81577391.08349  19922033.68049
  23674490.578 3 124410293.532 3  96943188.62145  23674515.22745
  23124521.906 5 121520162.910 5  94691112.69747  23124545.23047
 23  3 10  2 52 48.0000000  0  8G04G08G09G16G26G27G28G31            
  21373128.133 6 112316536.629 6  87519433.05547  21373140.60547
  21195323.203 6 111382174.974 6  86791372.22349  21195341.01649
  23670353.281 4 124388532.730 4  96926215.66747  23670370.65247
  21180418.250 6 111303843.815 6  86730309.35748  21180428.66448
  22533934.633 5 118416612.693 5  92272744.61547  22533953.54747
  19921486.180 7 104688113.776 7  81575203.98749  19921499.58649
  23674471.492 3 124410194.050 3  96943111.13045  23674496.38745
  23124425.273 5 121519658.818 5  94690719.88447  23124449.60547
 23  3 10  2 52 49.0000000  0  8G04G08G09G16G26G27G28G31            
  21372493.766 6 112313201.664 6  87516834.37847  21372506.23047
  21194398.688 6 111377316.729 6  86787586.57949  21194416.14149
  23669420.594 4 124383633.982 4  96922398.46547  23669438.22347
  21180146.992 6 111302417.236 6  86729197.73648  21180157.45748
  22533810.867 5 118415961.187 5  92272236.94947  22533829.59047
  19920952.109 7 104685307.777 7  81573017.49649  19920965.44149
  23674453.148 3 124410094.922 3  96943033.89945  23674477.25845
  23124329.547 5 121519155.120 5  94690327.38347  23124353.54347
 23  3 10  2 52 50.0000000  0  8G04G08G09G16G26G27G28G31            
  21371859.023 6 112309867.606 6  87514236.40247  21371871.84047
  21193474.078 6 111372459.239 6  86783801.53349  21193491.89549
  23668489.594 5 124378735.925 5  96918581.79247  23668506.52747
  21179875.828 6 111300991.051 6  86728086.42148  21179886.01648
  22533686.711 5 118415309.946 5  92271729.47647  22533705.68047
  19920418.117 7 104682502.731 7  81570831.74149  19920431.50849
  23674435.047 3 124409996.346 3  96942957.09845  23674458.54745
  23124234.445 5 121518651.933 5  94689935.27947  23124257.93047
 23  3 10  2 52 51.0000000  0  8G04G08G09G16G26G27G28G31            
  21371224.406 6 112306533.933 6  87511638.72847  21371237.64847
  21192549.805 6 111367602.033 6  86780016.69649  21192568.27349
  23667556.797 5 124373838.079 5  96914765.29047  23667574.34447
  21179604.641 6 111299564.771 6  86726975.03248  21179614.32048
  22533562.406 6 118414658.471 6  92271221.82447  22533581.49647
  19919884.648 7 104679698.130 7  81568646.33649  19919897.85249
  23674415.719 4 124409897.820 4  96942880.32145  23674439.59045
  23124138.547 6 121518148.770 6  94689543.19447  23124162.08247
 23  3 10  2 52 52.0000000  0  8G04G08G09G16G26G27G28G31            
  21370590.047 6 112303200.762 6  87509041.44347  21370603.09447
  21191625.625 6 111362745.219 6  86776232.17149  21191643.59849
  23666625.375 5 124368940.538 5  96910949.02647  23666642.23847
  21179332.906 6 111298138.556 6  86725863.68748  21179343.10248
  22533438.656 5 118414006.821 5  92270714.03147  22533457.34847
  19919351.031 7 104676894.067 7  81566461.35049  19919364.40249
  23674396.516 4 124409799.497 4  96942803.70945  23674421.11345
  23124042.273 6 121517645.766 6  94689151.22947  23124066.47347
 23  3 10  2 52 53.0000000  0  8G04G08G09G16G26G27G28G31            
  21369956.578 6 112299868.457 6  87506444.84047  21369969.58247
  21190701.234 6 111357889.144 6  86772448.21349  21190719.03149
  23665693.969 5 124364043.691 5  96907133.30447  23665710.64547
  21179061.328 6 111296712.714 6  86724752.63947  21179071.69947
  22533314.727 5 118413355.436 5  92270206.44447  22533333.37547
  19918817.461 7 104674090.958 7  81564277.11549  19918830.57449
  23674378.102 4 124409701.650 4  96942727.47045  23674402.22345
  23123947.391 5 121517143.303 5  94688759.68447  23123970.80147
 23  3 10  2 52 54.0000000  0  8G04G08G09G16G26G27G28G31            
  21369322.688 6 112296537.267 6  87503849.10548  21369335.66848
  21189777.391 6 111353034.014 6  86768664.99949  21189795.46949
  23664762.414 5 124359147.760 5  96903318.29547  23664778.92647
  21178790.211 6 111295287.510 6  86723642.08248  21178800.90648
  22533190.258 6 118412704.459 6  92269699.17747  22533209.84047
  19918284.164 7 104671288.975 7  81562093.75349  19918297.43049
  23674359.375 4 124409604.602 4  96942651.85345  23674383.53545
  23123851.234 5 121516641.580 5  94688368.71747  23123875.40247
 23  3 10  2 52 55.0000000  0  8G04G08G09G16G26G27G28G31            
  21368688.578 6 112293206.862 6  87501253.98247  21368701.47347
  21188854.242 6 111348179.585 6  86764882.32949  21188872.05549
  23663830.703 5 124354252.451 5  96899503.77947  23663847.55147
  21178519.258 6 111293862.585 6  86722531.75048  21178529.47748
  22533067.359 6 118412053.669 6  92269192.05547  22533085.99247
  19917751.383 7 104668487.854 7  81559911.06149  19917764.41849
  23674340.898 4 124409507.951 4  96942576.52145  23674365.54345
  23123755.898 5 121516140.285 5  94687978.08647  23123780.14547
 23  3 10  2 52 56.0000000  0  8G04G08G09G16G26G27G28G31            
  21368055.047 6 112289877.099 6  87498659.36147  21368067.67647
  21187930.281 6 111343325.657 6  86761100.04849  21187948.25449
  23662898.461 5 124349357.545 5  96895689.57647  23662915.98847
  21178247.938 6 111292437.824 6  86721421.53947  21178258.48047
  22532943.328 6 118411402.844 6  92268684.91447  22532962.15247
  19917218.227 7 104665687.420 7  81557728.89749  19917231.68049
  23674323.531 4 124409411.598 4  96942501.46045  23674347.02345
  23123660.578 5 121515639.235 5  94687587.64047  23123684.69147
 23  3 10  2 52 57.0000000  0  8G04G08G09G16G26G27G28G31            
  21367421.070 6 112286547.924 6  87496065.19447  21367434.18047
  21187006.438 6 111338472.168 6  86757318.10949  21187024.48449
  23661966.984 5 124344463.104 5  96891875.72747  23661984.48047
  21177976.789 6 111291013.189 6  86720311.43147  21177987.62147
  22532818.906 5 118410751.965 5  92268177.72747  22532838.35547
  19916685.672 7 104662887.634 7  81555547.24849  19916698.60949
  23674305.547 4 124409315.543 4  96942426.60945  23674328.70745
  23123565.375 5 121515138.484 5  94687197.44147  23123589.46147
 23  3 10  2 52 58.0000000  0  8G04G08G09G16G26G27G28G31            
  21366788.531 6 112283219.596 6  87493471.68847  21366801.10547
  21186083.375 6 111333619.393 6  86753536.73549  21186100.76649
  23661035.602 5 124339569.285 5  96888062.36147  23661053.62147
  21177705.898 6 111289588.926 6  86719201.61848  21177716.46948
  22532695.633 5 118410101.326 5  92267670.72947  22532714.64547
  19916153.500 7 104660088.748 7  81553366.30049  19916166.17249
  23674286.672 4 124409219.970 4  96942352.15045  23674310.65645
  23123470.266 5 121514638.170 5  94686807.57747  23123494.16047
 23  3 10  2 52 59.0000000  0  8G04G08G09G16G26G27G28G31            
  21366155.219 6 112279892.021 6  87490878.77147  21366167.62147
  21185159.945 6 111328767.303 6  86749755.89049  21185177.60249
  23660104.711 5 124334676.081 5  96884249.47747  23660122.68847
  21177435.328 6 111288164.947 6  86718092.01848  21177445.83648
  22532571.570 5 118409450.787 5  92267163.81447  22532590.89147
  19915620.664 7 104657290.683 7  81551185.99149  19915633.97349
  23674268.727 4 124409124.802 4  96942277.97245  23674292.55545
  23123375.250 5 121514138.306 5  94686418.06447  23123399.16047
 23  3 10  2 53  0.0000000  0  8G04G08G09G16G26G27G28G31            
  21365522.125 6 112276565.118 6  87488286.37047  21365534.51247
  21184236.406 6 111323915.721 6  86745975.44149  21184254.58249
  23659173.813 5 124329783.328 5  96880436.93847  23659191.31347
  21177163.859 6 111286741.124 6  86716982.54248  21177174.62948
  22532448.000 5 118408800.247 5  92266656.88547  22532466.83647
  19915088.336 7 104654493.318 7  81549006.22049  19915101.54749
  23674251.063 4 124409029.969 4  96942204.08645  23674274.44945
  23123280.578 6 121513638.717 6  94686028.76747  23123304.41047
 23  3 10  2 53  1.0000000  0  8G04G08G09G16G26G27G28G31            
  21364888.984 6 112273239.048 6  87485694.62247  21364901.71947
  21183313.617 6 111319064.830 6  86742195.52749  21183331.50849
  23658242.953 5 124324891.196 5  96876624.88547  23658260.35947
  21176893.305 6 111285317.650 6  86715873.33548  21176903.84448
  22532324.391 5 118408149.890 5  92266150.10347  22532343.04747
  19914556.289 7 104651696.824 7  81546827.13449  19914569.29349
  23674232.898 4 124408935.624 4  96942130.57345  23674256.40245
  23123185.414 5 121513139.583 5  94685639.82747  23123209.15247
 23  3 10  2 53  2.0000000  0  8G04G08G09G16G26G27G28G31            
  21364255.953 6 112269913.568 6  87483103.33747  21364269.13347
  21182390.297 6 111314214.486 6  86738416.04149  21182408.41449
  23657311.531 5 124319999.561 5  96872813.21947  23657329.16047
  21176622.484 6 111283894.312 6  86714764.24048  21176632.90248
  22532199.828 5 118407499.532 5  92265643.32547  22532219.54347
  19914024.172 7 104648901.018 7  81544648.58449  19914037.17649
  23674215.211 4 124408841.521 4  96942057.27045  23674238.85545
  23123090.617 5 121512640.717 5  94685251.09247  23123114.04747
 23  3 10  2 53  3.0000000  0  8G04G08G09G16G26G27G28G31            
  21363623.508 6 112266588.957 6  87480512.72947  21363636.13347
  21181467.273 6 111309364.817 6  86734637.07449  21181485.41049
  23656381.359 5 124315108.524 5  96869002.02147  23656398.55947
  21176351.875 6 111282471.353 6  86713655.43548  21176361.74248
  22532076.195 5 118406849.317 5  92265136.64547  22532095.50847
  19913492.203 7 104646106.089 7  81542470.71349  19913505.50049
  23674197.188 4 124408747.925 4  96941984.33445  23674220.88745
  23122995.898 5 121512142.365 5  94684862.75547  23123019.23847
 23  3 10  2 53  4.0000000  0  8G04G08G09G16G26G27G28G31            
  21362991.250 6 112263265.057 6  87477922.66647  21363003.37947
  21180544.969 6 111304515.770 6  86730858.60049  21180562.64149
  23655450.586 5 124310218.100 5  96865191.29848  23655468.07048
  21176080.906 6 111281048.641 6  86712546.82348  21176091.52748
  22531953.313 5 118406199.230 5  92264630.07347  22531971.97747
  19912960.563 7 104643311.950 7  81540293.46649  19912973.99249
  23674179.680 4 124408654.731 4  96941911.67545  23674203.11745
  23122900.758 6 121511644.386 6  94684474.71047  23122924.30547
 23  3 10  2 53  5.0000000  0  8G04G08G09G16G26G27G28G31            
  21362358.258 6 112259942.087 6  87475333.34147  21362371.31647
  21179622.695 6 111299667.523 6  86727080.75049  21179639.96549
  23654520.344 5 124305328.356 5  96861381.10647  23654537.75447
  21175810.766 6 111279626.360 6  86711438.54948  21175820.70348
  22531829.523 5 118405549.414 5  92264123.71047  22531848.04347
  19912428.867 7 104640518.802 7  81538116.98149  19912442.19549
  23674161.656 4 124408562.142 4  96941839.54445  23674185.51245
  23122806.102 5 121511146.943 5  94684087.08147  23122829.55947
 23  3 10  2 53  6.0000000  0  8G04G08G09G16G26G27G28G31            
  21361726.219 6 112256619.690 6  87472744.45647  21361738.74647
  21178699.703 6 111294819.719 6  86723303.24449  21178717.35549
  23653590.484 5 124300439.038 5  96857571.24747  23653607.12947
  21175539.711 6 111278204.175 6  86710330.34048  21175550.38748
  22531705.570 5 118404899.540 5  92263617.31147  22531724.48847
  19911897.914 7 104637726.272 7  81535940.98649  19911911.04749
  23674143.703 4 124408469.768 4  96941767.57745  23674167.89845
  23122711.820 5 121510649.750 5  94683699.65047  23122735.15247
 23  3 10  2 53  7.0000000  0  8G04G08G09G16G26G27G28G31            
  21361094.469 6 112253298.047 6  87470156.16647  21361107.35247
  21177777.445 6 111289972.568 6  86719526.24449  21177795.32049
  23652659.555 5 124295550.241 5  96853761.79447  23652676.74647
  21175269.031 6 111276782.261 6  86709222.35548  21175279.69148
  22531581.477 5 118404249.738 5  92263110.97047  22531600.68047
  19911366.375 7 104634934.540 7  81533765.61049  19911379.56649
  23674126.555 4 124408377.784 4  96941695.92445  23674150.48445
  23122617.203 5 121510152.934 5  94683312.51847  23122640.72747
 23  3 10  2 53  8.0000000  0  8G04G08G09G16G26G27G28G31            
  21360462.086 6 112249977.274 6  87467568.54647  21360475.07847
  21176855.211 6 111285126.142 6  86715749.81149  21176872.62149
  23651729.602 5 124290662.200 5  96849952.93747  23651747.28147
  21174999.180 6 111275360.775 6  86708114.70447  21175009.44547
  22531458.539 5 118403600.181 5  92262604.80947  22531477.20747
  19910835.414 7 104632143.741 7  81531590.96049  19910848.78149
  23674109.539 4 124408286.312 4  96941624.67345  23674133.22345
  23122522.375 6 121509656.629 6  94682925.77647  23122546.58647
 23  3 10  2 53  9.0000000  0  8G04G08G09G16G26G27G28G31            
  21359830.758 6 112246657.509 6  87464981.70947  21359843.81347
  21175933.219 6 111280280.616 6  86711974.08449  21175950.80149
  23650799.445 5 124285774.919 5  96846144.67147  23650816.68847
  21174728.141 6 111273939.783 6  86707007.43548  21174738.73048
  22531334.719 5 118402950.978 5  92262098.91747  22531353.78147
  19910304.914 7 104629353.990 7  81529417.12549  19910317.68449
  23674092.172 4 124408195.577 4  96941553.96545  23674115.95345
  23122427.961 6 121509160.991 6  94682539.55547  23122451.48447
 23  3 10  2 53 10.0000000  0  8G04G08G09G16G26G27G28G31            
  21359198.766 6 112243338.303 6  87462395.31347  21359211.93047
  21175011.117 6 111275435.502 6  86708198.67249  21175029.01249
  23649869.664 5 124280888.063 5  96842336.74147  23649886.83247
  21174457.852 6 111272518.911 6  86705900.25447  21174468.19547
  22531211.547 5 118402301.725 5  92261593.00047  22531230.03547
  19909773.758 7 104626564.881 7  81527243.79149  19909786.98849
  23674074.422 4 124408104.995 4  96941483.36145  23674098.42645
  23122333.875 5 121508665.560 5  94682153.49147  23122357.46947
 23  3 10  2 53 11.0000000  0  8G04G08G09G16G26G27G28G31            
  21358567.242 6 112240019.779 6  87459809.45147  21358580.18847
  21174089.117 6 111270590.908 6  86704423.66249  21174107.00049
  23648939.859 5 124276001.646 5  96838529.14647  23648957.18047
  21174187.570 6 111271098.166 6  86704793.17848  21174197.78148
  22531087.641 5 118401652.446 5  92261087.06347  22531106.43847
  19909243.141 7 104623776.456 7  81525070.99449  19909256.48849
  23674057.445 4 124408014.736 4  96941413.02345  23674081.99645
  23122239.758 5 121508170.401 5  94681767.63647  23122263.35947
 23  3 10  2 53 12.0000000  0  8G04G08G09G16G26G27G28G31            
  21357936.203 6 112236702.003 6  87457224.16447  21357949.22347
  21173167.469 6 111265746.992 6  86700649.18149  21173185.46549
  23648009.727 5 124271115.830 5  96834722.01847  23648027.10547
  21173917.641 6 111269677.732 6  86703686.34148  21173927.85248
  22530964.219 5 118401003.316 5  92260581.23747  22530982.94147
  19908712.813 7 104620988.880 7  81522898.85749  19908725.97349
  23674040.102 4 124407924.948 4  96941343.07145  23674064.33645
  23122145.828 5 121507675.698 5  94681382.15247  23122169.24247
 23  3 10  2 53 13.0000000  0  8G04G08G09G16G26G27G28G31            
  21357304.867 6 112233385.045 6  87454639.51847  21357317.93047
  21172246.039 6 111260903.785 6  86696875.25149  21172263.26649
  23647079.383 5 124266230.639 5  96830915.38147  23647097.59847
  21173647.148 6 111268257.647 6  86702579.78448  21173657.84848
  22530840.742 5 118400354.359 5  92260075.55047  22530859.57447
  19908182.352 7 104618202.143 7  81520727.36649  19908195.69149
  23674022.781 4 124407835.584 4  96941273.45245  23674047.45745
  23122051.789 5 121507181.412 5  94680996.98647  23122075.15647
 23  3 10  2 53 14.0000000  0  8G04G08G09G16G26G27G28G31            
  21356673.539 6 112230068.699 6  87452055.34847  21356686.73047
  21171324.469 6 111256061.053 6  86693101.69349  21171341.75449
  23646149.984 5 124261345.888 5  96827109.08348  23646167.95348
  21173376.852 6 111266837.671 6  86701473.30648  21173387.21148
  22530716.602 5 118399705.352 5  92259569.81547  22530735.79347
  19907652.469 7 104615416.078 7  81518556.40749  19907665.63749
  23674006.164 5 124407746.495 5  96941204.04945  23674030.45345
  23121957.969 5 121506687.411 5  94680612.04147  23121981.04747
 23  3 10  2 53 15.0000000  0  8G04G08G09G16G26G27G28G31            
  21356042.492 6 112226753.120 6  87449471.77447  21356055.79747
  21170403.031 6 111251218.978 6  86689328.64949  21170420.43049
  23645220.461 5 124256461.717 5  96823303.24647  23645238.19147
  21173106.586 6 111265417.998 6  86700367.06348  21173116.94548
  22530593.836 5 118399056.474 5  92259064.17847  22530612.49647
  19907122.273 7 104612630.857 7  81516386.10449  19907135.52049
  23673989.695 4 124407657.847 4  96941135.00245  23674013.80145
  23121863.711 5 121506193.823 5  94680227.42547  23121886.94947
 23  3 10  2 53 16.0000000  0  8G04G08G09G16G26G27G28G31            
  21355411.898 6 112223438.309 6  87446888.80447  21355425.02747
  21169481.813 6 111246377.514 6  86685556.08449  21169498.93449
  23644291.109 5 124251578.140 5  96819497.85047  23644309.32047
  21172836.305 6 111263998.570 6  86699261.00848  21172846.85548
  22530470.508 5 118398407.737 5  92258558.66247  22530489.34047
  19906592.266 7 104609846.427 7  81514216.41449  19906605.77049
  23673973.156 4 124407569.623 4  96941066.23945  23673996.72745
  23121769.727 5 121505700.643 5  94679843.11547  23121793.11747
 23  3 10  2 53 17.0000000  0  8G04G08G09G16G26G27G28G31            
  21354780.914 6 112220124.133 6  87444306.32847  21354794.16047
  21168560.484 6 111241536.592 6  86681783.93549  21168577.78549
  23643361.719 5 124246695.061 5  96815692.84847  23643380.56347
  21172566.125 6 111262579.382 6  86698155.14048  21172576.73448
  22530346.992 5 118397758.967 5  92258053.11647  22530365.78947
  19906062.617 7 104607062.710 7  81512047.28149  19906075.86349
  23673956.195 4 124407481.711 4  96940997.71945  23673980.37145
  23121675.703 5 121505207.759 5  94679459.04147  23121699.28547
 23  3 10  2 53 18.0000000  0  8G04G08G09G16G26G27G28G31            
  21354150.711 6 112216810.750 6  87441724.47447  21354163.83647
  21167639.227 6 111236696.305 6  86678012.27749  21167657.02049
  23642433.461 4 124241812.504 4  96811888.26047  23642451.61747
  21172296.477 6 111261160.424 6  86697049.45648  21172306.73048
  22530223.469 5 118397110.310 5  92257547.66547  22530242.12147
  19905533.031 7 104604279.794 7  81509878.77649  19905546.26249
  23673939.109 4 124407394.188 4  96940929.53345  23673963.31645
  23121582.445 5 121504715.258 5  94679075.26647  23121605.75447
 23  3 10  2 53 19.0000000  0  8G04G08G09G16G26G27G28G31            
  21353520.070 6 112213497.877 6  87439143.01047  21353533.36747
  21166718.313 6 111231856.450 6  86674240.97049  21166735.95349
  23641504.039 5 124236930.318 5  96808083.95847  23641522.24647
  21172026.727 6 111259741.534 6  86695943.81948  21172036.92648
  22530100.141 5 118396461.573 5  92257042.13947  22530118.62947
  19905003.539 7 104601497.470 7  81507710.73049  19905016.85249
  23673922.531 4 124407306.854 4  96940861.47145  23673946.76645
  23121488.828 5 121504222.942 5  94678691.63347  23121512.00847
 23  3 10  2 53 20.0000000  0  8G04G08G09G16G26G27G28G31            
  21352889.172 6 112210185.681 6  87436562.08047  21352903.07847
  21165797.039 6 111227017.124 6  86670470.06449  21165814.73449
  23640575.211 5 124232048.626 5  96804280.03747  23640593.10547
  21171756.539 6 111258322.828 6  86694838.32948  21171767.05148
  22529976.516 5 118395812.853 5  92256536.64147  22529995.19547
  19904474.000 7 104598715.886 7  81505543.26049  19904487.51249
  23673905.813 4 124407219.863 4  96940793.67345  23673930.07045
  23121395.102 5 121503730.925 5  94678308.23347  23121418.41447
 23  3 10  2 53 21.0000000  0  8G04G08G09G16G26G27G28G31            
  21352259.633 6 112206874.421 6  87433981.87347  21352273.16047
  21164876.258 6 111222178.617 6  86666699.80849  21164893.95349
  23639646.773 5 124227167.696 5  96800476.71547  23639664.39847
  21171487.039 6 111256904.578 6  86693733.19648  21171497.21548
  22529853.352 5 118395164.434 5  92256031.37647  22529871.94547
  19903944.945 7 104595935.271 7  81503376.55049  19903958.28149
  23673888.953 4 124407133.472 4  96940726.38145  23673914.04745
  23121301.617 5 121503239.519 5  94677925.31447  23121324.87147
 23  3 10  2 53 22.0000000  0  8G04G08G09G16G26G27G28G31            
  21351629.492 6 112203563.791 6  87431402.15347  21351642.82847
  21163956.031 6 111217340.646 6  86662929.96149  21163973.39549
  23638718.164 5 124222287.192 5  96796673.72647  23638735.36347
  21171217.047 6 111255486.463 6  86692628.17048  21171227.24648
  22529729.984 5 118394516.003 5  92255526.09647  22529748.61747
  19903415.992 7 104593155.347 7  81501210.37549  19903429.69949
  23673872.742 4 124407047.349 4  96940659.28745  23673897.37545
  23121208.063 5 121502748.355 5  94677542.58347  23121231.68847
 23  3 10  2 53 23.0000000  0  8G04G08G09G16G26G27G28G31            
  21351000.289 6 112200253.934 6  87428823.04947  21351013.26647
  21163035.695 6 111212503.288 6  86659160.59149  21163052.90649
  23637789.211 5 124217407.235 5  96792871.17548  23637806.93048
  21170947.242 6 111254068.622 6  86691523.35848  21170957.83248
  22529606.727 5 118393867.652 5  92255020.87847  22529625.23847
  19902887.422 7 104590376.229 7  81499044.82749  19902900.57449
  23673856.797 4 124406961.636 4  96940592.49545  23673880.87945
  23121114.711 5 121502257.603 5  94677160.17047  23121138.27347
 23  3 10  2 53 24.0000000  0  8G04G08G09G16G26G27G28G31            
  21350370.414 6 112196945.061 6  87426244.69847  21350383.48447
  21162114.922 6 111207666.814 6  86655391.91349  21162132.35949
  23636860.930 5 124212528.169 5  96789069.30648  23636878.45348
  21170677.438 6 111252651.355 6  86690418.98748  21170687.61748
  22529482.633 5 118393219.698 5  92254515.96847  22529501.82847
  19902358.539 7 104587598.177 7  81496880.10649  19902371.95749
  23673840.563 4 124406876.638 4  96940526.27245  23673864.94145
  23121021.523 5 121501767.544 5  94676778.29347  23121044.94547
 23  3 10  2 53 25.0000000  0  8G04G08G09G16G26G27G28G31            
  21349740.789 6 112193637.044 6  87423667.01947  21349753.83247
  21161194.844 6 111202831.027 6  86651623.76649  21161212.03149
  23635932.313 5 124207649.717 5  96785267.92147  23635950.31647
  21170407.828 6 111251234.401 6  86689314.86148  21170418.44548
  22529359.914 5 118392571.898 5  92254011.18247  22529378.37147
  19901830.156 7 104584821.018 7  81494716.08649  19901843.39549
  23673824.156 4 124406792.105 4  96940460.44145  23673849.27045
  23120928.078 5 121501277.897 5  94676396.74047  23120952.13347
 23  3 10  2 53 26.0000000  0  8G04G08G09G16G26G27G28G31            
  21349111.484 6 112190329.771 6  87421089.92547  21349124.71547
  21160274.773 6 111197995.903 6  86647856.13949  21160291.88749
  23635003.852 5 124202771.854 5  96781466.98747  23635021.99647
  21170137.969 6 111249817.738 6  86688210.96748  21170148.58648
  22529236.688 5 118391924.240 5  92253506.50847  22529255.35547
  19901301.727 7 104582044.670 7  81492552.69749  19901315.29749
  23673808.328 3 124406707.997 3  96940394.88745  23673832.67645
  23120834.883 5 121500788.688 5  94676015.53447  23120858.62547
 23  3 10  2 53 27.0000000  0  8G04G08G09G16G26G27G28G31            
  21348482.078 6 112187023.283 6  87418513.43247  21348495.27347
  21159355.148 6 111193161.428 6  86644089.01949  21159371.93449
  23634076.117 5 124197894.549 5  96777666.48948  23634094.17248
  21169868.414 6 111248401.366 6  86687107.29648  21169879.34448
  22529113.906 5 118391276.730 5  92253001.94347  22529131.74647
  19900773.461 7 104579269.128 7  81490389.93649  19900787.17649
  23673791.859 4 124406624.284 4  96940329.65545  23673816.76645
  23120742.195 5 121500299.903 5  94675634.65347  23120766.08647
 23  3 10  2 53 28.0000000  0  8G04G08G09G16G26G27G28G31            
  21347853.023 6 112183717.292 6  87415937.33747  21347866.37947
  21158435.164 6 111188327.279 6  86640322.14449  21158452.33249
  23633148.094 5 124193017.576 5  96773866.25347  23633165.68447
  21169598.617 6 111246984.986 6  86686003.62448  21169609.55548
  22528990.273 5 118390629.013 5  92252497.22047  22529008.47347
  19900245.578 7 104576494.151 7  81488227.61349  19900259.17249
  23673776.414 4 124406540.725 4  96940264.57645  23673801.12945
  23120648.969 5 121499811.226 5  94675253.85647  23120672.78947
 23  3 10  2 53 29.0000000  0  8G04G08G09G16G26G27G28G31            
  21347224.016 5 112180412.063 5  87413361.83447  21347237.59047
  21157515.289 6 111183493.811 6  86636555.80049  21157532.36349
  23632219.906 5 124188141.236 5  96770066.51147  23632237.91847
  21169329.133 6 111245568.928 6  86684900.19348  21169340.70348
  22528867.055 5 118389981.466 5  92251992.62847  22528885.33647
  19899717.578 7 104573719.980 7  81486065.92549  19899731.26649
  23673760.938 4 124406457.589 4  96940199.76745  23673784.84045
  23120556.992 5 121499323.021 5  94674873.43347  23120579.98447
 23  3 10  2 53 30.0000000  0  8G04G08G09G16G26G27G28G31            
  21346594.891 5 112177107.704 5  87410787.00647  21346608.64147
  21156595.750 6 111178661.092 6  86632790.05049  21156613.02749
  23631291.719 5 124183265.545 5  96766267.27247  23631310.41847
  21169059.922 6 111244153.232 6  86683797.05048  21169070.76648
  22528743.938 5 118389334.121 5  92251488.19247  22528762.47347
  19899189.734 7 104570946.741 7  81483904.95749  19899203.45749
  23673744.852 4 124406375.039 4  96940135.42545  23673769.49645
  23120463.680 5 121498835.261 5  94674493.34847  23120487.23847
 23  3 10  2 53 31.0000000  0  8G04G08G09G16G26G27G28G31            
  21345966.594 5 112173804.105 5  87408212.76147  21345980.10247
  21155676.227 6 111173829.007 6  86629024.79149  21155693.16849
  23630363.250 5 124178390.446 5  96762468.49247  23630382.43447
  21168790.789 6 111242737.857 6  86682694.16048  21168801.71548
  22528620.648 5 118388686.890 5  92250983.85147  22528639.27047
  19898662.203 7 104568174.321 7  81481744.63249  19898675.62549
  23673728.914 4 124406292.854 4  96940071.43545  23673753.76645
  23120371.156 5 121498347.937 5  94674113.60647  23120394.58247
 23  3 10  2 53 32.0000000  0  8G04G08G09G16G26G27G28G31            
  21345338.117 6 112170501.357 6  87405639.18747  21345351.23047
  21154756.875 6 111168997.653 6  86625260.10149  21154773.30149
  23629436.484 5 124173516.018 5  96758670.23247  23629455.04747
  21168521.570 6 111241322.826 6  86681591.53147  21168532.14847
  22528497.695 5 118388039.854 5  92250479.65647  22528515.85247
  19898134.711 7 104565402.794 7  81479584.99949  19898148.47349
  23673713.180 3 124406211.200 3  96940007.82045  23673738.67245
  23120278.219 5 121497861.128 5  94673734.26647  23120302.03147
 23  3 10  2 53 33.0000000  0  8G04G08G09G16G26G27G28G31            
  21344710.156 5 112167199.152 5  87403066.04447  21344722.87547
  21153837.016 6 111164166.730 6  86621495.74549  21153854.59049
  23628508.867 5 124168641.924 5  96754872.23447  23628527.52747
  21168252.016 6 111239907.840 6  86680488.94047  21168262.82447
  22528374.563 5 118387392.740 5  92249975.40947  22528392.74247
  19897607.813 7 104562631.879 7  81477425.84449  19897621.24649
  23673697.586 3 124406129.753 3  96939944.38145  23673722.64145
  23120185.211 5 121497374.501 5  94673355.05747  23120209.22747
 23  3 10  2 53 34.0000000  0  8G04G08G09G16G26G27G28G31            
  21344081.422 6 112163897.373 6  87400493.22247  21344094.89547
  21152918.078 6 111159336.085 6  86617731.61249  21152935.19149
  23627581.664 5 124163768.073 5  96751074.42347  23627599.91047
  21167983.102 6 111238492.780 6  86679386.29148  21167993.93448
  22528251.773 5 118386745.396 5  92249470.98147  22528270.00447
  19897080.547 7 104559861.388 7  81475267.02249  19897094.19149
  23673682.258 3 124406048.313 3  96939880.88545  23673707.32045
  23120093.641 5 121496887.890 5  94672975.87647  23120116.90647
 23  3 10  2 53 35.0000000  0  8G04G08G09G16G26G27G28G31            
  21343453.547 6 112160596.508 6  87397921.11447  21343466.45347
  21151998.766 6 111154506.244 6  86613968.09949  21152016.07049
  23626654.227 5 124158894.963 5  96747277.18847  23626672.34447
  21167713.664 6 111237078.173 6  86678283.99148  21167724.41448
  22528128.023 5 118386098.300 5  92248966.74247  22528146.72747
  19896553.422 7 104557091.917 7  81473108.99149  19896567.01249
  23673667.094 3 124405967.498 3  96939817.91545  23673692.12545
  23120000.453 6 121496401.888 6  94672597.16347  23120024.57447
 23  3 10  2 53 36.0000000  0  8G04G08G09G16G26G27G28G31            
  21342825.352 6 112157296.271 6  87395349.50647  21342838.80547
  21151080.094 6 111149676.938 6  86610205.00249  21151097.18049
  23625726.938 5 124154022.297 5  96743480.30447  23625745.60947
  21167444.227 6 111235663.737 6  86677181.83248  21167455.01248
  22528004.945 5 118385451.232 5  92248462.52547  22528023.38747
  19896026.609 7 104554323.104 7  81470951.47549  19896040.33649
  23673652.070 3 124405886.952 3  96939755.16945  23673676.67645
  23119908.094 5 121495916.154 5  94672218.65847  23119932.26247
 23  3 10  2 53 37.0000000  0  8G04G08G09G16G26G27G28G31            
  21342197.922 6 112153997.127 6  87392778.74047  21342210.95347
  21150161.031 6 111144848.594 6  86606442.66449  21150178.50449
  23624799.625 5 124149150.565 5  96739684.15348  23624818.25848
  21167175.648 6 111234249.876 6  86676080.12048  21167186.40248
  22527881.594 5 118384804.560 5  92247958.60647  22527900.22347
  19895499.898 7 104551555.431 7  81468794.84749  19895513.37149
  23673636.672 3 124405807.188 3  96939693.02545  23673661.66045
  23119816.242 5 121495431.154 5  94671840.73347  23119839.88747
 23  3 10  2 53 38.0000000  0  8G04G08G09G16G26G27G28G31            
  21341570.367 6 112150698.766 6  87390208.58547  21341583.15647
  21149242.484 6 111140020.928 6  86602680.84249  21149259.80549
  23623873.211 4 124144279.389 4  96735888.43547  23623891.37147
  21166906.469 6 111232836.319 6  86674978.64048  21166917.26248
  22527758.945 5 118384158.044 5  92247454.81647  22527777.32047
  19894973.375 7 104548788.612 7  81466638.88049  19894987.44949
  23673621.375 3 124405727.812 3  96939631.18145  23673646.80545
  23119723.570 5 121494946.563 5  94671463.12647  23119747.44947
 23  3 10  2 53 39.0000000  0  8G04G08G09G16G26G27G28G31            
  21340942.500 6 112147401.255 6  87387639.09347  21340955.75047
  21148323.875 6 111135193.999 6  86598919.60149  21148340.82449
  23622946.500 4 124139408.909 4  96732093.26148  23622964.45748
  21166637.633 6 111231423.143 6  86673877.46448  21166648.48048
  22527636.273 5 118383511.755 5  92246951.20547  22527654.60547
  19894446.914 7 104546022.689 7  81464483.61349  19894460.57449
  23673606.594 3 124405648.956 3  96939569.73445  23673631.35245
  23119631.469 6 121494462.469 6  94671085.89647  23119655.27747
 23  3 10  2 53 40.0000000  0  8G04G08G09G16G26G27G28G31            
  21340315.375 6 112144104.593 6  87385070.26447  21340328.27347
  21147405.242 6 111130367.749 6  86595158.88849  21147422.84849
  23622019.867 5 124134539.096 5  96728298.61148  23622037.74248
  21166368.477 6 111230010.324 6  86672776.56448  21166379.40648
  22527512.891 5 118382865.618 5  92246447.71647  22527531.65247
  19893920.750 7 104543257.652 7  81462329.03949  19893934.37949
  23673591.094 3 124405570.638 3  96939508.72445  23673616.85945
  23119539.531 5 121493978.877 5  94670709.05947  23119563.26247
 23  3 10  2 53 41.0000000  0  8G04G08G09G16G26G27G28G31            
  21339688.117 6 112140808.670 6  87382502.01047  21339701.02747
  21146487.273 6 111125542.109 6  86591398.64549  21146503.99249
  23621093.297 5 124129669.860 5  96724504.40148  23621110.97348
  21166100.422 6 111228597.789 6  86671675.88148  21166111.35548
  22527389.820 5 118382219.629 5  92245944.34147  22527408.69947
  19893395.070 7 104540493.413 7  81460175.08449  19893408.47749
  23673576.750 3 124405492.710 3  96939448.01945  23673602.03545
  23119446.992 5 121493495.669 5  94670332.52147  23119471.41847
 23  3 10  2 53 42.0000000  0  8G04G08G09G16G26G27G28G31            
  21339061.508 6 112137513.550 6  87379934.38847  21339073.69947
  21145568.820 6 111120717.162 6  86587638.95149  21145586.05549
  23620166.469 5 124124801.221 5  96720710.65047  23620184.61747
  21165831.148 6 111227185.551 6  86670575.42948  21165842.08248
  22527267.148 5 118381573.774 5  92245441.06847  22527285.48847
  19892869.109 7 104537730.031 7  81458021.79349  19892882.33249
  23673562.664 3 124405415.211 3  96939387.64245  23673587.39545
  23119355.992 5 121493012.885 5  94669956.31747  23119379.93447
 23  3 10  2 53 43.0000000  0  8G04G08G09G16G26G27G28G31            
  21338435.031 6 112134219.353 6  87377367.47947  21338447.10247
  21144650.859 6 111115892.990 6  86583879.85649  21144668.26649
  23619239.945 5 124119933.305 5  96716917.46647  23619258.70747
  21165562.727 6 111225773.745 6  86669475.32548  21165573.39548
  22527144.695 5 118380928.175 5  92244937.99047  22527163.35547
  19892343.539 7 104534967.602 7  81455869.25349  19892356.69549
  23673547.328 3 124405338.274 3  96939327.70045  23673572.61345
  23119263.930 5 121492530.631 5  94669580.52847  23119287.82047
 23  3 10  2 53 44.0000000  0  8G04G08G09G16G26G27G28G31            
  21337807.555 6 112130925.998 6  87374801.22247  21337820.69947
  21143733.117 6 111111069.563 6  86580121.34148  21143750.16448
  23618313.852 5 124115066.081 5  96713124.82847  23618332.16047
  21165293.625 6 111224362.290 6  86668375.48347  21165304.94947
  22527021.539 5 118380282.801 5  92244435.09047  22527040.38347
  19891817.891 7 104532206.090 7  81453717.42249  19891831.37149
  23673533.133 3 124405261.886 3  96939268.18345  23673558.48445
  23119172.375 5 121492048.932 5  94669205.17247  23119196.78947
 23  3 10  2 53 45.0000000  0  8G04G08G09G16G26G27G28G31            
  21337181.281 6 112127633.390 6  87372235.54447  21337193.71547
  21142815.383 5 111106246.756 5  86576363.31849  21142832.39549
  23617387.953 4 124110199.431 4  96709332.63447  23617406.28547
  21165025.500 6 111222951.111 6  86667275.86548  21165036.05948
  22526898.938 5 118379637.517 5  92243932.26247  22526917.54347
  19891292.281 7 104529445.381 7  81451566.22349  19891305.85549
  23673518.539 4 124405185.914 4  96939208.99045  23673544.08645
  23119080.547 6 121491567.596 6  94668830.10447  23119105.14547
 23  3 10  2 53 46.0000000  0  8G04G08G09G16G26G27G28G31            
  21336554.820 6 112124341.327 6  87369670.30047  21336567.38747
  21141897.898 6 111101424.388 6  86572605.63149  21141914.96549
  23616462.039 4 124105333.116 4  96705540.69647  23616479.95347
  21164756.906 6 111221540.029 6  86666176.31548  21164767.89848
  22526775.375 5 118378992.128 5  92243429.35147  22526794.39147
  19890767.078 7 104526685.268 7  81449415.47849  19890781.14849
  23673504.164 3 124405110.069 3  96939149.89545  23673529.44945
  23118989.078 6 121491086.453 6  94668455.17547  23119013.60247
 23  3 10  2 53 47.0000000  0  8G04G08G09G16G26G27G28G31            
  21335928.641 6 112121049.790 6  87367105.46447  21335941.11747
  21140980.031 6 111096602.398 6  86568848.23449  21140997.25849
  23615535.797 5 124100467.154 5  96701749.03548  23615553.85948
  21164488.156 6 111220128.917 6  86665076.74248  21164499.39148
  22526653.258 5 118378346.618 5  92242926.35347  22526671.88747
  19890241.906 7 104523925.708 7  81447265.17449  19890255.62549
  23673490.453 4 124405034.478 4  96939091.01945  23673515.41845
  23118897.570 5 121490605.481 5  94668080.38447  23118922.00047
 23  3 10  2 53 48.0000000  0  8G04G08G09G16G26G27G28G31            
  21335302.391 6 112117759.001 6  87364541.21047  21335315.11347
  21140062.250 6 111091781.081 6  86565091.36649  21140079.64549
  23614610.414 5 124095601.757 5  96697957.81748  23614628.34848
  21164220.039 6 111218718.124 6  86663977.42248  21164230.41048
  22526530.539 5 118377701.234 5  92242423.43947  22526549.48447
  19889716.938 7 104521166.953 7  81445115.48849  19889730.32849
  23673476.398 4 124404959.240 4  96939032.38145  23673500.82845
  23118806.273 5 121490124.884 5  94667705.87547  23118830.44147
 23  3 10  2 53 49.0000000  0  8G04G08G09G16G26G27G28G31            
  21334676.375 6 112114468.761 6  87361977.38247  21334688.64547
  21139145.164 6 111086960.129 6  86561334.78249  21139162.68849
  23613684.242 5 124090736.745 5  96694166.89648  23613702.98448
  21163951.539 6 111217307.349 6  86662878.10948  21163962.07048
  22526407.914 5 118377055.705 5  92241920.42047  22526426.44947
  19889192.141 7 104518408.792 7  81442966.27149  19889205.53149
  23673461.453 4 124404884.188 4  96938973.89645  23673486.97745
  23118714.836 6 121489644.498 6  94667331.54247  23118739.35947
 23  3 10  2 53 50.0000000  0  8G04G08G09G16G26G27G28G31            
  21334050.164 6 112111179.222 6  87359414.10447  21334062.78947
  21138227.883 6 111082139.786 6  86557578.68149  21138245.35949
  23612758.734 5 124085872.229 5  96690376.36448  23612776.85548
  21163683.336 6 111215896.832 6  86661778.99848  21163693.73048
  22526284.422 5 118376410.284 5  92241417.48147  22526303.71147
  19888667.797 7 104515651.398 7  81440817.65649  19888680.96949
  23673446.711 4 124404809.547 4  96938915.73145  23673472.44545
  23118623.719 6 121489164.469 6  94666957.48547  23118647.98847
 23  3 10  2 53 51.0000000  0  8G04G08G09G16G26G27G28G31            
  21333423.891 6 112107890.636 6  87356851.56347  21333436.97347
  21137311.344 6 111077320.277 6  86553823.22149  21137328.32049
  23611833.625 5 124081008.500 5  96686586.44648  23611851.19548
  21163415.063 6 111214486.771 6  86660680.25248  21163425.54748
  22526161.883 5 118375765.117 5  92240914.74247  22526180.93447
  19888142.914 7 104512895.006 7  81438669.81949  19888156.35949
  23673432.719 3 124404735.497 3  96938857.99645  23673458.16045
  23118532.375 6 121488684.997 6  94666583.86447  23118556.57047
 23  3 10  2 53 52.0000000  0  8G04G08G09G16G26G27G28G31            
  21332799.094 6 112104602.707 6  87354289.53747  21332811.39547
  21136393.656 6 111072501.270 6  86550068.15549  21136411.25849
  23610907.938 5 124076145.222 5  96682796.87448  23610925.94948
  21163146.547 6 111213076.901 6  86659581.64648  21163157.14848
  22526039.414 5 118375119.994 5  92240412.04547  22526057.59847
  19887618.469 7 104510139.327 7  81436522.53349  19887631.71549
  23673419.563 4 124404661.754 4  96938800.54345  23673444.11745
  23118441.273 5 121488205.863 5  94666210.50747  23118465.59447
 23  3 10  2 53 53.0000000  0  8G04G08G09G16G26G27G28G31            
  21332173.453 6 112101315.492 6  87351728.06847  21332186.03147
  21135476.883 6 111067682.863 6  86546313.56049  21135494.05149
  23609982.703 5 124071282.517 5  96679007.76148  23610000.49648
  21162878.203 6 111211667.250 6  86658483.21348  21162889.12148
  22525916.266 5 118374474.903 5  92239909.37347  22525935.61747
  19887094.219 7 104507384.408 7  81434375.84149  19887107.68849
  23673405.352 4 124404588.367 4  96938743.36945  23673430.09045
  23118350.148 6 121487727.072 6  94665837.41747  23118374.44547
 23  3 10  2 53 54.0000000  0  8G04G08G09G16G26G27G28G31            
  21331548.242 6 112098029.097 6  87349167.24147  21331561.00447
  21134560.523 6 111062865.175 6  86542559.51649  21134577.43849
  23609057.055 5 124066420.448 5  96675219.14048  23609075.50848
  21162610.141 6 111210257.963 6  86657385.06348  21162621.03948
  22525793.500 5 118373829.999 5  92239406.83547  22525812.89547
  19886570.023 7 104504630.391 7  81432229.85149  19886583.45749
  23673391.977 4 124404515.510 4  96938686.61745  23673416.69545
  23118259.117 6 121487248.779 6  94665464.71447  23118283.13747
 23  3 10  2 53 55.0000000  0  8G04G08G09G16G26G27G28G31            
  21330922.953 6 112094743.604 6  87346607.12247  21330935.59847
  21133643.242 6 111058048.230 6  86538806.05349  21133660.88349
  23608132.750 5 124061559.063 5  96671431.04748  23608150.44948
  21162342.188 6 111208849.063 6  86656287.21848  21162353.14148
  22525670.977 5 118373185.400 5  92238904.54347  22525690.23047
  19886046.477 7 104501877.274 7  81430084.56749  19886059.56649
  23673378.367 4 124404443.159 4  96938630.27145  23673402.99645
  23118168.102 6 121486770.969 6  94665092.38547  23118192.21947
 23  3 10  2 53 56.0000000  0  8G04G08G09G16G26G27G28G31            
  21330297.852 6 112091458.758 6  87344047.49447  21330310.63747
  21132726.977 6 111053231.845 6  86535053.02948  21132744.22748
  23607206.680 5 124056698.156 5  96667643.34647  23607225.70747
  21162073.945 6 111207440.320 6  86655189.49248  21162084.50848
  22525548.313 5 118372540.772 5  92238402.22947  22525567.58247
  19885522.539 7 104499124.897 7  81427939.85349  19885535.72349
  23673364.852 4 124404371.106 4  96938574.15145  23673389.27045
  23118077.805 6 121486293.488 6  94664720.32347  23118101.45747
 23  3 10  2 53 57.0000000  0  8G04G08G09G16G26G27G28G31            
  21329672.891 6 112088174.858 6  87341488.61147  21329685.57047
  21131810.727 6 111048416.277 6  86531300.64649  21131827.84849
  23606281.836 5 124051838.003 5  96663856.21447  23606300.79747
  21161805.945 6 111206032.045 6  86654092.13148  21161816.67248
  22525426.055 5 118371896.420 5  92237900.12247  22525444.95747
  19884999.414 7 104496373.473 7  81425795.88849  19885012.73449
  23673351.008 4 124404299.702 4  96938518.51745  23673375.98845
  23117986.383 6 121485816.584 6  94664348.69547  23118010.10247
 23  3 10  2 53 58.0000000  0  8G04G08G09G16G26G27G28G31            
  21329048.125 6 112084891.691 6  87338930.28947  21329060.82047
  21130894.422 6 111043601.353 6  86527548.75549  21130911.53149
  23605357.031 5 124046978.432 5  96660069.53348  23605375.85548
  21161538.148 6 111204624.026 6  86652994.97248  21161548.65648
  22525303.680 5 118371252.196 5  92237398.12347  22525321.94547
  19884475.703 7 104493622.875 7  81423652.56449  19884488.88349
  23673337.188 4 124404228.671 4  96938463.16445  23673362.59845
  23117895.961 6 121485340.068 6  94663977.37547  23117920.23047
 23  3 10  2 53 59.0000000  0  8G04G08G09G16G26G27G28G31            
  21328423.938 6 112081609.104 6  87336372.42847  21328436.37547
  21129978.695 6 111038786.851 6  86523797.19149  21129995.64849
  23604432.305 5 124042119.243 5  96656283.15048  23604451.06348
  21161270.320 6 111203216.103 6  86651897.88748  21161280.55548
  22525181.281 5 118370607.836 5  92236896.01047  22525199.69547
  19883952.406 7 104490872.872 7  81421509.70349  19883965.36749
  23673324.477 4 124404157.803 4  96938407.93945  23673349.00445
  23117805.461 6 121484863.723 6  94663606.19047  23117829.48047
 23  3 10  2 54  0.0000000  0  8G04G08G09G16G26G27G28G31            
  21327798.922 6 112078327.208 6  87333815.10347  21327811.36347
  21129062.391 6 111033972.947 6  86520046.10549  21129079.55149
  23603507.367 5 124037260.568 5  96652497.17448  23603526.50048
  21161002.141 6 111201808.358 6  86650800.93848  21161012.81648
  22525058.602 5 118369963.585 5  92236393.98547  22525076.69547
  19883429.164 7 104488123.631 7  81419367.43849  19883442.78949
  23673310.492 4 124404087.329 4  96938353.00845  23673335.17645
  23117715.102 6 121484387.737 6  94663235.28147  23117738.65247
 23  3 10  2 54  1.0000000  0  8G04G08G09G16G26G27G28G31            
  21327175.172 6 112075046.104 6  87331258.39747  21327187.46147
  21128146.086 6 111029159.713 6  86516295.53249  21128163.87949
  23602583.328 5 124032402.517 5  96648711.67848  23602602.12948
  21160734.211 6 111200400.940 6  86649704.23848  21160745.12548
  22524935.500 5 118369319.428 5  92235892.03647  22524954.17647
  19882906.383 7 104485375.231 7  81417225.82849  19882919.67649
  23673297.133 3 124404017.348 3  96938298.51045  23673322.20345
  23117624.719 6 121483912.202 6  94662864.71747  23117648.22347
 23  3 10  2 54  2.0000000  0  8G04G08G09G16G26G27G28G31            
  21326550.758 6 112071765.565 6  87328702.13747  21326562.98047
  21127230.852 6 111024346.919 6  86512545.30549  21127248.09449
  23601658.953 5 124027544.811 5  96644926.45448  23601677.83648
  21160466.953 6 111198993.606 6  86648607.60948  21160477.82448
  22524813.117 5 118368675.236 5  92235390.06247  22524831.76247
  19882383.508 7 104482627.434 7  81415084.68649  19882396.89849
  23673283.430 3 124403947.512 3  96938244.08145  23673308.82445
  23117533.711 5 121483436.851 5  94662494.30747  23117557.82847
 23  3 10  2 54  3.0000000  0  8G04G08G09G16G26G27G28G31            
  21325926.188 6 112068485.497 6  87326146.23547  21325939.10947
  21126315.250 6 111019534.496 6  86508795.36449  21126332.14149
  23600734.516 5 124022687.474 5  96641141.50948  23600753.42648
  21160198.625 6 111197586.264 6  86647510.97948  21160209.81348
  22524690.000 5 118368030.854 5  92234887.94047  22524709.19947
  19881860.797 7 104479880.204 7  81412943.98649  19881874.10249
  23673269.352 3 124403877.877 3  96938189.84845  23673295.66045
  23117443.133 6 121482961.642 6  94662124.01347  23117467.89547
 23  3 10  2 54  4.0000000  0  8G04G08G09G16G26G27G28G31            
  21325302.438 6 112065206.329 6  87323591.03347  21325314.93447
  21125399.766 6 111014722.819 6  86505046.00749  21125416.07049
  23599810.844 5 124017830.756 5  96637357.05248  23599828.93448
  21159931.141 6 111196179.315 6  86646414.65248  21159941.68048
  22524567.539 5 118367386.690 5  92234385.99347  22524586.66047
  19881337.766 7 104477133.868 7  81410803.97949  19881351.13749
  23673256.734 4 124403808.734 4  96938135.94845  23673282.51245
  23117353.266 6 121482486.941 6  94661754.10947  23117377.04347
 23  3 10  2 54  5.0000000  0  8G04G08G09G16G26G27G28G31            
  21324678.305 6 112061927.608 6  87321036.18247  21324691.11747
  21124483.281 6 111009911.440 6  86501296.88149  21124500.61749
  23598886.867 5 124012974.361 5  96633572.84148  23598905.12548
  21159663.211 6 111194772.341 6  86645318.30748  21159674.09448
  22524445.680 5 118366742.354 5  92233883.90447  22524463.93447
  19880815.227 7 104474388.046 7  81408664.38049  19880828.50849
  23673243.398 4 124403739.691 4  96938082.16145  23673269.46545
  23117262.938 5 121482012.333 5  94661384.27447  23117286.63347
 23  3 10  2 54  6.0000000  0  8G04G08G09G16G26G27G28G31            
  21324053.828 6 112058649.410 6  87318481.73447  21324067.19947
  21123568.336 6 111005100.486 6  86497548.08949  21123585.16849
  23597963.203 5 124008118.302 5  96629788.89848  23597980.71148
  21159395.141 6 111193365.407 6  86644221.98948  21159406.02748
  22524322.602 5 118366097.891 5  92233381.71747  22524341.71147
  19880293.016 7 104471642.819 7  81406525.23649  19880306.43049
  23673230.297 4 124403670.846 4  96938028.54545  23673256.22745
  23117172.398 5 121481537.909 5  94661014.58447  23117196.07847
 23  3 10  2 54  7.0000000  0  8G04G08G09G16G26G27G28G31            
  21323430.688 6 112055371.901 6  87315927.82747  21323443.20747
  21122652.820 6 111000290.076 6  86493799.71549  21122669.78149
  23597039.539 5 124003262.723 5  96626005.34048  23597056.84848
  21159127.266 6 111191958.639 6  86643125.79948  21159139.21148
  22524200.383 5 118365453.475 5  92232879.56347  22524218.43047
  19879770.977 7 104468898.288 7  81404386.64549  19879783.72749
  23673217.297 4 124403602.336 4  96937975.17245  23673243.27045
  23117082.195 5 121481063.802 5  94660645.13947  23117106.10547
 23  3 10  2 54  8.0000000  0  8G04G08G09G16G26G27G28G31            
  21322807.180 6 112052095.230 6  87313374.57147  21322819.98447
  21121737.555 6 110995480.411 6  86490051.92949  21121754.55149
  23596115.367 5 123998407.849 5  96622222.32547  23596133.14547
  21158860.188 6 111190552.287 6  86642029.94248  21158871.23848
  22524076.758 5 118364809.251 5  92232377.56447  22524095.80947
  19879248.703 7 104466154.692 7  81402248.77449  19879262.01649
  23673204.242 4 124403534.378 4  96937922.20845  23673230.30945
  23116992.250 5 121480590.182 5  94660276.07747  23117016.18847
 23  3 10  2 54  9.0000000  0  8G04G08G09G16G26G27G28G31            
  21322183.727 6 112048819.341 6  87310821.93147  21322196.16047
  21120822.320 6 110990671.409 6  86486304.65049  21120839.19949
  23595191.031 5 123993553.556 5  96618439.76848  23595209.37148
  21158592.578 6 111189146.213 6  86640934.29047  21158604.03147
  22523954.625 5 118364165.146 5  92231875.65447  22523973.29347
  19878726.766 7 104463411.904 7  81400111.53949  19878739.49649
  23673191.367 4 124403466.780 4  96937869.54245  23673217.31345
  23116901.992 5 121480117.001 5  94659907.35447  23116926.12147
 23  3 10  2 54 10.0000000  0  8G04G08G09G16G26G27G28G31            
  21321560.211 6 112045544.063 6  87308269.76247  21321572.92247
  21119907.500 6 110985862.860 6  86482557.72949  21119924.27049
  23594268.188 5 123988699.680 5  96614657.52748  23594286.02348
  21158324.711 6 111187740.239 6  86639838.72448  21158335.82448
  22523831.461 5 118363521.011 5  92231373.72047  22523850.61747
  19878204.875 7 104460669.785 7  81397974.81749  19878217.75449
  23673178.602 3 124403399.485 3  96937817.10045  23673204.50445
  23116811.648 6 121479644.034 6  94659538.80347  23116835.90247
 23  3 10  2 54 11.0000000  0  8G04G08G09G16G26G27G28G31            
  21320936.914 6 112042269.344 6  87305718.02647  21320950.16447
  21118992.328 6 110981054.774 6  86478811.17949  21119009.73849
  23593344.008 5 123983846.202 5  96610875.60148  23593361.66448
  21158057.336 6 111186334.352 6  86638743.21948  21158068.46148
  22523709.344 5 118362876.807 5  92230871.73547  22523728.31347
  19877683.703 7 104457928.262 7  81395838.56349  19877696.46949
  23673165.305 4 124403332.413 4  96937764.82045  23673191.30145
  23116722.578 6 121479171.321 6  94659170.45147  23116746.18447
 23  3 10  2 54 12.0000000  0  8G04G08G09G16G26G27G28G31            
  21320314.172 6 112038995.651 6  87303167.10047  21320327.03147
  21118077.680 6 110976247.582 6  86475065.31449  21118094.77749
  23592420.625 5 123978993.566 5  96607094.33348  23592438.60248
  21157790.117 6 111184929.020 6  86637648.15248  21157801.03948
  22523586.695 5 118362232.953 5  92230370.02447  22523605.43847
  19877161.758 7 104455187.835 7  81393703.16849  19877174.99249
  23673152.422 3 124403265.997 3  96937713.06745  23673178.99245
  23116632.336 5 121478699.262 5  94658802.60347  23116655.97747
 23  3 10  2 54 13.0000000  0  8G04G08G09G16G26G27G28G31            
  21319691.398 6 112035722.646 6  87300616.69747  21319704.27047
  21117162.641 6 110971440.965 6  86471319.89849  21117180.07449
  23591497.133 5 123974141.412 5  96603313.43848  23591515.38748
  21157522.797 6 111183523.883 6  86636553.23648  21157534.07448
  22523464.328 5 118361589.151 5  92229868.34847  22523483.08647
  19876640.484 7 104452448.138 7  81391568.33149  19876653.69149
  23673140.688 3 124403199.920 3  96937661.60245  23673166.90645
  23116542.445 6 121478227.504 6  94658434.99247  23116566.33247
 23  3 10  2 54 14.0000000  0  8G04G08G09G16G26G27G28G31            
  21319068.594 6 112032450.407 6  87298066.89747  21319081.56647
  21116248.570 6 110966635.017 6  86467575.00349  21116265.48849
  23590573.555 5 123969289.890 5  96599533.03348  23590592.53948
  21157255.445 6 111182119.043 6  86635458.55748  21157266.71948
  22523341.695 5 118360945.517 5  92229366.80347  22523360.38747
  19876119.258 7 104449709.268 7  81389434.15049  19876132.41449
  23673127.750 3 124403134.282 3  96937610.48145  23673154.64545
  23116453.055 6 121477756.177 6  94658067.72047  23116476.75047
 23  3 10  2 54 15.0000000  0  8G04G08G09G16G26G27G28G31            
  21318446.234 6 112029179.017 6  87295517.76047  21318458.93447
  21115333.961 6 110961829.771 6  86463830.65349  21115351.29349
  23589650.250 5 123964438.990 5  96595753.11048  23589668.77348
  21156988.516 6 111180714.539 6  86634364.13248  21156999.08648
  22523219.273 5 118360302.033 5  92228865.38147  22523237.99247
  19875598.234 7 104446971.253 7  81387300.63149  19875611.36749
  23673115.609 3 124403069.125 3  96937559.72345  23673141.64145
  23116363.914 6 121477285.339 6  94657700.81747  23116387.27347
 23  3 10  2 54 16.0000000  0  8G04G08G09G16G26G27G28G31            
  21317823.555 6 112025908.247 6  87292969.10147  21317836.50447
  21114419.313 6 110957025.037 6  86460086.70549  21114436.95749
  23588727.344 5 123959588.571 5  96591973.56048  23588746.27048
  21156720.750 6 111179310.163 6  86633269.80548  21156732.14548
  22523097.094 5 118359658.495 5  92228363.91247  22523115.91047
  19875077.211 7 104444233.940 7  81385167.65749  19875090.03949
  23673103.172 3 124403004.259 3  96937509.17745  23673129.60245
  23116274.078 6 121476814.744 6  94657334.11547  23116297.72747
 23  3 10  2 54 17.0000000  0  8G04G08G09G16G26G27G28G31            
  21317201.156 6 112022638.361 6  87290421.14047  21317214.61347
  21113505.234 6 110952221.101 6  86456343.38149  21113522.70749
  23587804.445 5 123954738.823 5  96588194.52748  23587823.34848
  21156453.586 6 111177906.188 6  86632175.78948  21156465.09048
  22522974.172 5 118359015.237 5  92227862.66347  22522993.50847
  19874556.516 7 104441497.552 7  81383035.40649  19874570.00049
  23673090.867 3 124402939.921 3  96937459.00745  23673117.35545
  23116184.852 6 121476344.687 6  94656967.82947  23116208.49247
 23  3 10  2 54 18.0000000  0  8G04G08G09G16G26G27G28G31            
  21316579.602 6 112019369.238 6  87287873.76947  21316592.55147
  21112591.359 6 110947417.813 6  86452600.56549  21112608.87949
  23586881.820 5 123949889.700 5  96584415.98648  23586900.57448
  21156186.469 6 111176502.525 6  86631082.02548  21156197.73448
  22522852.367 5 118358372.102 5  92227361.50647  22522871.01247
  19874036.023 7 104438761.996 7  81380903.81049  19874049.38749
  23673079.133 3 124402875.989 3  96937409.18345  23673105.01245
  23116095.172 6 121475875.035 6  94656601.86347  23116118.88747
 23  3 10  2 54 19.0000000  0  8G04G08G09G16G26G27G28G31            
  21315957.117 6 112016100.658 6  87285326.82347  21315970.65247
  21111677.477 6 110942614.921 6  86448858.04849  21111694.42649
  23585958.961 5 123945040.920 5  96580637.71748  23585977.78548
  21155919.602 6 111175098.880 6  86629988.27248  21155930.77748
  22522729.680 5 118357728.831 5  92226860.25247  22522749.22747
  19873515.711 7 104436027.021 7  81378772.66049  19873528.77049
  23673066.617 3 124402812.237 3  96937359.51345  23673092.83645
  23116005.844 6 121475405.572 6  94656236.03847  23116029.44947
 23  3 10  2 54 20.0000000  0  8G04G08G09G16G26G27G28G31            
  21315335.234 6 112012832.642 6  87282780.31447  21315348.91047
  21110763.383 6 110937812.467 6  86445115.87949  21110780.86349
  23585036.203 5 123940192.502 5  96576859.72548  23585055.19148
  21155652.172 6 111173695.337 6  86628894.60047  21155663.78147
  22522606.945 5 118357085.492 5  92226358.93147  22522626.37547
  19872995.523 7 104433292.652 7  81376641.98049  19873008.35949
  23673054.813 3 124402748.771 3  96937310.11345  23673080.94145
  23115915.945 6 121474936.314 6  94655870.37447  23115939.91047
 23  3 10  2 54 21.0000000  0  8G04G08G09G16G26G27G28G31            
  21314713.578 6 112009565.151 6  87280234.21347  21314726.73047
  21109849.469 6 110933010.388 6  86441374.00249  21109867.19549
  23584113.711 5 123935344.444 5  96573082.01848  23584132.74248
  21155385.375 6 111172291.832 6  86627800.95748  21155396.64548
  22522484.320 5 118356442.003 5  92225857.50047  22522503.50447
  19872475.047 7 104430558.885 7  81374511.77049  19872488.22749
  23673042.703 3 124402685.450 3  96937260.79345  23673068.79345
  23115827.094 6 121474467.193 6  94655504.81547  23115850.97347
 23  3 10  2 54 22.0000000  0  8G04G08G09G16G26G27G28G31            
  21314091.797 6 112006298.500 6  87277688.77047  21314104.98447
  21108936.445 6 110928209.059 6  86437632.70549  21108953.19549
  23583191.922 5 123930497.084 5  96569304.85548  23583210.35548
  21155118.211 6 111170888.699 6  86626707.60448  21155129.80148
  22522362.227 5 118355798.769 5  92225356.27347  22522381.37947
  19871955.430 7 104427825.998 7  81372382.24649  19871968.46149
  23673031.422 3 124402622.622 3  96937211.83445  23673056.48045
  23115737.836 6 121473998.635 6  94655139.69347  23115761.27347
 23  3 10  2 54 23.0000000  0  8G04G08G09G16G26G27G28G31            
  21313470.289 6 112003032.742 6  87275144.01447  21313483.51247
  21108022.602 6 110923408.453 6  86433891.97549  21108039.54349
  23582269.344 5 123925650.364 5  96565528.19548  23582287.99648
  21154851.727 6 111169485.938 6  86625614.54348  21154862.65648
  22522240.414 5 118355155.722 5  92224855.19047  22522258.74247
  19871435.156 7 104425094.021 7  81370253.43049  19871448.23049
  23673019.086 3 124402560.325 3  96937163.29545  23673044.75445
  23115649.406 6 121473530.524 6  94654774.92747  23115672.17247
 23  3 10  2 54 24.0000000  0  8G04G08G09G16G26G27G28G31            
  21312849.141 6 111999767.791 6  87272599.89847  21312861.85247
  21107109.039 6 110918608.541 6  86430151.78149  21107126.00049
  23581347.867 5 123920804.297 5  96561752.04248  23581366.26248
  21154584.797 6 111168083.514 6  86624521.73548  21154596.23448
  22522117.672 5 118354512.834 5  92224354.23147  22522136.80947
  19870915.813 7 104422362.935 7  81368125.31349  19870928.55949
  23673006.945 3 124402498.499 3  96937115.13345  23673033.46545
  23115559.789 6 121473062.908 6  94654410.54647  23115583.23047
 23  3 10  2 54 25.0000000  0  8G04G08G09G16G26G27G28G31            
  21312227.313 6 111996503.479 6  87270056.27547  21312241.00447
  21106196.023 6 110913809.150 6  86426411.99849  21106212.81649
  23580425.828 5 123915958.735 5  96557976.28048  23580443.96148
  21154317.719 6 111166681.245 6  86623429.05448  21154329.23848
  22521994.797 5 118353869.937 5  92223853.26947  22522014.02347
  19870396.008 7 104419632.529 7  81365997.72649  19870408.88749
  23672995.477 3 124402437.011 3  96937067.19145  23673021.71545
  23115471.664 6 121472595.568 6  94654046.38247  23115494.39847
 23  3 10  2 54 26.0000000  0  8G04G08G09G16G26G27G28G31            
  21311606.797 6 111993239.794 6  87267513.13747  21311620.08247
  21105282.711 6 110909010.288 6  86422672.63249  21105299.77349
  23579502.875 5 123911113.599 5  96554200.84648  23579522.11748
  21154051.063 6 111165279.126 6  86622336.48448  21154062.29348
  22521872.820 5 118353227.071 5  92223352.32747  22521891.96547
  19869876.445 7 104416902.801 7  81363870.65949  19869889.79749
  23672983.680 2 124402375.777 2  96937019.43545  23673009.61745
  23115382.438 6 121472128.493 6  94653682.41547  23115406.13747
 23  3 10  2 54 27.0000000  0  8G04G08G09G16G26G27G28G31            
  21310985.945 6 111989976.861 6  87264970.58647  21310999.15647
  21104369.461 6 110904212.037 6  86418933.73349  21104386.78549
  23578581.352 5 123906269.006 5  96550425.83748  23578599.85548
  21153783.883 6 111163877.275 6  86621244.13148  21153795.88748
  22521751.102 5 118352584.259 5  92222851.42547  22521769.48847
  19869357.461 7 104414173.875 7  81361744.22549  19869370.10249
  23672972.367 3 124402314.896 3  96936972.02545  23672998.03545
  23115293.219 6 121471661.811 6  94653318.75647  23115316.65647
 23  3 10  2 54 28.0000000  0  8G04G08G09G16G26G27G28G31            
  21310364.969 6 111986714.571 6  87262428.53647  21310378.37547
  21103456.297 6 110899414.315 6  86415195.24749  21103473.36749
  23577659.781 5 123901424.879 5  96546651.20448  23577678.53548
  21153517.203 6 111162475.559 6  86620151.88248  21153529.07048
  22521628.297 5 118351941.480 5  92222350.55147  22521647.27747
  19868838.094 7 104411445.652 7  81359618.33649  19868851.14149
  23672960.336 2 124402254.358 2  96936924.88445  23672986.98845
  23115204.781 6 121471195.420 6  94652955.32547  23115228.18047
 23  3 10  2 54 29.0000000  0  8G04G08G09G16G26G27G28G31            
  21309744.352 6 111983453.045 6  87259887.07947  21309757.53947
  21102543.883 6 110894617.211 6  86411457.25149  21102559.94549
  23576737.516 5 123896581.367 5  96542877.04048  23576756.41848
  21153250.484 6 111161074.110 6  86619059.84148  21153262.05548
  22521506.750 5 118351298.774 5  92221849.73447  22521525.14547
  19868319.102 7 104408718.196 7  81357493.04349  19868332.62549
  23672949.008 2 124402194.216 2  96936878.05245  23672975.24245
  23115115.633 6 121470729.394 6  94652592.18447  23115139.03547
 23  3 10  2 54 30.0000000  0  8G04G08G09G16G26G27G28G31            
  21309124.000 6 111980192.257 6  87257346.20447  21309136.83647
  21101630.953 6 110889820.749 6  86407719.74849  21101647.88749
  23575815.867 5 123891738.410 5  96539103.30548  23575834.82448
  21152984.227 6 111159672.943 6  86617968.01648  21152995.41848
  22521383.820 5 118350656.169 5  92221348.99647  22521402.77747
  19867800.094 7 104405991.582 7  81355368.40649  19867813.25049
  23672937.359 2 124402134.472 2  96936831.52545  23672964.02345
  23115027.078 6 121470263.790 6  94652229.36947  23115050.61347
 23  3 10  2 54 31.0000000  0  8G04G08G09G16G26G27G28G31            
  21308503.547 6 111976932.304 6  87254805.97947  21308516.50047
  21100718.391 6 110885025.023 6  86403982.82449  21100734.96549
  23574894.508 5 123886896.101 5  96535330.07648  23574913.34448
  21152717.352 6 111158272.112 6  86616876.45848  21152728.46948
  22521261.617 5 118350013.767 5  92220848.40847  22521280.52347
  19867281.539 7 104403265.833 7  81353244.44749  19867294.69949
  23672926.133 3 124402075.227 3  96936785.30845  23672952.52345
  23114938.430 6 121469798.650 6  94651866.91347  23114961.64847
 23  3 10  2 54 32.0000000  0  8G04G08G09G16G26G27G28G31            
  21307883.633 6 111973673.008 6  87252266.26847  21307896.59047
  21099806.266 6 110880229.850 6  86400246.31949  21099822.72749
  23573973.398 5 123882054.269 5  96531557.21748  23573992.05548
  21152451.031 6 111156871.438 6  86615785.02147  21152462.45347
  22521139.672 5 118349371.378 5  92220347.84247  22521158.40247
  19866763.094 7 104400540.783 7  81351121.03149  19866776.09849
  23672915.031 3 124402016.320 3  96936739.36645  23672941.13345
  23114850.188 6 121469333.813 6  94651504.68947  23114873.88347
 23  3 10  2 54 33.0000000  0  8G04G08G09G16G26G27G28G31            
  21307263.445 6 111970414.321 6  87249727.03947  21307276.58247
  21098893.648 6 110875435.138 6  86396510.18649  21098909.95349
  23573052.242 5 123877212.857 5  96527784.69148  23573070.90648
  21152184.797 6 111155470.899 6  86614693.68947  21152195.59447
  22521017.430 5 118348728.922 5  92219847.21647  22521036.24247
  19866244.547 7 104397816.381 7  81348998.11549  19866257.83249
  23672904.227 2 124401957.619 2  96936693.68645  23672930.62545
  23114761.672 6 121468869.222 6  94651142.66347  23114785.05947
 23  3 10  2 54 34.0000000  0  8G04G08G09G16G26G27G28G31            
  21306643.250 6 111967156.121 6  87247188.17847  21306656.46547
  21097981.219 6 110870640.844 6  86392774.37449  21097997.84449
  23572131.047 5 123872371.796 5  96524012.43248  23572149.64548
  21151917.969 6 111154070.403 6  86613602.38548  21151929.41448
  22520895.500 5 118348086.370 5  92219346.51547  22520913.93447
  19865725.977 7 104395092.589 7  81346875.67649  19865739.68049
  23672893.211 2 124401899.097 2  96936648.05345  23672918.87145
  23114673.383 6 121468404.807 6  94650780.77947  23114696.59447
 23  3 10  2 54 35.0000000  0  8G04G08G09G16G26G27G28G31            
  21306023.516 6 111963898.604 6  87244649.85247  21306036.57047
  21097068.992 6 110865847.047 6  86389038.95649  21097085.71149
  23571210.133 5 123867531.156 5  96520240.51148  23571228.44148
  21151651.813 6 111152670.036 6  86612511.18848  21151662.80948
  22520772.656 5 118347443.741 5  92218845.75347  22520791.37547
  19865207.953 7 104392369.434 7  81344753.73649  19865221.22749
  23672882.438 2 124401840.884 2  96936602.75245  23672907.61345
  23114584.969 6 121467940.638 6  94650419.08247  23114608.66847
 23  3 10  2 54 36.0000000  0  8G04G08G09G16G26G27G28G31            
  21305404.000 6 111960641.840 6  87242112.10647  21305416.79747
  21096156.344 6 110861053.893 6  86385304.02249  21096172.89149
  23570288.906 5 123862691.153 5  96516469.08148  23570307.34048
  21151385.172 6 111151269.957 6  86611420.21248  21151396.17648
  22520650.406 5 118346801.293 5  92218345.14247  22520669.26247
  19864689.852 7 104389647.118 7  81342632.45149  19864703.08649
  23672871.109 2 124401783.103 2  96936557.74945  23672896.84045
  23114496.852 6 121467476.906 6  94650057.72947  23114520.29747
 23  3 10  2 54 37.0000000  0  8G04G08G09G16G26G27G28G31            
  21304784.328 6 111957385.739 6  87239574.89147  21304796.96547
  21095244.617 6 110856261.304 6  86381569.54349  21095261.12149
  23569368.063 5 123857851.612 5  96512698.01348  23569386.91048
  21151118.766 6 111149870.058 6  86610329.38548  21151129.86348
  22520528.227 5 118346158.843 5  92217844.52147  22520546.93047
  19864171.961 7 104386925.504 7  81340511.71149  19864185.21149
  23672859.469 2 124401725.627 2  96936512.98045  23672885.68045
  23114408.828 6 121467013.486 6  94649696.61647  23114431.50047
 23  3 10  2 54 38.0000000  0  8G04G08G09G16G26G27G28G31            
  21304164.688 6 111954130.280 6  87237038.16747  21304177.04747
  21094332.773 6 110851469.200 6  86377835.43049  21094349.11749
  23568446.586 5 123853012.514 5  96508927.28448  23568465.69148
  21150852.125 6 111148470.330 6  86609238.67848  21150863.76648
  22520405.813 5 118345516.422 5  92217343.93047  22520424.43447
  19863654.383 7 104384204.609 7  81338391.52849  19863667.92649
  23672849.211 2 124401668.494 2  96936468.48445  23672874.78545
  23114321.328 5 121466550.300 5  94649335.68947  23114343.43847
 23  3 10  2 54 39.0000000  0  8G04G08G09G16G26G27G28G31            
  21303545.539 6 111950875.460 6  87234501.93447  21303558.25447
  21093421.266 6 110846677.646 6  86374101.75549  21093437.20349
  23567526.156 5 123848173.945 5  96505156.97648  23567545.06348
  21150586.078 6 111147070.723 6  86608148.07548  21150597.36348
  22520283.938 5 118344873.937 5  92216843.27647  22520302.58647
  19863136.625 7 104381484.382 7  81336271.86849  19863150.31349
  23672838.000 2 124401611.499 2  96936424.03645  23672864.38345
  23114232.789 5 121466087.436 5  94648975.00347  23114255.69947
 23  3 10  2 54 40.0000000  0  8G04G08G09G16G26G27G28G31            
  21302925.992 6 111947621.319 6  87231966.23747  21302938.85547
  21092509.422 6 110841886.594 6  86370368.46949  21092525.77349
  23566605.555 5 123843335.801 5  96501386.99948  23566624.11348
  21150319.664 6 111145671.314 6  86607057.62148  21150330.57048
  22520161.711 5 118344231.486 5  92216342.64847  22520180.41847
  19862619.031 7 104378764.882 7  81334152.78049  19862632.40249
  23672827.813 2 124401554.988 2  96936379.96545  23672853.64845
  23114144.102 5 121465624.870 5  94648614.55947  23114167.69147
 23  3 10  2 54 41.0000000  0  8G04G08G09G16G26G27G28G31            
  21302307.023 6 111944368.050 6  87229431.21347  21302320.10247
  21091597.617 6 110837096.329 6  86366635.80049  21091614.08649
  23565685.078 5 123838498.395 5  96497617.59748  23565703.50048
  21150053.445 6 111144272.309 6  86605967.47948  21150064.54748
  22520039.172 5 118343589.316 5  92215842.24847  22520058.14847
  19862101.648 7 104376046.308 7  81332034.40349  19862115.50049
  23672816.891 2 124401498.933 2  96936336.20245  23672842.87145
  23114056.125 5 121465162.816 5  94648254.50847  23114079.59447
 23  3 10  2 54 42.0000000  0  8G04G08G09G16G26G27G28G31            
  21301687.656 6 111941115.324 6  87226896.62647  21301700.91447
  21090686.305 6 110832306.520 6  86362903.47449  21090702.74649
  23564764.000 5 123833661.379 5  96493848.48848  23564783.15248
  21149787.109 6 111142873.386 6  86604877.40648  21149798.07448
  22519917.023 5 118342946.982 5  92215341.71547  22519935.97747
  19861584.461 7 104373328.352 7  81329916.50949  19861597.91049
  23672806.219 2 124401443.171 2  96936292.73045  23672832.03145
  23113968.328 6 121464701.010 6  94647894.65047  23113991.50047
 23  3 10  2 54 43.0000000  0  8G04G08G09G16G26G27G28G31            
  21301069.125 6 111937863.353 6  87224362.61647  21301082.13747
  21089774.938 6 110827517.306 6  86359171.61749  21089791.41849
  23563844.336 5 123828824.907 5  96490079.81248  23563863.06348
  21149521.250 6 111141474.672 6  86603787.49748  21149532.48048
  22519795.445 5 118342304.793 5  92214841.30047  22519813.91447
  19861067.602 7 104370611.184 7  81327799.23249  19861081.18849
  23672795.563 2 124401387.695 2  96936249.55745  23672821.30945
  23113880.727 5 121464239.541 5  94647535.05947  23113903.55147
 23  3 10  2 54 44.0000000  0  8G04G08G09G16G26G27G28G31            
  21300450.336 6 111934612.109 6  87221829.17747  21300463.44947
  21088863.938 6 110822728.689 6  86355440.23149  21088880.37149
  23562924.406 5 123823988.965 5  96486311.54548  23562942.83248
  21149254.727 6 111140076.219 6  86602697.78847  21149266.31647
  22519672.547 5 118341662.636 5  92214340.91247  22519691.48047
  19860550.625 7 104367894.762 7  81325682.54449  19860563.94149
  23672784.273 2 124401332.689 2  96936206.81445  23672810.62545
  23113792.930 5 121463778.445 5  94647175.75647  23113815.63747
 23  3 10  2 54 45.0000000  0  8G04G08G09G16G26G27G28G31            
  21299832.016 6 111931361.343 6  87219296.11147  21299845.24647
  21087952.422 6 110817940.451 6  86351709.13449  21087968.80949
  23562003.492 5 123819153.320 5  96482543.50648  23562022.46148
  21148988.898 6 111138677.757 6  86601608.07948  21149000.11348
  22519550.688 5 118341020.312 5  92213840.39647  22519569.29747
  19860033.555 7 104365178.884 7  81323566.27349  19860046.95749
  23672774.445 3 124401277.725 3  96936164.01045  23672800.62145
  23113705.211 5 121463317.436 5  94646816.52147  23113728.28547
 23  3 10  2 54 46.0000000  0  8G04G08G09G16G26G27G28G31            
  21299213.523 6 111928111.299 6  87216763.60447  21299226.25447
  21087041.211 6 110813152.832 6  86347978.52249  21087057.58249
  23561083.625 5 123814318.235 5  96478775.90648  23561102.26648
  21148722.242 6 111137279.512 6  86600518.52747  21148733.93847
  22519427.984 5 118340378.090 5  92213339.95447  22519447.03147
  19859516.836 7 104362463.767 7  81321450.59449  19859530.56349
  23672763.508 2 124401223.162 2  96936121.43245  23672789.65645
  23113618.164 5 121462856.838 5  94646457.60247  23113640.32847
 23  3 10  2 54 47.0000000  0  8G04G08G09G16G26G27G28G31            
  21298595.375 6 111924862.061 6  87214231.72947  21298608.43447
  21086130.781 6 110808365.922 6  86344248.46249  21086146.66849
  23560163.508 5 123809483.835 5  96475008.84348  23560182.79748
  21148456.203 6 111135881.646 6  86599429.28048  21148467.69548
  22519306.563 5 118339736.042 5  92212839.63947  22519324.85947
  19859000.742 7 104359749.550 7  81319335.61949  19859013.80949
  23672753.563 2 124401169.118 2  96936079.31945  23672779.34845
  23113529.953 5 121462396.707 5  94646099.05647  23113552.35947
 23  3 10  2 54 48.0000000  0  8G04G08G09G16G26G27G28G31            
  21297976.430 6 111921613.738 6  87211700.57147  21297989.77047
  21085219.836 6 110803579.777 6  86340519.00349  21085236.02349
  23559243.773 5 123804650.116 5  96471242.30548  23559262.47348
  21148190.945 6 111134484.139 6  86598340.30948  21148201.78148
  22519183.898 5 118339094.197 5  92212339.49447  22519202.91447
  19858484.383 7 104357036.258 7  81317221.36049  19858497.80149
  23672742.945 2 124401115.584 2  96936037.56845  23672769.17645
  23113442.992 5 121461937.119 5  94645740.92847  23113465.33647
 23  3 10  2 54 49.0000000  0  8G04G08G09G16G26G27G28G31            
  21297358.641 6 111918365.946 6  87209169.81647  21297372.07847
  21084309.008 6 110798794.028 6  86336789.84549  21084325.11349
  23558324.820 5 123799816.760 5  96467476.05048  23558342.25848
  21147924.930 6 111133086.721 6  86597251.41248  21147935.98448
  22519062.375 5 118338452.281 5  92211839.29647  22519080.64147
  19857968.117 7 104354323.567 7  81315107.57849  19857981.65649
  23672732.750 2 124401062.311 2  96935996.02645  23672758.86745
  23113355.445 5 121461477.672 5  94645382.91547  23113377.91847
 23  3 10  2 54 50.0000000  0  8G04G08G09G16G26G27G28G31            
  21296741.367 6 111915118.813 6  87206639.58747  21296754.55547
  21083399.031 6 110794008.809 6  86333061.10349  21083414.85249
  23557405.297 5 123794983.827 5  96463710.13448  23557422.92248
  21147659.008 6 111131689.437 6  86596162.62048  21147669.87948
  22518940.008 5 118337810.364 5  92211339.10047  22518958.83647
  19857452.125 7 104351611.543 7  81312994.31249  19857465.52349
  23672722.016 2 124401009.212 2  96935954.62245  23672748.66845
  23113268.570 5 121461018.518 5  94645025.12647  23113290.84847
 23  3 10  2 54 51.0000000  0  8G04G08G09G16G26G27G28G31            
  21296123.492 6 111911872.369 6  87204109.88947  21296136.74647
  21082488.266 6 110789224.185 6  86329332.82349  21082504.02049
  23556485.320 5 123790151.469 5  96459944.66148  23556503.49648
  21147393.023 6 111130292.368 6  86595073.99048  21147403.76648
  22518817.539 5 118337168.503 5  92210838.93847  22518836.34847
  19856936.320 7 104348900.284 7  81310881.64049  19856949.33649
  23672712.563 2 124400956.557 2  96935913.61245  23672739.16845
  23113180.648 6 121460559.724 6  94644667.60847  23113203.28547
 23  3 10  2 54 52.0000000  0  8G04G08G09G16G26G27G28G31            
  21295505.586 6 111908626.744 6  87201580.83147  21295518.72747
  21081577.797 6 110784440.246 6  86325605.07949  21081594.15649
  23555566.258 5 123785319.717 5  96456179.65848  23555583.85248
  21147126.656 6 111128895.621 6  86593985.60948  21147137.84448
  22518695.680 5 118336526.795 5  92210338.89147  22518714.38347
  19856420.250 7 104346189.882 7  81308769.63949  19856433.50449
  23672702.531 2 124400904.367 2  96935873.02445  23672728.88345
  23113093.656 5 121460101.363 5  94644310.44247  23113116.08647
 23  3 10  2 54 53.0000000  0  8G04G08G09G16G26G27G28G31            
  21294888.336 6 111905381.702 6  87199052.22347  21294901.54347
  21080668.047 6 110779656.778 6  86321877.70849  21080683.52049
  23554646.492 5 123780488.394 5  96452414.99448  23554664.51248
  21146860.969 6 111127498.979 6  86592897.31748  21146872.07048
  22518572.891 5 118335885.015 5  92209838.79647  22518592.07847
  19855904.516 7 104343480.128 7  81306658.13649  19855918.19549
  23672693.047 2 124400852.398 2  96935832.54045  23672719.03945
  23113006.273 5 121459643.248 5  94643953.45747  23113029.34447
 23  3 10  2 54 54.0000000  0  8G04G08G09G16G26G27G28G31            
  21294271.094 6 111902137.328 6  87196524.13347  21294283.81347
  21079757.938 6 110774873.896 6  86318150.78449  21079773.41049
  23553727.094 5 123775657.581 5  96448650.73648  23553745.07448
  21146595.805 6 111126102.551 6  86591809.18048  21146606.96948
  22518451.438 5 118335243.319 5  92209338.76247  22518469.80147
  19855389.117 7 104340771.111 7  81304547.21549  19855402.44149
  23672682.617 1 124400800.716 1  96935792.24245  23672709.10545
  23112919.539 5 121459185.469 5  94643596.73847  23112941.77747
 23  3 10  2 54 55.0000000  0  8G04G08G09G16G26G27G28G31            
  21293653.695 6 111898893.752 6  87193996.66347  21293666.30547
  21078847.539 6 110770091.643 6  86314424.35349  21078863.88749
  23552807.539 5 123770827.360 5  96444886.93248  23552826.47348
  21146330.102 6 111124706.369 6  86590721.24347  21146341.43447
  22518329.430 5 118334601.701 5  92208838.78647  22518348.19147
  19854873.734 7 104338062.909 7  81302436.92149  19854887.09049
  23672672.680 1 124400749.562 1  96935752.39845  23672699.08245
  23112832.430 5 121458728.084 5  94643240.33047  23112854.57047
 23  3 10  2 54 56.0000000  0  8G04G08G09G16G26G27G28G31            
  21293036.438 6 111895650.728 6  87191469.63347  21293049.69147
  21077937.594 6 110765309.851 6  86310698.28449  21077953.47749
  23551888.750 5 123765997.505 5  96441123.41248  23551907.14848
  21146064.430 6 111123310.271 6  86589633.37547  21146075.45747
  22518206.742 5 118333960.008 5  92208338.75747  22518226.16847
  19854358.609 7 104335355.315 7  81300327.10949  19854372.08249
  23672662.875 1 124400698.527 1  96935712.61445  23672689.56345
  23112745.445 5 121458270.919 5  94642884.09247  23112767.62947
 23  3 10  2 54 57.0000000  0  8G04G08G09G16G26G27G28G31            
  21292419.977 6 111892408.498 6  87188943.21947  21292432.78547
  21077027.641 6 110760528.735 6  86306972.73949  21077043.73849
  23550969.578 5 123761168.283 5  96437360.37948  23550988.25448
  21145798.297 6 111121914.506 6  86588545.76048  21145810.08648
  22518085.109 5 118333318.464 5  92207838.84447  22518103.81347
  19853843.508 7 104332648.579 7  81298217.96249  19853857.21149
  23672652.906 1 124400647.973 1  96935673.14045  23672679.85945
  23112658.383 5 121457814.159 5  94642528.16147  23112680.73047
 23  3 10  2 54 58.0000000  0  8G04G08G09G16G26G27G28G31            
  21291802.625 6 111889166.927 6  87186417.32047  21291815.57447
  21076118.227 6 110755748.127 6  86303247.58849  21076134.08249
  23550050.633 5 123756339.564 5  96433597.73748  23550069.36748
  21145533.383 6 111120518.877 6  86587458.24948  21145544.47348
  22517963.219 5 118332676.930 5  92207338.93847  22517981.84047
  19853328.680 7 104329942.529 7  81296109.35249  19853342.28149
  23672642.930 1 124400597.743 1  96935634.15345  23672670.61345
  23112571.688 5 121457357.736 5  94642172.50347  23112593.99247
 23  3 10  2 54 59.0000000  0  8G04G08G09G16G26G27G28G31            
  21291185.914 6 111885926.308 6  87183892.15847  21291199.07447
  21075208.461 6 110750968.346 6  86299523.08549  21075224.53949
  23549132.398 5 123751511.586 5  96429835.67748  23549150.71548
  21145267.547 6 111119123.724 6  86586371.11048  21145278.91048
  22517840.984 5 118332035.680 5  92206839.24847  22517859.49647
  19852813.750 7 104327237.455 7  81294001.50149  19852827.24249
  23672634.242 1 124400548.109 1  96935595.60645  23672661.02045
  23112484.789 5 121456901.901 5  94641817.30447  23112506.96547
 23  3 10  2 55  0.0000000  0  8G04G08G09G16G26G27G28G31            
  21290569.250 6 111882686.041 6  87181367.26847  21290582.36347
  21074299.078 6 110746188.774 6  86295798.73949  21074315.11349
  23548213.414 5 123746683.791 5  96426073.76348  23548231.55148
  21145001.914 6 111117728.429 6  86585283.86848  21145013.64548
  22517719.367 5 118331394.125 5  92206339.31547  22517737.58647
  19852299.156 7 104324532.819 7  81291893.99149  19852312.87149
  23672625.523 1 124400498.446 1  96935556.93745  23672651.37945
  23112398.023 5 121456446.044 5  94641462.08147  23112420.86347
 23  3 10  2 55  1.0000000  0  8G04G08G09G16G26G27G28G31            
  21289952.859 6 111879446.524 6  87178842.97147  21289966.11347
  21073389.273 6 110741409.835 6  86292074.89349  21073405.31349
  23547294.563 5 123741856.562 5  96422312.28748  23547312.90248
  21144736.375 6 111116333.372 6  86584196.80548  21144748.05148
  22517596.438 5 118330752.690 5  92205839.48747  22517615.46547
  19851784.664 7 104321828.966 7  81289787.09449  19851798.10249
  23672616.469 1 124400449.236 1  96935518.54645  23672642.00045
  23112311.367 6 121455990.560 6  94641107.15747  23112334.14147
 23  3 10  2 55  2.0000000  0  8G04G08G09G16G26G27G28G31            
  21289336.906 6 111876207.985 6  87176319.43447  21289349.55547
  21072480.188 6 110736631.775 6  86288351.73849  21072496.36749
  23546376.289 5 123737030.123 5  96418551.41948  23546394.92248
  21144471.180 6 111114938.844 6  86583110.15047  21144482.59847
  22517474.688 5 118330111.594 5  92205339.92447  22517493.19147
  19851270.375 7 104319126.137 7  81287680.98749  19851283.83249
  23672607.164 1 124400400.624 1  96935480.63245  23672632.79745
  23112224.750 6 121455535.703 6  94640752.71347  23112247.17647
 23  3 10  2 55  3.0000000  0  8G04G08G09G16G26G27G28G31            
  21288720.047 6 111872970.265 6  87173796.52347  21288733.92247
  21071571.305 6 110731854.430 6  86284629.12849  21071587.51249
  23545458.313 5 123732204.351 5  96414791.08048  23545476.29348
  21144205.688 6 111113544.638 6  86582023.74948  21144217.46148
  22517353.109 5 118329470.667 5  92204840.49847  22517371.43447
  19850756.297 7 104316424.198 7  81285575.58149  19850769.41049
  23672596.453 1 124400352.487 1  96935442.98245  23672623.59845
  23112138.641 5 121455081.355 5  94640398.67647  23112161.05547
 23  3 10  2 55  4.0000000  0  8G04G08G09G16G26G27G28G31            
  21288104.672 6 111869733.058 6  87171274.02147  21288117.93047
  21070662.008 6 110727077.474 6  86280906.82349  21070678.17649
  23544539.883 5 123727378.895 5  96411030.98348  23544558.06348
  21143940.492 6 111112150.431 6  86580937.34947  21143951.97747
  22517231.125 5 118328829.562 5  92204340.93047  22517250.11747
  19850242.195 7 104313722.781 7  81283470.57549  19850255.55549
  23672588.484 2 124400304.522 2  96935405.63945  23672614.11745
  23112052.070 5 121454627.106 5  94640044.70547  23112074.27347
 23  3 10  2 55  5.0000000  0  8G04G08G09G16G26G27G28G31            
  21287488.141 6 111866496.599 6  87168752.09647  21287502.22747
  21069752.883 6 110722301.172 6  86277185.03249  21069769.45749
  23543621.570 5 123722554.009 5  96407271.33748  23543639.89848
  21143675.305 6 111110756.507 6  86579851.17247  21143686.95747
  22517108.875 5 118328188.616 5  92203841.48147  22517127.92247
  19849728.086 7 104311022.191 7  81281366.21949  19849741.77049
  23672580.570 1 124400256.938 1  96935368.60145  23672605.54745
  23111965.523 6 121454173.253 6  94639691.03947  23111988.14547
 23  3 10  2 55  6.0000000  0  8G04G08G09G16G26G27G28G31            
  21286872.641 6 111863260.771 6  87166230.66847  21286886.38747
  21068844.492 6 110717525.348 6  86273463.60749  21068860.62549
  23542703.906 5 123717729.607 5  96403512.07048  23542721.98448
  21143410.125 6 111109362.732 6  86578765.10647  21143421.23847
  22516986.336 5 118327547.591 5  92203341.97647  22517005.91447
  19849214.305 7 104308322.288 7  81279262.39849  19849227.59449
  23672569.930 1 124400209.666 1  96935331.80545  23672596.30945
  23111878.922 5 121453719.725 5  94639337.62147  23111901.74247
 23  3 10  2 55  7.0000000  0  8G04G08G09G16G26G27G28G31            
  21286257.023 6 111860025.681 6  87163709.81347  21286270.93047
  21067935.578 6 110712750.126 6  86269742.65849  21067952.02749
  23541785.836 5 123712905.728 5  96399753.20348  23541803.93048
  21143144.953 6 111107969.181 6  86577679.21348  21143155.91448
  22516865.242 5 118326906.693 5  92202842.56047  22516883.76647
  19848701.023 7 104305623.137 7  81277159.15949  19848714.22349
  23672561.320 1 124400162.777 1  96935295.28844  23672587.25444
  23111792.945 5 121453266.505 5  94638984.45447  23111815.41047
 23  3 10  2 55  8.0000000  0  8G04G08G09G16G26G27G28G31            
  21285641.680 6 111856791.149 6  87161189.40547  21285655.23447
  21067026.961 6 110707975.353 6  86266022.06149  21067043.72349
  23540868.352 5 123708082.234 5  96395994.64548  23540885.72748
  21142879.656 6 111106575.704 6  86576593.38547  21142891.13747
  22516742.313 5 118326265.692 5  92202343.06847  22516761.93847
  19848187.195 7 104302924.603 7  81275056.40449  19848200.85249
  23672553.063 2 124400116.116 2  96935258.96945  23672578.74245
  23111706.922 5 121452813.518 5  94638631.46747  23111729.56647
 23  3 10  2 55  9.0000000  0  8G04G08G09G16G26G27G28G31            
  21285026.602 6 111853557.431 6  87158669.62447  21285039.82847
  21066118.070 6 110703201.336 6  86262302.04949  21066135.12149
  23539950.313 5 123703259.413 5  96392236.60448  23539968.07848
  21142614.484 6 111105182.592 6  86575507.83347  21142625.82047
  22516620.664 5 118325624.880 5  92201843.72947  22516639.55147
  19847673.844 7 104300226.966 7  81272954.35149  19847687.13349
  23672544.141 1 124400069.869 1  96935222.97045  23672569.89845
  23111620.867 5 121452360.985 5  94638278.84347  23111643.41447
 23  3 10  2 55 10.0000000  0  8G04G08G09G16G26G27G28G31            
  21284411.156 6 111850324.762 6  87156150.65447  21284424.78547
  21065210.367 6 110698428.165 6  86258582.69549  21065227.02049
  23539032.828 5 123698437.399 5  96388479.19348  23539050.44948
  21142349.859 6 111103789.965 6  86574422.66947  21142361.04347
  22516499.039 5 118324984.416 5  92201344.66047  22516518.10547
  19847160.664 7 104297530.362 7  81270853.10149  19847174.17649
  23672535.695 1 124400024.358 1  96935187.51845  23672561.12945
  23111534.656 5 121451909.088 5  94637926.70947  23111557.25447
 23  3 10  2 55 11.0000000  0  8G04G08G09G16G26G27G28G31            
  21283796.313 6 111847092.831 6  87153632.26647  21283809.52047
  21064302.219 6 110693655.692 6  86254863.88549  21064318.85549
  23538114.633 5 123693615.985 5  96384722.25148  23538133.27348
  21142085.141 6 111102397.635 6  86573337.73648  21142096.03548
  22516377.555 5 118324344.079 5  92200845.69147  22516396.44147
  19846647.859 7 104294834.594 7  81268752.49949  19846661.74249
  23672526.969 2 124399979.236 2  96935152.24245  23672552.39545
  23111448.047 5 121451457.648 5  94637574.93147  23111471.22347
 23  3 10  2 55 12.0000000  0  8G04G08G09G16G26G27G28G31            
  21283181.602 6 111843861.465 6  87151114.31647  21283194.85947
  21063393.945 6 110688883.653 6  86251145.41849  21063410.82049
  23537197.336 5 123688794.996 5  96380965.63748  23537215.44148
  21141819.938 6 111101005.365 6  86572252.84848  21141831.18848
  22516255.414 5 118323703.643 5  92200346.63047  22516274.82047
  19846134.617 7 104292139.428 7  81266652.37349  19846148.45349
  23672517.938 2 124399934.318 2  96935117.22745  23672543.53945
  23111363.102 5 121451006.320 5  94637223.24047  23111385.57047
 23  3 10  2 55 13.0000000  0  8G04G08G09G16G26G27G28G31            
  21282567.086 6 111840630.660 6  87148596.80147  21282579.91847
  21062485.500 6 110684112.046 6  86247427.27849  21062502.66449
  23536280.273 5 123683974.313 5  96377209.26248  23536298.51648
  21141555.547 6 111099613.155 6  86571168.00448  21141566.04748
  22516133.602 5 118323063.106 5  92199847.50147  22516152.79747
  19845622.273 7 104289444.858 7  81264552.70349  19845635.75049
  23672509.078 2 124399889.632 2  96935082.40444  23672535.17644
  23111276.805 6 121450555.294 6  94636871.78447  23111299.79347
 23  3 10  2 55 14.0000000  0  8G04G08G09G16G26G27G28G31            
  21281951.648 6 111837400.622 6  87146079.88147  21281965.43047
  21061578.680 6 110679341.086 6  86243709.65149  21061594.78949
  23535362.414 5 123679154.273 5  96373453.39048  23535381.31348
  21141290.219 6 111098221.251 6  86570083.39948  21141301.43048
  22516011.719 5 118322422.728 5  92199348.50247  22516030.50447
  19845109.531 7 104286751.123 7  81262453.68849  19845123.03549
  23672501.500 1 124399845.288 1                
  23111191.094 5 121450104.641 5  94636520.61247  23111213.64847
 23  3 10  2 55 15.0000000  0  8G04G08G09G16G26G27G28G31            
  21281337.102 6 111834171.373 6  87143563.57847  21281350.84047
  21060670.258 6 110674570.798 6  86239992.54849  21060687.25849
  23534445.992 5 123674334.860 5  96369698.00548  23534464.14848
  21141025.961 6 111096829.578 6  86568998.97548  21141036.68448
  22515890.148 5 118321782.453 5  92198849.58047  22515908.87547
  19844596.852 7 104284058.202 7  81260355.30849  19844610.18849
  23672493.234 1 124399801.495 1                
  23111105.523 5 121449654.441 5  94636169.79547  23111128.15247
 23  3 10  2 55 16.0000000  0  8G04G08G09G16G26G27G28G31            
  21280722.742 6 111830942.520 6  87141047.58247  21280736.78947
  21059762.531 6 110669800.807 6  86236275.67549  21059779.43449
  23533528.328 5 123669515.600 5  96365942.73248  23533546.66048
  21140761.023 6 111095437.897 6  86567914.54948  21140771.77748
  22515768.336 5 118321141.944 5  92198350.47947  22515786.82447
  19844084.570 7 104281365.754 7  81258257.29849  19844097.88749
  23672485.031 1 124399757.691 1                
  23111020.078 5 121449204.262 5  94635818.99947  23111042.66447
 23  3 10  2 55 17.0000000  0  8G04G08G09G16G26G27G28G31            
  21280108.453 6 111827714.277 6  87138532.06947  21280122.15647
  21058854.906 6 110665031.271 6  86232559.15249  21058872.05549
  23532612.625 5 123664696.842 5  96362187.85448  23532630.34848
  21140495.969 6 111094046.297 6  86566830.18148  21140507.13348
  22515646.500 5 118320501.398 5  92197851.34347  22515665.28147
  19843572.648 7 104278673.934 7  81256159.77949  19843585.89549
  23672475.836 2 124399714.175 2                
  23110934.063 5 121448754.331 5  94635468.39347  23110957.01247
 23  3 10  2 55 18.0000000  0  8G04G08G09G16G26G27G28G31            
  21279494.406 6 111824486.778 6  87136017.13147  21279508.06347
  21057947.766 6 110660262.322 6  86228843.09149  21057964.55149
  23531694.563 5 123659878.613 5  96358433.39048  23531713.16448
  21140231.328 6 111092654.931 6  86565745.98648  21140242.02348
  22515524.398 5 118319860.902 5  92197352.24447  22515543.06347
  19843060.484 7 104275982.897 7  81254062.86749  19843073.62549
  23672467.961 1 124399671.008 1                
  23110848.766 5 121448304.754 5  94635118.06447  23110871.43447
 23  3 10  2 55 19.0000000  0  8G04G08G09G16G26G27G28G31            
  21278880.594 6 111821259.914 6  87133502.69147  21278893.89547
  21057040.266 6 110655493.941 6  86225127.47049  21057056.94949
  23530778.680 5 123655060.858 5  96354679.29548  23530796.68448
  21139966.820 6 111091263.762 6  86564661.96147  21139977.53547
  22515402.828 5 118319220.444 5  92196853.17647  22515421.17247
  19842548.664 7 104273292.582 7  81251966.52049  19842561.79749
  23672460.344 1 124399628.166 1                
  23110763.906 6 121447855.485 6  94634767.97447  23110786.01647
 23  3 10  2 55 20.0000000  0  8G04G08G09G16G26G27G28G31            
  21278266.367 6 111818033.816 6  87130988.85547  21278280.10247
  21056132.922 6 110650726.199 6  86221412.34749  21056150.10249
  23529861.711 5 123650243.687 5  96350925.65748  23529879.88348
  21139701.258 6 111089872.812 6  86563578.09547  21139712.82447
  22515281.008 5 118318580.093 5  92196354.19247  22515299.10247
  19842036.602 7 104270603.058 7  81249870.78249  19842050.23449
  23672452.617 1 124399585.763 1                
  23110677.445 5 121447406.632 5  94634418.20647  23110700.77347
 23  3 10  2 55 21.0000000  0  8G04G08G09G16G26G27G28G31            
  21277652.938 6 111814808.621 6  87128475.71347  21277666.24247
  21055225.891 6 110645959.264 6  86217697.85749  21055242.80149
  23528945.109 5 123645427.221 5  96347172.57548  23528963.22748
  21139437.523 6 111088482.313 6  86562494.58447  21139448.32047
  22515159.133 5 118317939.994 5  92195855.40447  22515177.86747
  19841525.219 7 104267914.494 7  81247775.79349  19841538.37549
  23672444.438 1 124399543.837 1                
  23110592.344 5 121446958.295 5  94634068.85347  23110615.35947
 23  3 10  2 55 22.0000000  0  8G04G08G09G16G26G27G28G31            
  21277039.359 6 111811584.133 6  87125963.11347  21277052.70747
  21054318.625 6 110641192.872 6  86213983.78649  21054335.43049
  23528028.242 5 123640611.298 5  96343419.90648  23528047.12148
  21139172.680 6 111087092.026 6  86561411.24547  21139183.36747
  22515037.063 5 118317299.962 5  92195356.66947  22515055.94547
  19841013.727 7 104265226.667 7  81245681.38249  19841027.06349
  23672435.938 1 124399502.343 1                
  23110507.258 5 121446510.316 5  94633719.77347  23110530.24247
 23  3 10  2 55 23.0000000  0  8G04G08G09G16G26G27G28G31            
  21276425.461 6 111808360.233 6  87123450.97747  21276438.96547
  21053411.961 6 110636426.986 6  86210270.10949  21053428.64849
  23527112.047 5 123635795.826 5  96339667.59648  23527130.63348
  21138907.734 6 111085701.820 6  86560327.96748  21138919.32448
  22514915.125 5 118316659.797 5  92194857.82247  22514934.17647
  19840502.438 7 104262539.496 7  81243587.48549  19840515.70349
  23672427.695 1 124399461.068 1                
  23110422.430 5 121446062.576 5  94633370.87347  23110445.00047
 23  3 10  2 55 24.0000000  0  8G04G08G09G16G26G27G28G31            
  21275812.789 6 111805137.124 6  87120939.46547  21275825.87147
  21052505.352 6 110631661.764 6  86206556.95449  21052522.22749
  23526195.938 5 123630980.938 5  96335915.73548  23526214.29348
  21138643.336 6 111084311.928 6  86559244.92648  21138654.46148
  22514793.297 5 118316019.848 5  92194359.15947  22514812.13347
  19839991.008 7 104259853.168 7  81241494.23949  19840004.26649
  23672419.961 1 124399420.211 1                
  23110336.852 6 121445615.267 6  94633022.30747  23110359.51647
 23  3 10  2 55 25.0000000  0  8G04G08G09G16G26G27G28G31            
  21275198.836 6 111801914.655 6  87118428.45247  21275212.82047
  21051598.133 6 110626897.055 6  86202844.19349  21051615.29749
  23525279.625 5 123626166.507 5  96332164.22948  23525297.98048
  21138379.250 6 111082922.197 6  86558162.01247  21138390.02347
  22514671.250 5 118315379.865 5  92193860.46047  22514690.85547
  19839479.727 7 104257167.517 7  81239401.52549  19839493.19549
  23672412.734 1 124399379.708 1                
  23110251.813 6 121445168.231 6  94632673.96347  23110274.90247
 23  3 10  2 55 26.0000000  0  8G04G08G09G16G26G27G28G31            
  21274586.164 6 111798692.865 6  87115917.96947  21274599.14147
  21050691.719 6 110622132.928 6  86199131.88849  21050708.69549
  23524362.922 5 123621352.599 5  96328413.13648  23524381.73048
  21138114.313 6 111081532.641 6  86557079.24048  21138126.02348
  22514549.805 5 118314739.924 5  92193361.79947  22514568.82447
  19838969.023 7 104254482.596 7  81237309.38149  19838982.46949
  23672404.555 1 124399339.443 1                
  23110167.273 6 121444721.472 6  94632325.83047  23110189.98047
 23  3 10  2 55 27.0000000  0  8G04G08G09G16G26G27G28G31            
  21273973.016 6 111795471.851 6  87113408.08347  21273986.19547
  21049784.914 6 110617369.441 6  86195420.08049  21049802.43849
  23523447.516 5 123616539.277 5  96324662.49748  23523465.69148
  21137850.234 6 111080143.344 6  86555996.66948  21137861.35248
  22514428.016 5 118314100.076 5  92192863.20247  22514446.77347
  19838458.547 7 104251798.480 7  81235217.86249  19838471.92649
  23672397.188 1 124399299.670 1                
  23110081.984 5 121444275.150 5  94631978.03947  23110104.96547
 23  3 10  2 55 28.0000000  0  8G04G08G09G16G26G27G28G31            
  21273360.141 6 111792251.399 6  87110898.63547  21273373.53147
  21048878.547 6 110612606.453 6  86191708.66049  21048896.13349
  23522531.117 5 123611726.320 5  96320912.14548  23522549.85548
  21137585.984 6 111078754.151 6  86554914.18048  21137597.07048
  22514306.617 5 118313460.193 5  92192364.59647  22514325.27047
  19837947.609 7 104249115.004 7  81233126.83549  19837961.11349
  23672390.445 1 124399260.113 1                
  23109997.359 5 121443829.072 5  94631630.43147  23110020.30547
 23  3 10  2 55 29.0000000  0  8G04G08G09G16G26G27G28G31            
  21272747.766 6 111789031.830 6  87108389.87347  21272760.60247
  21047972.297 6 110607844.197 6  86187997.80949  21047989.89549
  23521616.156 5 123606914.096 5  96317162.35648  23521634.52348
  21137321.727 6 111077365.309 6  86553831.95948  21137333.03148
  22514184.656 5 118312820.492 5  92191866.11247  22514203.60947
  19837437.188 7 104246432.423 7  81231036.51449  19837450.66449
  23672382.555 1 124399221.033 1                
  23109911.859 5 121443383.484 5  94631283.21347  23109935.20347
 23  3 10  2 55 30.0000000  0  8G04G08G09G16G26G27G28G31            
  21272134.859 6 111785812.780 6  87105881.52147  21272147.97347
  21047066.336 6 110603082.372 6  86184287.29849  21047083.43849
  23520700.734 5 123602102.237 5  96313412.86148  23520718.38348
  21137057.172 6 111075976.548 6  86552749.79848  21137068.62548
  22514062.547 5 118312180.709 5  92191367.57047  22514082.10247
  19836926.906 7 104243750.454 7  81228946.66449  19836940.34849
  23672375.172 1 124399182.236 1                
  23109827.609 5 121442938.079 5  94630936.14247  23109851.00047
 23  3 10  2 55 31.0000000  0  8G04G08G09G16G26G27G28G31            
  21271522.492 6 111782594.434 6  87103373.72047  21271536.16447
  21046160.148 6 110598321.099 6  86180577.22049  21046177.79749
  23519785.297 5 123597290.915 5  96309663.78048  23519803.25448
  21136793.445 6 111074587.974 6  86551667.78547  21136804.44147
  22513941.430 5 118311540.938 5  92190869.03347  22513960.54747
  19836416.633 7 104241069.190 7  81226857.36549  19836430.00849
  23672367.516 1 124399143.686 1                
  23109742.703 5 121442492.997 5  94630589.31347  23109766.17247
 23  3 10  2 55 32.0000000  0  8G04G08G09G16G26G27G28G31            
  21270910.281 6 111779376.814 6  87100866.47847  21270923.59847
  21045254.492 6 110593560.392 6  86176867.57449  21045271.13749
  23518869.719 5 123592480.093 5  96305915.09048  23518887.47748
  21136528.734 6 111073199.616 6  86550585.94547  21136540.38747
  22513819.195 5 118310901.228 5  92190370.54647  22513838.35947
  19835906.523 7 104238388.701 7  81224768.67549  19835919.99649
  23672360.508 1 124399105.566 1                
  23109658.414 5 121442048.250 5  94630242.74747  23109681.23847
 23  3 10  2 55 33.0000000  0  8G04G08G09G16G26G27G28G31            
  21270297.688 6 111776159.524 6  87098359.49747  21270311.46547
  21044348.070 6 110588799.915 6  86173158.11449  21044365.56349
  23517954.438 5 123587669.467 5  96302166.54548  23517971.65648
  21136264.297 6 111071811.154 6  86549504.02247  21136276.19947
  22513697.680 5 118310261.280 5  92189871.87247  22513716.91047
  19835396.375 7 104235708.630 7  81222680.30749  19835409.72749
  23672353.914 1 124399067.380 1                
  23109573.750 5 121441603.561 5  94629896.23547  23109596.77347
 23  3 10  2 55 34.0000000  0  8G04G08G09G16G26G27G28G31            
  21269686.055 6 111772942.764 6  87095852.92747  21269699.19547
  21043442.609 6 110584039.827 6  86169448.95349  21043460.21549
  23517039.063 5 123582859.129 5  96298418.22848  23517055.94548
  21136000.148 6 111070422.647 6  86548422.06347  21136011.76247
  22513575.859 5 118309621.137 5  92189373.04447  22513594.96547
  19834886.578 7 104233029.089 7  81220592.34949  19834900.11749
  23672346.367 1 124399029.351 1                
  23109489.109 5 121441158.938 5  94629549.77447  23109512.47747
 23  3 10  2 55 35.0000000  0  8G04G08G09G16G26G27G28G31            
  21269073.891 6 111769726.946 6  87093347.09147  21269087.02047
  21042536.758 6 110579280.557 6  86165740.43849  21042554.30149
  23516123.414 5 123578049.609 5  96294670.55948  23516141.15648
  21135736.313 6 111069034.660 6  86547340.51147  21135747.93047
  22513453.781 5 118308981.300 5  92188874.46347  22513473.18447
  19834376.883 7 104230350.570 7  81218505.18949  19834390.43049
  23672338.570 1 124398991.995 1                
  23109404.391 5 121440714.930 5  94629203.78947  23109427.43847
 23  3 10  2 55 36.0000000  0  8G04G08G09G16G26G27G28G31            
  21268462.164 6 111766512.025 6  87090841.95747  21268475.16447
  21041631.633 6 110574522.054 6  86162032.51449  21041648.71949
  23515208.734 4 123573240.779 4  96290923.42548  23515226.22348
  21135472.133 6 111067647.025 6  86546259.23648  21135483.72348
  22513332.234 5 118308341.712 5  92188376.07947  22513351.33647
  19833867.398 7 104227672.974 7  81216418.74549  19833880.82449
  23672332.484 1 124398955.146 1                
  23109319.922 5 121440271.467 5  94628858.22747  23109343.39847
 23  3 10  2 55 37.0000000  0  8G04G08G09G16G26G27G28G31            
  21267850.586 6 111763297.538 6  87088337.15347  21267863.44947
  21040725.961 6 110569763.881 6  86158324.85049  21040743.51249
  23514293.234 5 123568432.244 5  96287176.52348  23514310.73448
  21135207.992 6 111066259.391 6  86545177.96248  21135219.41848
  22513210.055 5 118307701.917 5  92187877.53747  22513229.38747
  19833357.766 7 104224995.903 7  81214332.71549  19833371.02349
  23672325.906 1 124398918.414 1                
  23109235.859 5 121439828.112 5  94628512.74347  23109258.74647
 23  3 10  2 55 38.0000000  0  8G04G08G09G16G26G27G28G31            
  21267238.953 6 111760083.592 6  87085832.77847  21267251.81347
  21039820.289 6 110565006.131 6  86154617.51349  21039837.69949
  23513377.844 4 123563624.063 4  96283429.89048  23513395.75048
  21134943.727 6 111064871.784 6  86544096.70248  21134955.55548
  22513088.844 5 118307062.007 5  92187378.89347  22513107.65247
  19832848.508 7 104222319.372 7  81212247.10449  19832861.78949
  23672318.109 1 124398881.919 1                
  23109151.469 5 121439384.884 5  94628167.37147  23109174.61347
 23  3 10  2 55 39.0000000  0  8G04G08G09G16G26G27G28G31            
  21266627.125 6 111756870.361 6  87083328.96347  21266640.91047
  21038915.375 6 110560248.984 6  86150910.64649  21038932.14549
  23512462.867 4 123558816.410 4  96279683.66948  23512481.23448
  21134679.867 6 111063484.388 6  86543015.60747  21134691.64547
  22512967.164 5 118306422.177 5  92186880.31847  22512986.46147
  19832339.234 7 104219643.646 7  81210162.11949  19832352.74649
  23672311.289 1 124398845.651 1                
  23109067.164 5 121438942.082 5  94627822.32447  23109090.20347
 23  3 10  2 55 40.0000000  0  8G04G08G09G16G26G27G28G31            
  21266016.055 6 111753657.870 6  87080825.71647  21266029.78147
  21038010.094 6 110555492.457 6  86147204.26349  21038027.31649
  23511548.125 4 123554009.358 4  96275937.91148  23511566.34448
  21134415.813 6 111062097.244 6  86541934.71248  21134427.66448
  22512845.180 5 118305782.419 5  92186381.79647  22512864.14847
  19831830.430 7 104216968.665 7  81208077.71549  19831843.63349
  23672304.813 1 124398809.887 1                
  23108982.859 5 121438499.598 5  94627477.52547  23109006.07847
 23  3 10  2 55 41.0000000  0  8G04G08G09G16G26G27G28G31            
  21265404.945 6 111750446.330 6  87078323.21147  21265418.19947
  21037105.688 6 110550736.727 6  86143498.49949  21037122.49249
  23510633.938 4 123549203.005 4  96272192.70048  23510651.82048
  21134152.078 6 111060710.562 6  86540854.16847  21134163.41447
  22512723.961 5 118305142.943 5  92185883.49247  22512742.50047
  19831321.289 7 104214294.681 7  81205994.09349  19831334.98449
  23672297.367 1 124398774.662 1                
  23108898.703 5 121438057.673 5  94627133.16547  23108922.19147
 23  3 10  2 55 42.0000000  0  8G04G08G09G16G26G27G28G31            
  21264793.695 6 111747235.219 6  87075821.04447  21264807.28547
  21036200.500 6 110545981.362 6  86139793.02549  21036217.30949
  23509719.805 4 123544396.988 4  96268447.75148  23509737.43448
  21133888.594 6 111059323.835 6  86539773.60048  21133900.07848
  22512602.125 5 118304503.299 5  92185385.06047  22512620.84047
  19830812.625 7 104211621.212 7  81203910.86549  19830826.21549
  23672291.648 1 124398739.562 1                
  23108815.180 5 121437615.908 5  94626788.92147  23108838.22347
 23  3 10  2 55 43.0000000  0  8G04G08G09G16G26G27G28G31            
  21264182.813 6 111744024.750 6  87073319.38147  21264196.50047
  21035296.070 6 110541226.555 6  86136087.98349  21035312.84849
  23508804.125 4 123539591.392 4  96264703.12448  23508822.33648
  21133623.906 6 111057937.242 6  86538693.13047  21133635.62947
  22512480.250 5 118303863.615 5  92184886.60247  22512499.41447
  19830303.758 7 104208948.407 7  81201828.16149  19830317.29749
  23672285.258 1 124398704.754 1                
  23108730.953 5 121437174.354 5  94626444.85347  23108754.35947
 23  3 10  2 55 44.0000000  0  8G04G08G09G16G26G27G28G31            
  21263571.422 6 111740815.024 6  87070818.30247  21263585.75847
  21034390.977 6 110536472.359 6  86132383.41149  21034407.82849
  23507889.617 4 123534786.389 4  96260958.96148  23507908.10948
  21133360.500 6 111056550.890 6  86537612.85447  21133372.13747
  22512358.906 5 118303224.004 5  92184388.19347  22512377.56347
  19829795.883 7 104206276.382 7  81199746.05949  19829809.47349
  23672277.539 1 124398670.278 1                
  23108646.813 5 121436733.190 5  94626101.08247  23108670.20747
 23  3 10  2 55 45.0000000  0  8G04G08G09G16G26G27G28G31            
  21262961.016 6 111737605.892 6  87068317.67547  21262975.31647
  21033486.023 6 110531718.634 6  86128679.21249  21033503.73449
  23506975.063 4 123529981.779 4  96257215.10948  23506993.92648
  21133096.523 6 111055164.646 6  86536532.65247  21133108.12947
  22512236.875 5 118302584.351 5  92183889.75147  22512255.90247
  19829287.188 7 104203604.992 7  81197664.45749  19829301.10249
  23672271.422 1 124398636.131 1                
  23108562.859 5 121436292.286 5  94625757.52047  23108586.86747
 23  3 10  2 55 46.0000000  0  8G04G08G09G16G26G27G28G31            
  21262350.945 6 111734397.586 6  87065817.68947  21262364.47347
  21032581.898 6 110526965.637 6  86124975.57749  21032598.98849
  23506062.359 4 123525177.826 4  96253471.77648  23506080.01648
  21132833.047 6 111053778.739 6  86535452.72648  21132844.87148
  22512115.172 5 118301944.865 5  92183391.44047  22512134.49647
  19828779.156 7 104200934.497 7  81195583.54949  19828792.78549
  23672264.359 1 124398602.352 1                
  23108478.586 5 121435851.826 5  94625414.30147  23108502.57447
 23  3 10  2 55 47.0000000  0  8G04G08G09G16G26G27G28G31            
  21261740.344 6 111731190.160 6  87063318.39047  21261754.07447
  21031677.688 6 110522213.423 6  86121272.55649  21031694.71549
  23505147.680 4 123520374.603 4  96249729.01448  23505165.64848
  21132569.023 6 111052393.214 6  86534373.09148  21132580.71548
  22511993.953 5 118301305.617 5  92182893.31947  22512012.59447
  19828270.945 7 104198264.930 7  81193503.36649  19828284.78549
  23672258.641 1 124398569.231 1                
  23108395.484 5 121435411.923 5  94625071.50447  23108419.12147
 23  3 10  2 55 48.0000000  0  8G04G08G09G16G26G27G28G31            
  21261129.953 6 111727983.434 6  87060819.64147  21261143.88347
  21030773.906 6 110517461.760 6  86117569.96549  21030790.25449
  23504234.695 4 123515571.846 4  96245986.61148  23504251.77348
  21132305.289 6 111051007.910 6  86533293.62748  21132317.62148
  22511872.078 5 118300666.436 5  92182395.24747  22511890.87147
  19827763.250 7 104195596.089 7  81191423.74749  19827776.79349
  23672251.867 1 124398536.336 1                
  23108311.227 5 121434972.320 5  94624728.95347  23108335.34847
 23  3 10  2 55 49.0000000  0  8G04G08G09G16G26G27G28G31            
  21260520.039 6 111724777.320 6  87058321.36347  21260534.01647
  21029869.617 6 110512710.590 6  86113867.76249  21029886.77749
  23503320.977 4 123510769.584 4  96242244.59448  23503338.06648
  21132042.242 6 111049622.717 6  86532214.25148  21132053.88748
  22511750.109 5 118300027.180 5  92181897.11247  22511769.37147
  19827255.375 7 104192927.916 7  81189344.64649  19827269.14849
  23672246.141 1 124398503.768 1                
  23108227.242 5 121434532.950 5  94624386.57547  23108252.19147
 23  3 10  2 55 50.0000000  0  8G04G08G09G16G26G27G28G31            
  21259909.719 6 111721571.719 6  87055823.48547  21259924.24247
  21028965.563 6 110507959.800 6  86110165.85049  21028982.71549
  23502406.367 4 123505967.630 4  96238502.81748  23502423.69948
  21131778.477 6 111048237.549 6  86531134.89348  21131789.78548
  22511628.516 5 118299387.821 5  92181398.90047  22511647.90647
  19826747.789 7 104190260.312 7  81187265.99549  19826761.26649
  23672239.180 1 124398471.312 1                
  23108144.523 5 121434093.822 5  94624044.39547  23108168.84047
 23  3 10  2 55 51.0000000  0  8G04G08G09G16G26G27G28G31            
  21259300.391 6 111718366.752 6  87053326.10147  21259313.77747
  21028061.344 6 110503209.530 6  86106464.34049  21028078.81649
  23501492.938 4 123501166.132 4  96234761.39648  23501510.55548
  21131514.625 6 111046852.528 6  86530055.65148  21131526.52748
  22511507.172 5 118298748.402 5  92180900.64147  22511526.27047
  19826240.273 7 104187593.376 7  81185187.85749  19826253.98049
  23672233.695 1 124398439.224 1                
  23108061.211 5 121433654.880 5  94623702.35747  23108084.75047
 23  3 10  2 55 52.0000000  0  8G04G08G09G16G26G27G28G31            
  21258690.398 6 111715162.560 6  87050829.32647  21258704.11347
  21027157.063 6 110498459.902 6  86102763.32949  21027174.80549
  23500579.734 4 123496365.237 4  96231020.43948  23500596.60548
  21131251.664 6 111045467.783 6  86528976.62748  21131263.31348
  22511385.352 5 118298109.148 5  92180402.51447  22511404.48047
  19825733.086 7 104184927.274 7  81183110.38149  19825746.84049
  23672226.453 1                                
  23107977.273 5 121433216.420 5  94623360.70547  23108001.17647
 23  3 10  2 55 53.0000000  0  8G04G08G09G16G26G27G28G31            
  21258080.469 6 111711959.166 6  87048333.17247  21258094.65647
  21026253.578 6 110493710.938 6  86099062.84049  21026271.05149
  23499666.211 5 123491565.005 5  96227280.00448  23499683.41448
  21130987.688 6 111044083.336 6  86527897.83348  21130999.81348
  22511263.727 5 118297470.001 5  92179904.47347  22511283.09447
  19825226.031 7 104182262.017 7  81181033.55449  19825239.87549
  23672218.383 1                                
  23107894.531 5 121432778.356 5  94623019.36147  23107918.43847
 23  3 10  2 55 54.0000000  0  8G04G08G09G16G26G27G28G31            
  21257471.758 6 111708756.455 6  87045837.55247  21257485.32447
  21025350.602 6 110488962.604 6  86095362.84249  21025367.53149
  23498753.383 4 123486765.247 4  96223539.93548  23498770.25848
  21130724.508 6 111042699.091 6  86526819.19548  21130735.71948
  22511141.922 5 118296830.911 5  92179406.47547  22511161.25447
  19824718.961 7 104179597.467 7  81178957.27949  19824732.57449
  23672211.844 1                                
  23107810.211 5 121432340.605 5  94622678.24647  23107834.47347
 23  3 10  2 55 55.0000000  0  8G04G08G09G16G26G27G28G31            
  21256862.313 6 111705554.453 6  87043342.48347  21256876.20747
  21024446.680 6 110484214.839 6  86091663.29149  21024464.25849
  23497839.352 4 123481966.047 4  96219800.29748  23497857.15648
  21130461.281 6 111041315.054 6  86525740.72248  21130472.82848
  22511021.281 5 118296191.915 5  92178908.55747  22511039.84847
  19824211.938 7 104176933.698 7  81176881.61449  19824225.39549
  23672207.250 1 124398314.83611                
  23107727.422 5 121431903.232 5  94622337.43447  23107751.57847
 23  3 10  2 55 56.0000000  0  8G04G08G09G16G26G27G28G31            
  21256252.836 6 111702352.989 6  87040847.83447  21256266.69547
  21023543.289 6 110479467.468 6  86087964.03949  21023560.80149
  23496925.711 4 123477167.156 4  96216060.90148  23496943.03548
  21130197.500 6 111039931.056 6  86524662.27948  21130209.44948
  22510899.055 5 118295552.780 5  92178410.52147  22510918.14847
  19823705.172 7 104174270.496 7  81174806.39049  19823719.10949
  23672200.664 1 124398284.470 1                
  23107644.281 5 121431466.024 5  94621996.73747  23107668.35547
 23  3 10  2 55 57.0000000  0  8G04G08G09G16G26G27G28G31            
  21255643.594 6 111699152.104 6  87038353.63147  21255657.76647
  21022639.617 6 110474720.545 6  86084265.13749  21022657.08249
  23496011.930 3 123472368.702 3  96212321.84248  23496030.51648
  21129934.523 6 111038547.138 6  86523583.89648  21129946.02348
  22510777.422 5 118294913.541 5  92177912.40347  22510796.33647
  19823198.719 7 104171607.918 7  81172731.65649  19823212.39549
  23672196.000 1                                
  23107561.547 5 121431029.018 5  94621656.20447  23107585.23047
 23  3 10  2 55 58.0000000  0  8G04G08G09G16G26G27G28G31            
  21255035.250 6 111695951.846 6  87035859.91947  21255048.57447
  21021737.266 6 110469974.157 6  86080566.65149  21021754.16049
  23495099.398 3 123467570.727 3  96208583.16448  23495117.35948
  21129671.047 6 111037163.384 6  86522505.65248  21129682.98848
  22510655.555 5 118294274.313 5  92177414.28247  22510674.71947
  19822692.094 7 104168946.027 7  81170657.45249  19822705.92649
  23672190.242 1                                
  23107477.945 5 121430592.258 5  94621315.86147  23107502.19547
 23  3 10  2 55 59.0000000  0  8G04G08G09G16G26G27G28G31            
  21254426.328 6 111692752.339 6  87033366.79547  21254440.01247
  21020833.859 6 110465228.411 6  86076868.67349  21020851.59049
  23494186.773 4 123462773.318 4  96204844.91648  23494204.51248
  21129407.883 6 111035779.876 6  86521427.59048  21129419.78148
  22510534.219 6 118293635.177 6  92176916.25247  22510553.33647
  19822185.797 7 104166284.940 7  81168583.87349  19822199.39549
  23672184.125 1                                
  23107395.664 5 121430156.004 5  94620975.92347  23107418.98447
 23  3 10  2 56  0.0000000  0  8G04G08G09G16G26G27G28G31            
  21253817.063 6 111689553.659 6  87030874.31347  21253831.25847
  21019930.625 6 110460483.356 6  86073171.23149  21019948.16449
  23493274.320 4 123457976.530 4  96201107.16048  23493291.76248
  21129144.805 6 111034396.666 6  86520349.75748  21129155.84448
  22510412.656 6 118292996.230 6  92176418.35647  22510431.60247
  19821679.805 7 104163624.683 7  81166510.94349  19821693.06349
  23672177.453 1                                
  23107312.117 5 121429720.134 5  94620636.28047  23107335.97747
 23  3 10  2 56  1.0000000  0  8G04G08G09G16G26G27G28G31            
  21253208.953 6 111686355.733 6  87028382.42548  21253222.77048
  21019027.609 6 110455738.959 6  86069474.29549  21019045.31349
  23492361.758 4 123453180.403 4  96197369.92248  23492379.01248
  21128881.727 6 111033013.747 6  86519272.15648  21128893.09448
  22510291.172 6 118292357.371 6  92175920.53347  22510309.95747
  19821173.453 7 104160965.279 7  81164438.68449  19821187.30549
  23672173.313 1                                
  23107228.875 5 121429284.690 5  94620296.97047  23107253.28147
 23  3 10  2 56  2.0000000  0  8G04G08G09G16G26G27G28G31            
  21252600.211 6 111683158.292 6  87025890.91247  21252613.94147
  21018125.406 6 110450994.903 6  86065777.62849  21018142.51649
  23491449.641 4 123448384.493 4  96193632.85448  23491466.55948
  21128618.656 6 111031630.813 6  86518194.54748  21128629.64148
  22510169.094 6 118291718.346 6  92175422.58547  22510188.57447
  19820667.453 7 104158306.397 7  81162366.82649  19820681.04349
  23672168.258 1 124398108.99011                
  23107147.188 5 121428849.355 5  94619957.74347  23107170.08647
 23  3 10  2 56  3.0000000  0  8G04G08G09G16G26G27G28G31            
  21251991.844 6 111679961.513 6  87023399.91348  21252006.05148
  21017222.703 6 110446251.385 6  86062081.38649  21017240.23449
  23490536.180 4 123443589.081 4  96189896.17148  23490553.61748
  21128355.641 6 111030248.043 6  86517117.05748  21128366.73848
  22510047.617 6 118291079.325 6  92174924.63747  22510067.00447
  19820161.906 7 104155648.195 7  81160295.49849  19820175.07049
  23672162.438 1 124398080.859 1                
  23107063.461 5 121428414.300 5  94619618.72647  23107087.69147
 23  3 10  2 56  4.0000000  0  7G04G08G09G16G26G27G31               
  21251384.180 6 111676765.575 6  87020909.56847  21251398.05547
  21016320.016 6 110441508.604 6  86058385.71049  21016337.41049
  23489624.109 4 123438794.353 4  96186160.02348  23489641.32048
  21128092.094 6 111028865.622 6  86516039.84348  21128103.38748
  22509926.016 5 118290440.503 5  92174426.84547  22509945.53147
  19819655.930 7 104152990.895 7  81158224.87049  19819669.75449
  23106981.164 5 121427979.755 5  94619280.10647  23107004.77347
 23  3 10  2 56  5.0000000  0  7G04G08G09G16G26G27G31               
  21250775.961 6 111673570.288 6  87018419.73147  21250789.86347
  21015417.430 6 110436766.373 6  86054690.46649  21015434.85549
  23488712.047 4 123434000.110 4  96182424.25348  23488729.05148
  21127829.000 6 111027483.352 6  86514962.74748  21127840.65648
  22509805.195 6 118289801.681 6  92173929.05047  22509823.96947
  19819150.539 7 104150334.277 7  81156154.77849  19819163.80149
  23106898.094 5 121427545.479 5  94618941.70147  23106922.73847
 23  3 10  2 56  6.0000000  0  7G04G08G09G16G26G27G31               
  21250168.438 6 111670375.602 6  87015930.36247  21250182.13747
  21014515.008 6 110432024.620 6  86050995.59449  21014532.44149
  23487799.664 4 123429206.306 4  96178688.82148  23487817.04348
  21127566.313 6 111026101.222 6  86513885.75748  21127578.02048
  22509683.305 5 118289162.816 5  92173431.22647  22509702.59847
  19818645.289 7 104147678.334 7  81154085.21749  19818658.45349
  23106815.164 5 121427111.455 5  94618603.49147  23106840.01247
 23  3 10  2 56  7.0000000  0  7G04G08G09G16G26G27G31               
  21249560.352 6 111667181.780 6  87013441.66547  21249574.10547
  21013612.875 6 110427283.634 6  86047301.31849  21013630.16449
  23486887.766 4 123424413.185 4  96174953.93048  23486904.87548
  21127303.438 6 111024719.412 6  86512809.01347  21127315.05947
  22509561.266 5 118288524.161 5  92172933.56347  22509580.53547
  19818140.039 7 104145023.275 7  81152016.34049  19818153.25049
  23106733.086 5 121426677.920 5  94618265.65947  23106757.62947
 23  3 10  2 56  8.0000000  0  7G04G08G09G16G26G27G31               
  21248953.148 6 111663988.578 6  87010953.45247  21248966.79347
  21012710.570 6 110422543.178 6  86043607.46049  21012728.68449
  23485975.461 5 123419620.501 5  96171219.37348  23485993.06348
  21127040.617 6 111023337.746 6  86511732.38847  21127052.15247
  22509439.742 6 118287885.453 6  92172435.85747  22509459.27347
  19817634.594 7 104142368.886 7  81149947.98349  19817647.80949
  23106650.703 5 121426244.634 5  94617928.03247  23106674.78147
 23  3 10  2 56  9.0000000  0  7G04G08G09G16G26G27G31               
  21248344.992 6 111660795.733 6  87008465.51547  21248358.86747
  21011808.734 6 110417802.938 6  86039913.76649  21011825.96149
  23485063.664 4 123414827.999 4  96167484.95948  23485081.06348
  21126777.625 6 111021955.959 6  86510655.66548  21126788.87148
  22509318.352 6 118287246.470 6  92171937.94347  22509337.74647
  19817129.828 7 104139714.909 7  81147879.94249  19817142.97349
  23106568.289 5 121425811.389 5  94617590.43347  23106592.48047
 23  3 10  2 56 10.0000000  0  7G04G08G09G16G26G27G31               
  21247738.008 6 111657603.693 6  87005978.21047  21247751.73047
  21010906.641 6 110413063.405 6  86036220.62349  21010924.31649
  23484151.391 4 123410036.127 4  96163751.03148  23484168.85948
  21126514.023 6 111020574.478 6  86509579.18847  21126526.02747
  22509197.406 6 118286607.641 6  92171440.14647  22509215.82447
  19816624.852 7 104137061.785 7  81145812.57549  19816638.41849
  23106485.789 5 121425378.548 5  94617253.14447  23106510.78947
 23  3 10  2 56 11.0000000  0  7G04G08G09G16G26G27G31               
  21247130.617 6 111654412.040 6  87003491.20448  21247144.21948
  21010005.016 6 110408324.082 6  86032527.64649  21010022.64149
  23483239.820 4 123405244.455 4  96160017.26948  23483257.16848
  21126251.188 6 111019192.862 6  86508502.60148  21126263.04748
  22509075.219 6 118285968.508 6  92170942.10547  22509094.58247
  19816120.289 7 104134409.081 7  81143745.53149  19816132.94149
  23106404.172 5 121424945.720 5  94616915.86147  23106428.20347
 23  3 10  2 56 12.0000000  0  7G04G08G09G16G26G27G31               
  21246523.594 6 111651220.976 6  87001004.65948  21246537.70348
  21009103.516 6 110403585.285 6  86028835.07449  21009120.60249
  23482327.766 4 123400453.213 4  96156283.83448  23482345.05548
  21125988.320 6 111017811.374 6  86507426.10948  21126000.05948
  22508953.469 5 118285329.380 5  92170444.07747  22508973.13347
  19815615.250 7 104131757.010 7  81141678.97949  19815628.45749
  23106321.906 5 121424513.165 5  94616578.79747  23106345.39547
 23  3 10  2 56 13.0000000  0  7G04G08G09G16G26G27G31               
  21245916.203 6 111648030.730 6  86998518.74948  21245929.97748
  21008201.242 6 110398847.169 6  86025143.04249  21008218.75049
  23481415.375 4 123395662.626 4  96152550.91748  23481433.48448
  21125725.484 6 111016430.177 6  86506349.84248  21125737.32848
  22508831.797 5 118284690.353 5  92169946.12247  22508851.33247
  19815110.922 7 104129105.811 7  81139613.11249  19815124.27349
  23106239.227 5 121424081.033 5  94616242.06347  23106263.37147
 23  3 10  2 56 14.0000000  0  7G04G08G09G16G26G27G31               
  21245309.375 6 111644841.297 6  86996033.47848  21245323.06648
  21007299.953 6 110394109.744 6  86021451.54549  21007317.55149
  23480504.586 4 123390872.650 4  96148818.47048  23480522.47348
  21125462.773 6 111015049.319 6  86505273.84848  21125474.79348
  22508710.313 5 118284051.528 5  92169448.32247  22508730.41447
  19814606.633 7 104126455.483 7  81137547.91749  19814619.48449
  23106157.031 5 121423649.380 5  94615905.70347  23106181.39147
 23  3 10  2 56 15.0000000  0  7G04G08G09G16G26G27G31               
  21244702.383 6 111641652.686 6  86993548.84248  21244716.46548
  21006398.297 6 110389373.036 6  86017760.60149  21006415.97749
  23479592.820 4 123386083.341 4  96145086.54348  23479611.11748
  21125200.469 6 111013668.792 6  86504198.10948  21125212.16848
  22508588.531 5 118283412.882 5  92168950.67747  22508608.40247
  19814102.367 7 104123806.005 7  81135483.39049  19814115.16049
  23106074.977 5 121423218.195 5  94615569.71047  23106099.52347
 23  3 10  2 56 16.0000000  0  7G04G08G09G16G26G27G31               
  21244095.625 6 111638464.534 6  86991064.56347  21244109.51247
  21005497.242 6 110384636.685 6  86014069.93849  21005514.68849
  23478681.766 4 123381294.337 4  96141354.85448  23478699.68048
  21124937.430 6 111012288.242 6  86503122.34948  21124949.21948
  22508467.602 5 118282774.025 5  92168452.85347  22508487.26247
  19813598.102 7 104121157.039 7  81133419.26549  19813611.24649
  23105993.094 5 121422787.097 5  94615233.78547  23106017.56347
 23  3 10  2 56 17.0000000  0  7G04G08G09G16G26G27G31               
  21243489.219 6 111635277.061 6  86988580.81947  21243503.00047
  21004595.938 6 110379900.854 6  86010379.67949  21004613.35249
  23477771.109 4 123376505.788 4  96137623.52548  23477788.46548
  21124675.117 6 111010907.849 6  86502046.71448  21124686.35548
  22508345.570 5 118282135.179 5  92167955.03747  22508365.35547
  19813094.250 7 104118508.776 7  81131355.67949  19813107.37949
  23105911.617 5 121422356.306 5  94614898.09447  23105935.40247
 23  3 10  2 56 18.0000000  0  7G04G08G09G16G26G27G31               
  21242882.961 6 111632090.393 6  86986097.68848  21242896.64148
  21003694.648 5 110375165.732 5  86006689.97149  21003712.12949
  23476859.883 4 123371717.913 4  96133892.72448  23476877.65248
  21124412.516 6 111009527.783 6  86500971.33348  21124424.07448
  22508224.141 5 118281496.546 5  92167457.39547  22508243.69547
  19812590.516 7 104115861.407 7  81129292.79349  19812603.61349
  23105829.563 5 121421925.969 5  94614562.75547  23105853.64147
 23  3 10  2 56 19.0000000  0  7G04G08G09G16G26G27G31               
  21242276.852 6 111628904.363 6  86983615.06847  21242290.43447
  21002794.172 5 110370431.153 5  86003000.69349  21002811.57049
  23475948.875 4 123366930.508 4  96130162.27648  23475966.46948
  21124149.836 6 111008147.866 6  86499896.07748  21124161.17648
  22508102.727 5 118280857.825 5  92166959.67747  22508121.96547
  19812086.703 7 104113214.692 7  81127230.41949  19812099.67249
  23105747.555 5 121421495.903 5  94614227.62947  23105771.87547
 23  3 10  2 56 20.0000000  0  7G04G08G09G16G26G27G31               
  21241671.031 6 111625719.066 6  86981133.02447  21241684.44547
  21001893.055 6 110365697.156 6  85999311.86549  21001910.35949
  23475037.906 4 123362143.624 4  96126432.24248  23475055.77348
  21123887.484 6 111006768.159 6  86498820.97347  21123898.57047
  22507981.469 5 118280219.204 5  92166462.04147  22508000.52047
  19811583.242 7 104110568.746 7  81125168.64449  19811596.35249
  23105665.586 5 121421066.201 5  94613892.78847  23105690.20747
 23  3 10  2 56 21.0000000  0  7G04G08G09G16G26G27G31               
  21241064.695 6 111622534.514 6  86978651.54747  21241078.39847
  21000992.391 5 110360963.823 5  85995623.55849  21001009.62549
  23474126.789 4 123357357.347 4  96122702.68248  23474144.75448
  21123624.969 6 111005388.711 6  86497746.07547  21123636.24647
  22507859.695 6 118279580.676 6  92165964.47947  22507879.30947
  19811080.039 7 104107923.604 7  81123107.49249  19811093.25449
  23105584.156 5 121420636.905 5  94613558.26847  23105608.29347
 23  3 10  2 56 22.0000000  0  7G04G08G09G16G26G27G31               
  21240458.445 6 111619350.497 6  86976170.49348  21240472.14848
  21000091.594 6 110356230.907 6  85991935.57149  21000108.90649
  23473216.125 4 123352571.439 4  96118973.40448  23473234.21148
  21123362.563 6 111004009.317 6  86496671.21748  21123373.82848
  22507738.086 6 118278942.064 6  92165466.85647  22507757.41847
  19810576.539 7 104105279.042 7  81121046.79549  19810589.69949
  23105502.555 5 121420207.788 5  94613223.88947  23105526.87947
 23  3 10  2 56 23.0000000  0  7G04G08G09G16G26G27G31               
  21239852.820 6 111616167.272 6  86973690.06048  21239866.91448
  20999191.492 6 110351498.667 6  85988248.11249  20999208.50049
  23472304.852 4 123347786.157 4  96115244.61548  23472323.12148
  21123100.383 6 111002630.226 6  86495596.60248  21123111.38748
  22507617.000 6 118278303.593 6  92164969.33647  22507636.09847
  19810073.805 7 104102635.338 7  81118986.76349  19810087.02349
  23105420.414 5 121419779.096 5  94612889.83747  23105444.93047
 23  3 10  2 56 24.0000000  0  7G04G08G09G16G26G27G31               
  21239247.156 6 111612984.783 6  86971210.19048  21239260.73448
  20998290.719 6 110346767.011 6  85984561.10949  20998307.96149
  23471395.047 4 123343001.404 4  96111516.23548  23471412.87148
  21122837.703 6 111001251.360 6  86494522.15248  21122848.94148
  22507495.625 6 118277665.158 6  92164471.84147  22507514.42647
  19809570.570 7 104099992.388 7  81116927.31849  19809583.64549
  23105339.461 5 121419350.765 5  94612556.06447  23105363.68847
 23  3 10  2 56 25.0000000  0  7G04G08G09G16G26G27G31               
  21238641.688 6 111609802.846 6  86968730.76248  21238655.19148
  20997390.727 6 110342035.800 6  85980874.44749  20997407.29349
  23470484.516 4 123338217.030 4  96107788.15348  23470502.47348
  21122575.328 6 110999872.562 6  86493447.76248  21122586.58648
  22507373.500 6 118277026.642 6  92163974.28447  22507393.36347
  19809068.102 7 104097350.054 7  81114868.35749  19809080.99649
  23105257.688 6 121418922.604 6  94612222.42647  23105281.92647
 23  3 10  2 56 26.0000000  0  7G04G08G09G16G26G27G31               
  21238036.305 6 111606621.570 6  86966251.84647  21238049.42247
  20996490.156 5 110337305.088 5  85977188.18249  20996507.49649
  23469574.102 4 123333433.146 4  96104060.45148  23469592.07848
  21122313.164 6 110998493.911 6  86492373.48248  21122323.95748
  22507251.875 5 118276388.138 5  92163476.74647  22507272.02747
  19808565.367 7 104094708.376 7  81112809.90449  19808578.25849
  23105176.594 5 121418494.763 5  94611889.03247  23105200.89547
 23  3 10  2 56 27.0000000  0  7G04G08G09G16G26G27G31               
  21237431.031 6 111603441.063 6  86963773.52648  21237444.67248
  20995590.305 5 110332575.092 5  85973502.47449  20995607.06649
  23468663.922 4 123328649.849 4  96100333.20748  23468682.34448
  21122050.555 6 110997115.559 6  86491299.43648  21122062.11348
  22507130.539 6 118275749.760 6  92162979.30247  22507149.95347
  19808062.578 7 104092067.578 7  81110752.13649  19808075.71149
  23105095.453 5 121418067.331 5  94611555.96347  23105120.00047
 23  3 10  2 56 28.0000000  0  7G04G08G09G16G26G27G31               
  21236826.016 6 111600261.532 6  86961295.96048  21236839.14148
  20994690.352 5 110327845.893 5  85969817.38549  20994707.27049
  23467753.891 4 123323867.395 4  96096606.61648  23467772.03948
  21121788.281 6 110995737.669 6  86490225.75248  21121800.19548
  22507009.359 5 118275111.696 5  92162482.10147  22507028.87147
  19807559.977 7 104089427.772 7  81108695.14449  19807573.53949
  23105013.617 5 121417640.510 5  94611223.36147  23105038.59447
 23  3 10  2 56 29.0000000  0  7G04G08G09G16G26G27G31               
  21236221.617 6 111597082.881 6  86958819.08747  21236234.46147
  20993790.242 5 110323117.484 5  85966132.91549  20993807.29749
  23466844.305 5 123319085.596 5  96092880.54348  23466862.28948
  21121526.305 6 110994360.167 6  86489152.36848  21121537.66848
  22506887.594 5 118274473.895 5  92161985.10447  22506907.70347
  19807058.156 7 104086788.888 7  81106638.87249  19807071.53949
  23104933.266 5 121417214.233 5  94610891.19347  23104956.88747
 23  3 10  2 56 30.0000000  0  7G04G08G09G16G26G27G31               
  21235616.086 6 111593904.706 6  86956342.58647  21235629.82047
  20992890.820 6 110318389.426 6  85962448.72049  20992907.79349
  23465934.102 5 123314304.146 5  96089154.73648  23465952.02748
  21121264.781 6 110992982.642 6  86488078.96148  21121275.46548
  22506766.070 6 118273835.859 6  92161487.92747  22506786.05147
  19806556.148 7 104084150.532 7  81104583.01049  19806569.46549
  23104852.352 6 121416788.025 6  94610559.07947  23104875.91847
 23  3 10  2 56 31.0000000  0  7G04G08G09G16G26G27G31               
  21235011.570 6 111590727.262 6  86953866.65147  21235025.08247
  20991991.266 6 110313661.985 6  85958765.00249  20992008.07049
  23465024.500 5 123309523.220 5  96085429.33848  23465042.32848
  21121002.922 6 110991605.362 6  86487005.74848  21121013.12548
  22506644.336 5 118273197.932 5  92160990.83047  22506664.54747
  19806053.969 7 104081512.946 7  81102527.74649  19806067.53149
  23104771.086 6 121416362.202 6  94610227.26447  23104795.30547
 23  3 10  2 56 32.0000000  0  7G04G08G09G16G26G27G31               
  21234407.406 6 111587550.487 6  86951391.23848  21234421.02348
  20991092.305 6 110308935.118 6  85955081.73049  20991108.92249
  23464114.805 5 123304742.807 5  96081704.34448  23464132.55548
  21120740.586 6 110990228.254 6  86485932.67647  21120751.09047
  22506523.391 6 118272560.014 6  92160493.74347  22506543.33647
  19805552.266 7 104078876.074 7  81100473.03349  19805565.73849
  23104689.938 5 121415936.702 5  94609895.70047  23104714.01647
 23  3 10  2 56 33.0000000  0  7G04G08G09G16G26G27G31               
  21233802.461 6 111584374.176 6  86948916.18348  21233816.50048
  20990192.422 6 110304208.603 6  85951398.72949  20990208.96949
  23463205.445 5 123299962.668 5  96077979.57348  23463223.18848
  21120478.523 6 110988851.109 6  86484859.57548  21120489.57048
  22506401.977 5 118271921.906 5  92159996.50247  22506421.69547
  19805050.648 7 104076239.709 7  81098418.72249  19805064.03149
  23104608.484 5 121415511.282 5  94609564.20047  23104633.08247
 23  3 10  2 56 34.0000000  0  7G04G08G09G16G26G27G31               
  21233198.633 6 111581198.363 6  86946441.52248  21233211.58648
  20989292.914 6 110299482.480 6  85947716.03949  20989309.72349
  23462296.133 5 123295182.923 5  96074255.09848  23462313.94148
  21120216.406 6 110987473.986 6  86483786.48148  21120227.12148
  22506280.617 6 118271283.667 6  92159499.16447  22506300.31347
  19804548.516 7 104073603.924 7  81096364.86449  19804562.18049
  23104527.875 6 121415086.039 6  94609232.83447  23104552.31647
 23  3 10  2 56 35.0000000  0  7G04G08G09G16G26G27G31               
  21232594.664 6 111578023.235 6  86943967.39847  21232607.28147
  20988393.617 6 110294756.925 6  85944033.78849  20988411.01649
  23461386.773 5 123290403.616 5  96070530.96948  23461404.62948
  21119954.203 6 110986097.028 6  86482713.52148  21119965.30948
  22506159.211 5 118270645.447 5  92159001.83947  22506179.18447
  19804047.500 7 104070968.826 7  81094311.53749  19804060.87549
  23104446.516 5 121414661.138 5  94608901.73147  23104471.47747
 23  3 10  2 56 36.0000000  0  7G04G08G09G16G26G27G31               
  21231990.211 6 111574848.741 6  86941493.76647  21232003.32047
  20987494.586 6 110290031.869 6  85940351.92649  20987511.66049
  23460477.203 5 123285624.768 5  96066807.19748  23460495.18848
  21119692.281 6 110984720.196 6  86481640.66648  21119703.27048
  22506038.039 5 118270007.177 5  92158504.47747  22506057.39547
  19803546.258 7 104068334.397 7  81092258.73849  19803559.84849
  23104365.805 5 121414236.397 5  94608570.75847  23104390.21947
 23  3 10  2 56 37.0000000  0  7G04G08G09G16G26G27G31               
  21231386.492 6 111571674.933 6  86939020.66348  21231399.26648
  20986595.195 6 110285307.401 6  85936670.52449  20986612.81349
  23459567.141 5 123280846.444 5  96063083.83248  23459585.90248
  21119430.344 6 110983343.581 6  86480567.97548  21119441.20748
  22505916.297 6 118269368.987 6  92158007.18747  22505935.87947
  19803045.086 7 104065700.721 7  81090206.52649  19803058.37549
  23104285.313 5 121413812.048 5  94608240.08847  23104309.91047
 23  3 10  2 56 38.0000000  0  7G04G08G09G16G26G27G31               
  21230782.406 6 111568501.734 6  86936548.03647  21230795.32447
  20985696.820 6 110280583.463 6  85932989.53449  20985713.71149
  23458657.570 4 123276068.594 4  96059360.83948  23458676.56648
  21119168.578 6 110981967.083 6  86479495.37248  21119179.32448
  22505795.250 5 118268730.747 5  92157509.84447  22505814.18847
  19802544.055 7 104063067.710 7  81088154.82649  19802557.67249
  23104204.313 5 121413387.942 5  94607909.60647  23104229.05947
 23  3 10  2 56 39.0000000  0  7G04G08G09G16G26G27G31               
  21230178.797 6 111565329.311 6  86934076.01947  21230191.72747
  20984797.883 6 110275860.172 6  85929309.04949  20984815.11349
  23457748.422 4 123271291.317 4  96055638.28948  23457767.53948
  21118906.313 6 110980590.825 6  86478422.95748  21118917.18848
  22505673.406 5 118268092.596 5  92157012.56847  22505692.98847
  19802043.047 7 104060435.493 7  81086103.74649  19802056.56649
  23104123.992 5 121412964.228 5  94607579.43847  23104148.64847
 23  3 10  2 56 40.0000000  0  7G04G08G09G16G26G27G31               
  21229574.859 6 111562157.447 6  86931604.42947  21229588.51647
  20983899.078 6 110271137.351 6  85925628.93849  20983916.26249
  23456839.094 4 123266514.470 4  96051916.06348  23456858.28948
  21118644.633 6 110979214.686 6  86477350.63848  21118655.67648
  22505552.313 6 118267454.407 6  92156515.27147  22505571.27347
  19801542.586 7 104057803.904 7  81084053.15349  19801556.13349
  23104043.602 5 121412540.772 5  94607249.46447  23104067.91047
 23  3 10  2 56 41.0000000  0  7G04G08G09G16G26G27G31               
  21228971.359 6 111558986.261 6  86929133.37547  21228985.04747
  20983000.609 6 110266415.081 6  85921949.24249  20983018.03549
  23455930.875 4 123261738.088 4  96048194.20348  23455949.61748
  21118382.828 6 110977838.688 6  86476278.43148  21118393.80148
  22505430.828 5 118266816.201 5  92156017.96047  22505450.08647
  19801041.695 7 104055173.023 7  81082003.11249  19801055.43049
  23103962.703 5 121412117.600 5  94606919.71247  23103987.05147
 23  3 10  2 56 42.0000000  0  7G04G08G09G16G26G27G31               
  21228368.359 6 111555815.901 6  86926662.96847  21228381.82847
  20982102.156 6 110261693.497 6  85918270.08449  20982119.18849
  23455022.070 4 123256962.405 4  96044472.88348  23455040.64848
  21118120.898 6 110976463.048 6  86475206.49848  21118132.26248
  22505309.938 5 118266178.226 5  92155520.82647  22505328.59447
  19800541.000 7 104052543.006 7  81079953.74949  19800554.47349
  23103882.500 5 121411694.912 5  94606590.33447  23103906.62547
 23  3 10  2 56 43.0000000  0  7G04G08G09G16G26G27G31               
  21227764.813 6 111552646.229 6  86924193.09147  21227778.23447
  20981203.430 6 110256972.471 6  85914591.36549  20981221.27749
  23454113.320 4 123252187.186 4  96040751.92848  23454132.22348
  21117859.180 6 110975087.565 6  86474134.68748  21117870.44948
  22505188.305 5 118265540.191 5  92155023.64547  22505207.40647
  19800040.938 7 104049913.726 7  81077904.95749  19800054.49249
  23103801.539 5 121411272.490 5  94606261.16947  23103826.33647
 23  3 10  2 56 44.0000000  0  7G04G08G09G16G26G27G31               
  21227162.367 6 111549477.150 6  86921723.66847  21227174.96947
  20980305.477 6 110252251.930 6  85910913.02049  20980322.47749
  23453204.828 4 123247412.376 4  96037031.29748  23453223.57448
  21117597.180 6 110973712.209 6  86473062.97247  21117608.61747
  22505066.750 5 118264902.166 5  92154526.47947  22505085.49247
  19799541.055 7 104047285.095 7  81075856.67449  19799554.23449
  23103721.750 5 121410850.351 5  94605932.22947  23103745.98847
 23  3 10  2 56 45.0000000  0  7G04G08G09G16G26G27G31               
  21226558.938 6 111546308.811 6  86919254.82647  21226572.08247
  20979406.945 6 110247532.029 6  85907235.18849  20979424.80549
  23452296.352 4 123242638.179 4  96033311.14648  23452314.76248
  21117335.656 6 110972337.105 6  86471991.45748  21117346.71548
  22504945.352 5 118264264.206 5  92154029.36247  22504964.01647
  19799040.805 7 104044657.238 7  81073808.98649  19799054.51249
  23103641.656 5 121410428.605 5  94605603.58947  23103665.54747
 23  3 10  2 56 46.0000000  0  7G04G08G09G16G26G27G31               
  21225956.172 6 111543140.985 6  86916786.39547  21225969.23847
  20978508.734 6 110242812.538 6  85903557.66149  20978526.62949
  23451388.547 4 123237864.314 4  96029591.25248  23451406.22348
  21117073.813 6 110970961.979 6  86470919.92848  21117085.50448
  22504823.617 5 118263626.095 5  92153532.12447  22504842.72747
  19798540.805 7 104042029.946 7  81071761.74449  19798554.52349
  23103561.242 5 121410006.968 5  94605275.03247  23103585.64547
 23  3 10  2 56 47.0000000  0  7G04G08G09G16G26G27G31               
  21225353.586 6 111539973.830 6  86914318.47847  21225366.06647
  20977611.023 6 110238093.563 6  85899880.53749  20977628.26649
  23450480.391 4 123233090.905 4  96025871.72048  23450498.30148
  21116812.523 6 110969587.062 6  86469848.56248  21116823.50448
  22504702.398 5 118262987.997 5  92153034.89347  22504721.57047
  19798041.156 7 104039403.357 7  81069715.05049  19798054.19949
  23103481.383 5 121409585.650 5  94604946.73247  23103505.02047
 23  3 10  2 56 48.0000000  0  7G04G08G09G16G26G27G31               
  21224751.117 6 111536807.100 6  86911850.88747  21224763.81647
  20976713.492 6 110233374.922 6  85896203.67449  20976730.68449
  23449572.531 4 123228317.797 4  96022152.42248  23449590.17648
  21116550.766 6 110968212.069 6  86468777.13748  21116561.52348
  22504580.945 5 118262349.694 5  92152537.50347  22504599.77347
  19797540.891 7 104036777.257 7  81067668.73849  19797554.66049
  23103400.797 5 121409164.425 5  94604618.49347  23103425.19947
 23  3 10  2 56 49.0000000  0  7G04G08G09G16G26G27G31               
  21224148.320 6 111533641.098 6  86909383.86247  21224161.34847
  20975815.586 6 110228656.812 6  85892527.23249  20975832.77749
  23448663.836 4 123223545.223 4  96018433.53548  23448682.04748
  21116289.055 6 110966837.287 6  86467705.86148  21116299.86348
  22504459.078 5 118261711.451 5  92152040.16047  22504478.33247
  19797041.836 7 104034151.897 7  81065623.00449  19797055.21549
  23103321.117 5 121408743.502 5  94604290.49947  23103345.16047
 23  3 10  2 56 50.0000000  0  7G04G08G09G16G26G27G31               
  21223546.117 6 111530476.028 6  86906917.56947  21223558.49247
  20974917.648 6 110223939.554 6  85888851.45149  20974935.24649
  23447755.414 4 123218773.426 4  96014715.25148  23447773.82448
  21116027.641 6 110965462.943 6  86466634.94348  21116038.49648
  22504337.289 5 118261073.521 5  92151543.06847  22504356.90647
  19796542.383 7 104031527.535 7  81063578.04249  19796555.89149
  23103240.969 5 121408323.210 5  94603962.99247  23103264.66447
 23  3 10  2 56 51.0000000  0  7G04G08G09G16G26G27G31               
  21222944.289 6 111527311.399 6  86904451.62647  21222956.75047
  20974020.523 6 110219222.656 6  85885175.94449  20974037.68049
  23446847.469 4 123214001.919 4  96010997.19848  23446865.97348
  21115766.219 6 110964088.585 6  86465564.01048  21115776.96948
  22504216.313 5 118260435.362 5  92151045.79347  22504235.24647
  19796043.000 7 104028903.679 7  81061533.47749  19796056.42649
  23103160.828 5 121407903.000 5  94603635.55347  23103184.79747
 23  3 10  2 56 52.0000000  0  7G04G08G09G16G26G27G31               
  21222342.594 6 111524147.604 6  86901986.33147  21222354.70747
  20973123.180 6 110214506.436 6  85881500.96649  20973140.44149
  23445939.539 4 123209231.036 4  96007279.63248  23445957.70348
  21115504.547 6 110962714.517 6  86464493.30748  21115515.27748
  22504094.922 5 118259797.357 5  92150548.64247  22504114.46547
  19795544.031 7 104026280.673 7  81059489.57449  19795557.29349
  23103081.453 5 121407483.218 5  94603308.44047  23103104.96147
 23  3 10  2 56 53.0000000  0  7G04G08G09G16G26G27G31               
  21221740.016 6 111520984.197 6  86899521.33447  21221752.82047
  20972225.148 6 110209790.537 6  85877826.24149  20972242.79349
  23445031.406 3 123204460.346 3  96003562.21948  23445050.49648
  21115243.297 6 110961340.374 6  86463422.53848  21115253.95748
  22503973.578 5 118259159.131 5  92150051.31347  22503992.83647
  19795044.766 7 104023658.105 7  81057446.01449  19795058.05949
  23103001.055 5 121407063.481 5  94602981.36747  23103025.21547
 23  3 10  2 56 54.0000000  0  7G04G08G09G16G26G27G31               
  21221138.078 6 111517821.430 6  86897056.84347  21221151.08247
  20971327.969 6 110205075.144 6  85874151.91149  20971345.60249
  23444123.820 3 123199690.191 3  95999845.21348  23444142.35248
  21114981.438 6 110959966.351 6  86462351.87348  21114992.42648
  22503851.648 5 118258520.872 5  92149553.95347  22503871.27347
  19794545.922 7 104021036.209 7  81055402.97649  19794559.44949
  23102921.125 5 121406644.039 5  94602654.52147  23102945.53547
 23  3 10  2 56 55.0000000  0  7G04G08G09G16G26G27G31               
  21220536.664 6 111514659.563 6  86894593.04547  21220549.21947
  20970430.891 6 110200360.549 6  85870478.19949  20970448.51649
  23443215.484 3 123194920.747 3  95996128.76248  23443234.66448
  21114720.250 6 110958592.693 6  86461281.48348  21114731.45348
  22503731.453 5 118257882.848 5  92149056.78747  22503750.13747
  19794047.367 7 104018415.282 7  81053360.69049  19794060.47349
  23102841.930 5 121406225.085 5  94602328.06247  23102865.94547
 23  3 10  2 56 56.0000000  0  7G04G08G09G16G26G27G31               
  21219934.813 6 111511498.317 6  86892129.73147  21219947.52747
  20969534.117 6 110195646.444 6  85866804.87449  20969551.45349
  23442307.516 3 123190151.770 3  95992412.66448  23442327.02748
  21114459.102 6 110957219.206 6  86460211.24347  21114469.64847
  22503609.164 5 118257244.813 5  92148559.60847  22503628.34847
  19793548.945 7 104015794.995 7  81051318.91049  19793562.23049
  23102761.734 5 121405806.431 5  94602001.82947  23102786.28147
 23  3 10  2 56 57.0000000  0  7G04G08G09G16G26G27G31               
  21219333.297 6 111508337.555 6  86889666.79247  21219346.18047
  20968637.305 6 110190932.743 6  85863131.86349  20968654.55949
  23441400.289 3 123185383.040 3  95988696.76148  23441419.69948
  21114197.555 6 110955845.720 6  86459140.98847  21114208.62947
  22503487.305 5 118256606.606 5  92148062.29047  22503506.59047
  19793050.141 7 104013175.250 7  81049277.54849  19793063.11749
  23102682.117 5 121405387.885 5  94601675.68747  23102706.54747
 23  3 10  2 56 58.0000000  0  7G04G08G09G16G26G27G31               
  21218732.125 6 111505177.350 6  86887204.29747  21218745.23047
  20967739.625 6 110186219.414 6  85859459.14349  20967758.01249
  23440493.758 3 123180614.730 3  95984981.19248  23440512.19548
  21113935.805 6 110954472.248 6  86458070.74048  21113947.28948
  22503366.438 5 118255968.289 5  92147564.88647  22503385.73447
  19792551.734 7 104010556.098 7  81047236.64749  19792565.24649
  23102602.898 5 121404969.545 5  94601349.69647  23102627.15647
 23  3 10  2 56 59.0000000  0  7G04G08G09G16G26G27G31               
  21218130.828 6 111502017.832 6  86884742.32547  21218143.85547
  20966843.359 6 110181506.681 6  85855786.88349  20966860.72349
  23439586.438 3 123175846.968 3  95981266.04848  23439605.22348
  21113674.961 6 110953099.008 6  86457000.68048  21113685.41048
  22503244.914 5 118255330.030 5  92147067.54047  22503263.50047
  19792053.406 7 104007937.703 7  81045196.33749  19792066.90649
  23102522.898 5 121404551.540 5  94601023.97547  23102547.56647
 23  3 10  2 57  0.0000000  0  7G04G08G09G16G26G27G31               
  21217529.758 6 111498859.059 6  86882280.94147  21217542.68847
  20965946.414 6 110176794.574 6  85852115.11649  20965964.17249
  23438680.016 3 123171079.723 3  95977551.31048  23438698.08248
  21113413.398 6 110951725.982 6  86455930.78148  21113424.28548
  22503123.469 5 118254691.835 5  92146570.23847  22503142.04747
  19791555.172 7 104005320.046 7  81043156.60649  19791568.85249
  23102443.141 5 121404133.886 5  94600698.52447  23102468.25447
 23  3 10  2 57  1.0000000  0  7G04G08G09G16G26G27G31               
  21216928.648 6 111495700.992 6  86879820.10247  21216941.92247
  20965050.617 6 110172083.093 6  85848443.83349  20965067.33649
  23437772.469 4 123166313.061 4  95973837.03448  23437790.88748
  21113152.289 6 110950353.166 6  86454861.05548  21113163.12148
  22503001.727 5 118254053.715 5  92146072.99247  22503020.50447
  19791057.117 7 104002703.186 7  81041117.49349  19791070.53549
  23102364.125 5 121403716.609 5  94600373.37547  23102388.48047
 23  3 10  2 57  2.0000000  0  7G04G08G09G16G26G27G31               
  21216327.641 6 111492543.538 6  86877359.74647  21216341.14847
  20964153.805 6 110167372.103 6  85844772.93049  20964171.09049
  23436865.875 4 123161546.776 4  95970123.05748  23436884.07048
  21112890.969 6 110948980.477 6  86453791.42648  21112901.82848
  22502880.695 5 118253415.541 5  92145575.70447  22502899.85947
  19790559.078 7 104000086.945 7  81039078.86649  19790572.57449
  23102284.328 5 121403299.548 5  94600048.39347  23102309.43047
 23  3 10  2 57  3.0000000  0  7G04G08G09G16G26G27G31               
  21215727.352 6 111489387.036 6  86874900.13647  21215740.68847
  20963257.742 6 110162661.955 6  85841102.68949  20963274.86349
  23435959.203 4 123156781.311 4  95966409.71348  23435976.96148
  21112630.336 6 110947608.241 6  86452722.14648  21112640.83248
  22502759.078 5 118252777.684 5  92145078.66247  22502777.82847
  19790061.984 7 103997471.718 7  81037041.02149  19790075.20749
  23102205.328 5 121402883.138 5  94599723.91347  23102230.10947
 23  3 10  2 57  4.0000000  0  7G04G08G09G16G26G27G31               
  21215126.938 6 111486231.258 6  86872441.09147  21215139.51647
  20962361.484 6 110157952.426 6  85837432.92749  20962378.24649
  23435052.023 4 123152016.377 4  95962696.78148  23435070.25048
  21112368.773 6 110946236.229 6  86451653.04648  21112379.41048
  22502638.352 5 118252139.877 5  92144581.65747  22502656.60547
  19789564.031 7 103994857.266 7  81035003.78849  19789577.60949
  23102125.922 5 121402467.046 5  94599399.68147  23102150.72747
 23  3 10  2 57  5.0000000  0  7G04G08G09G16G26G27G31               
  21214526.164 6 111483076.203 6  86869982.60647  21214539.32447
  20961465.211 6 110153243.522 6  85833763.64849  20961482.30149
  23434145.891 4 123147252.056 4  95958984.33148  23434163.91448
  21112107.453 6 110944864.449 6  86450584.13248  21112118.40648
  22502516.461 5 118251502.158 5  92144084.72547  22502535.37947
  19789066.445 7 103992243.579 7  81032967.14849  19789080.21149
  23102046.477 5 121402051.293 5  94599075.70947  23102071.78147
 23  3 10  2 57  6.0000000  0  7G04G08G09G16G26G27G31               
  21213925.813 6 111479921.720 6  86867524.56047  21213939.06347
  20960569.586 6 110148535.052 6  85830094.71249  20960586.39149
  23433239.031 4 123142488.112 4  95955272.16748  23433257.21548
  21111846.430 6 110943492.728 6  86449515.25548  21111857.66848
  22502395.148 5 118250864.347 5  92143587.72247  22502414.16447
  19788569.258 7 103989630.490 7  81030930.97449  19788582.78149
  23101967.875 5 121401635.801 5  94598751.95147  23101993.23847
 23  3 10  2 57  7.0000000  0  7G04G08G09G16G26G27G31               
  21213325.781 6 111476767.908 6  86865067.04347  21213338.93047
  20959672.875 6 110143827.109 6  85826426.18649  20959690.84449
  23432331.797 4 123137724.638 4  95951560.37348  23432350.62148
  21111585.758 6 110942121.171 6  86448446.50547  21111596.62947
  22502274.063 5 118250226.558 5  92143090.73447  22502292.63747
  19788072.352 7 103987018.129 7  81028895.36849  19788085.48049
  23101888.930 5 121401220.570 5  94598428.38647  23101913.87147
 23  3 10  2 57  8.0000000  0  7G04G08G09G16G26G27G31               
  21212726.227 6 111473614.873 6  86862610.12347  21212739.28147
  20958777.766 6 110139119.845 6  85822758.18849  20958794.85949
  23431425.070 4 123132961.786 4  95947849.06348  23431444.72748
  21111324.555 6 110940749.935 6  86447378.00047  21111335.39547
  22502152.547 5 118249588.871 5  92142593.81947  22502171.64147
  19787575.508 7 103984406.599 7  81026860.40849  19787589.01649
  23101810.305 5 121400805.749 5  94598105.14747  23101834.83247
 23  3 10  2 57  9.0000000  0  7G04G08G09G16G26G27G31               
  21212126.188 6 111470462.654 6  86860153.84947  21212138.86747
  20957882.008 6 110134413.272 6  85819090.72849  20957898.92249
  23430518.984 4 123128199.611 4  95944138.28148  23430538.00448
  21111063.891 6 110939378.986 6  86446309.72647  21111074.88347
  22502031.016 5 118248951.400 5  92142097.08347  22502050.35947
  19787078.953 7 103981795.908 7  81024826.10349  19787092.05549
  23101730.891 5 121400391.464 5  94597782.32147  23101756.59447
 23  3 10  2 57 10.0000000  0  7G04G08G09G16G26G27G31               
  21211526.289 6 111467311.398 6  86857698.32147  21211539.57447
  20956985.961 6 110129707.551 6  85815423.93049  20957003.82049
  23429613.180 4 123123438.161 4  95940428.05948  23429632.07848
  21110803.367 6 110938008.480 6  86445241.79647  21110813.96147
  22501910.367 5 118248314.165 5  92141600.52447  22501928.87147
  19786581.891 7 103979186.224 7  81022792.58549  19786595.39849
  23101652.117 5 121399977.710 5  94597459.90947  23101677.54747
 23  3 10  2 57 11.0000000  0  7G04G08G09G16G26G27G31               
  21210926.641 6 111464160.896 6  86855243.38447  21210940.15247
  20956091.250 6 110125002.478 6  85811757.64049  20956108.34449
  23428706.438 4 123118677.372 4  95936718.34648  23428725.85248
  21110542.609 6 110936638.279 6  86444174.10447  21110553.38747
  22501789.156 5 118247677.071 5  92141104.08147  22501807.62147
  19786085.734 7 103976577.353 7  81020759.69649  19786098.99249
  23101573.406 5 121399564.374 5  94597137.81547  23101598.51247
 23  3 10  2 57 12.0000000  0  7G04G08G09G16G26G27G31               
  21210327.789 6 111461010.705 6  86852788.68947  21210340.74647
  20955195.688 6 110120297.620 6  85808091.52049  20955213.07849
  23427800.813 4 123113916.718 4  95933008.74148  23427819.88748
  21110281.141 6 110935267.848 6  86443106.23247  21110292.50847
  22501667.695 5 118247039.640 5  92140607.37747  22501686.47747
  19785589.336 7 103973968.813 7  81018727.06449  19785602.62149
  23101494.117 5 121399150.965 5  94596815.67747  23101519.92247
 23  3 10  2 57 13.0000000  0  7G04G08G09G16G26G27G31               
  21209727.859 6 111457861.007 6  86850334.37647  21209741.44147
  20954300.406 6 110115593.149 6  85804425.69849  20954317.82049
  23426895.375 4 123109156.310 4  95929299.32748  23426914.53148
  21110020.906 6 110933897.446 6  86442038.38448  21110031.88348
  22501545.875 5 118246402.048 5  92140110.54147  22501565.21547
  19785092.883 7 103971360.835 7  81016694.87449  19785106.25049
  23101416.297 5 121398737.698 5  94596493.65047  23101441.05547
 23  3 10  2 57 14.0000000  0  7G04G08G09G16G26G27G31               
  21209128.859 6 111454711.890 6  86847880.51947  21209141.84047
  20953405.047 6 110110889.112 6  85800760.22049  20953422.45349
  23425989.953 4 123104396.379 4  95925590.28648  23426008.30148
  21109759.797 6 110932527.104 6  86440970.58148  21109771.04348
  22501424.469 5 118245764.378 5  92139613.65047  22501443.87547
  19784596.859 7 103968753.481 7  81014663.16749  19784609.64549
  23101337.438 5 121398324.679 5  94596171.81847  23101362.88347
 23  3 10  2 57 15.0000000  0  7G04G08G09G16G26G27G31               
  21208529.703 6 111451563.294 6  86845427.06347  21208543.18047
  20952509.953 6 110106185.483 6  85797095.05349  20952527.45349
  23425084.125 4 123099636.768 4  95921881.50048  23425102.91848
  21109499.180 6 110931156.789 6  86439902.79848  21109510.24648
  22501303.258 5 118245126.562 5  92139116.64047  22501322.58647
  19784100.758 7 103966146.649 7  81012631.86349  19784113.87549
  23101259.289 5 121397911.769 5  94595850.06647  23101283.95747
 23  3 10  2 57 16.0000000  0  7G04G08G09G16G26G27G31               
  21207930.875 6 111448415.323 6  86842974.09147  21207943.87147
  20951615.539 6 110101482.340 6  85793430.27449  20951632.71549
  23424178.539 4 123094877.622 4  95918173.07448  23424197.05548
  21109238.641 6 110929786.561 6  86438835.08548  21109249.15248
  22501182.523 5 118244488.711 5  92138619.60147  22501201.34047
  19783604.617 7 103963540.504 7  81010601.10449  19783617.50049
  23101180.609 5 121397499.122 5  94595528.51547  23101205.55147
 23  3 10  2 57 17.0000000  0  7G04G08G09G16G26G27G31               
  21207331.688 6 111445268.009 6  86840521.63248  21207344.99248
  20950720.570 6 110096779.792 6  85789765.95049  20950737.60549
  23423273.070 4 123090118.972 4  95914465.03848  23423292.06348
  21108978.094 6 110928416.560 6  86437767.54848  21108988.97748
  22501060.953 5 118243850.896 5  92138122.60347  22501080.02347
  19783109.086 7 103960935.104 7  81008570.91849  19783122.04349
  23101102.102 5 121397086.827 5  94595207.23647  23101127.17247
 23  3 10  2 57 18.0000000  0  7G04G08G09G16G26G27G31               
  21206732.805 6 111442121.604 6  86838069.88347  21206746.37147
  20949825.414 6 110092078.004 6  85786102.22349  20949842.71949
  23422367.727 4 123085361.079 4  95910757.59548  23422386.36348
  21108717.242 6 110927046.940 6  86436700.31148  21108727.91048
  22500940.055 5 118243213.307 5  92137625.77647  22500958.21547
  19782613.375 7 103958330.619 7  81006541.44749  19782626.30949
  23101024.008 5 121396675.059 5  94594886.38047  23101048.66847
 23  3 10  2 57 19.0000000  0  7G04G08G09G16G26G27G31               
  21206134.438 6 111438975.847 6  86835618.64647  21206147.85947
  20948930.977 6 110087376.774 6  85782438.92749  20948948.12149
  23421462.375 4 123080603.609 4  95907050.47548  23421481.09448
  21108456.734 6 110925677.477 6  86435633.19147  21108467.69947
  22500818.063 5 118242575.714 5  92137128.94047  22500837.00447
  19782117.938 7 103955726.836 7  81004512.52749  19782131.20749
  23100945.961 5 121396263.559 5  94594565.72147  23100970.25447
 23  3 10  2 57 20.0000000  0  7G04G08G09G16G26G27G31               
  21205535.695 6 111435830.678 6  86833167.85747  21205549.16447
  20948036.477 6 110082676.014 6  85778776.00349  20948053.93049
  23420557.844 4 123075846.558 4  95903343.68848  23420576.04348
  21108196.094 6 110924308.088 6  86434566.13348  21108207.35948
  22500696.891 5 118241938.084 5  92136632.07547  22500715.58647
  19781622.445 7 103953123.686 7  81002484.09349  19781635.78949
  23100867.250 5 121395852.310 5  94594245.26247  23100892.18447
 23  3 10  2 57 21.0000000  0  7G04G08G09G16G26G27G31               
  21204937.148 6 111432686.120 6  86830717.55347  21204950.81347
  20947142.531 6 110077975.725 6  85775113.43849  20947159.35949
  23419651.953 5 123071089.986 5  95899637.27148  23419670.69548
  21107935.406 6 110922938.781 6  86433499.13448  21107946.53948
  22500575.773 5 118241300.392 5  92136135.15447  22500594.16847
  19781127.297 7 103950521.168 7  81000456.15649  19781140.39549
  23100789.359 5 121395441.303 5  94593924.99147  23100814.03547
 23  3 10  2 57 22.0000000  0  7G04G08G09G16G26G27G31               
  21204338.789 6 111429542.218 6  86828267.75547  21204352.38747
  20946247.422 6 110073276.007 6  85771451.31849  20946264.71949
  23418746.609 4 123066333.915 4  95895931.24448  23418765.68048
  21107674.750 6 110921569.675 6  86432432.29848  21107686.34448
  22500454.320 5 118240662.737 5  92135638.27147  22500473.15647
  19780632.039 7 103947919.389 7  80998428.78749  19780645.25049
  23100710.883 5 121395030.521 5  94593604.89847  23100735.35547
 23  3 10  2 57 23.0000000  0  7G04G08G09G16G26G27G31               
  21203740.539 6 111426399.158 6  86825818.62047  21203754.52347
  20945353.430 6 110068576.969 6  85767789.73649  20945370.59049
  23417841.516 4 123061578.457 4  95892225.69648  23417860.72348
  21107414.727 6 110920200.897 6  86431365.71048  21107425.83648
  22500332.891 5 118240025.200 5  92135141.48547  22500351.52047
  19780137.102 7 103945318.451 7  80996402.08049  19780150.21949
  23100632.656 5 121394620.310 5  94593285.24947  23100657.60547
 23  3 10  2 57 24.0000000  0  7G04G08G09G16G26G27G31               
  21203143.031 6 111423256.746 6  86823369.98447  21203156.58247
  20944459.625 6 110063878.526 6  85764128.60949  20944476.10249
  23416936.703 4 123056823.536 4  95888520.56348  23416955.91048
  21107154.383 6 110918832.269 6  86430299.23948  21107165.02748
  22500211.406 5 118239387.730 5  92134644.74847  22500230.56347
  19779642.367 7 103942718.222 7  80994375.92549  19779655.58649
  23100554.953 5 121394210.340 5  94592965.77647  23100579.59447
 23  3 10  2 57 25.0000000  0  7G04G08G09G16G26G27G31               
  21202545.313 6 111420115.152 6  86820921.98947  21202558.92647
  20943565.547 6 110059180.754 6  85760468.01049  20943582.72749
  23416032.008 4 123052069.212 4  95884815.89548  23416051.00048
  21106893.594 6 110917463.952 6  86429233.01548  21106904.79748
  22500090.375 5 118238750.384 5  92134148.11347  22500108.72747
  19779147.797 7 103940118.863 7  80992350.45449  19779161.04749
  23100476.836 5 121393800.822 5  94592646.67047  23100501.79347
 23  3 10  2 57 26.0000000  0  7G04G08G09G16G26G27G31               
  21201947.508 6 111416974.157 6  86818474.45648  21201961.07848
  20942671.844 6 110054483.495 6  85756807.81349  20942688.77349
  23415127.305 4 123047315.363 4  95881111.59548  23415146.24648
  21106633.234 6 110916095.771 6  86428166.89548  21106644.95748
  22499968.992 5 118238112.990 5  92133651.43947  22499988.01247
  19778653.164 7 103937520.138 7  80990325.46849  19778666.10949
  23100398.961 5 121393391.563 5  94592327.75747  23100424.08647
 23  3 10  2 57 27.0000000  0  7G04G08G09G16G26G27G31               
  21201349.969 6 111413833.741 6  86816027.37847  21201363.64547
  20941778.219 6 110049786.715 6  85753147.98949  20941794.94949
  23414223.039 4 123042561.918 4  95877407.60848  23414241.51648
  21106373.133 6 110914727.633 6  86427100.81148  21106384.18048
  22499847.898 5 118237475.531 5  92133154.71047  22499866.80147
  19778158.844 7 103934922.039 7  80988300.97549  19778171.95749
  23100322.039 5 121392982.536 5  94592009.03147  23100346.03947
 23  3 10  2 57 28.0000000  0  7G04G08G09G16G26G27G31               
  21200752.375 6 111410694.004 6  86813580.82047  21200765.98447
  20940884.305 6 110045090.410 6  85749488.53149  20940901.19549
  23413318.891 4 123037808.938 4  95873703.98648  23413337.11748
  21106112.727 6 110913359.674 6  86426034.86848  21106123.86348
  22499727.148 5 118236838.086 5  92132657.98347  22499745.43047
  19777664.563 7 103932324.641 7  80986277.02549  19777677.63749
  23100243.945 5 121392573.771 5  94591690.50747  23100268.45747
 23  3 10  2 57 29.0000000  0  7G04G08G09G16G26G27G31               
  21200154.797 6 111407555.131 6  86811134.94047  21200168.41047
  20939991.000 6 110040394.909 6  85745829.69749  20940007.31349
  23412413.500 4 123033056.707 4  95870000.94748  23412432.84848
  21105852.570 6 110911992.087 6  86424969.21148  21105863.65648
  22499605.578 5 118236200.849 5  92132161.42147  22499624.59447
  19777170.656 7 103929728.174 7  80984253.80549  19777183.53949
  23100165.820 5 121392165.548 5  94591372.41047  23100190.73447
 23  3 10  2 57 30.0000000  0  7G04G08G09G16G26G27G31               
  21199557.484 6 111404417.003 6  86808689.64447  21199571.77347
  20939097.516 6 110035700.021 6  85742171.34249  20939114.27749
  23411510.391 5 123028305.053 5  95866298.35048  23411528.95348
  21105592.141 6 110910624.733 6  86423903.73147  21105603.66847
  22499484.195 5 118235563.720 5  92131664.94447  22499503.08247
  19776676.375 7 103927132.480 7  80982231.18149  19776689.71949
  23100088.055 5 121391757.698 5  94591054.60847  23100112.84447
 23  3 10  2 57 31.0000000  0  7G04G08G09G16G26G27G31               
  21198960.461 6 111401279.449 6  86806244.79347  21198974.57047
  20938204.219 6 110031005.609 6  85738513.35749  20938220.78949
  23410605.789 4 123023553.734 4  95862596.02848  23410624.64548
  21105331.875 6 110909257.481 6  86422838.34147  21105343.38347
  22499362.852 5 118234926.457 5  92131168.36447  22499382.16447
  19776182.570 7 103924537.393 7  80980209.03549  19776195.75049
  23100010.977 5 121391350.054 5  94590736.95947  23100035.42647
 23  3 10  2 57 32.0000000  0  7G04G08G09G16G26G27G31               
  21198363.836 6 111398142.455 6  86803800.37647  21198377.67647
  20937310.656 6 110026311.645 6  85734855.72549  20937327.80949
  23409701.969 4 123018802.899 4  95858894.08048  23409720.60948
  21105071.836 6 110907890.277 6  86421772.98248  21105083.09848
  22499241.547 5 118234289.178 5  92130671.77147  22499260.78147
  19775689.000 7 103921942.950 7  80978187.38749  19775701.93449
  23099933.156 5 121390942.594 5  94590419.45147  23099958.09447
 23  3 10  2 57 33.0000000  0  7G04G08G09G16G26G27G31               
  21197766.805 6 111395006.100 6  86801356.46347  21197780.62147
  20936417.742 6 110021618.217 6  85731198.50949  20936434.58649
  23408797.297 5 123014052.506 5  95855192.47848  23408816.51648
  21104811.883 6 110906523.257 6  86420707.77147  21104823.26247
  22499120.633 5 118233651.854 5  92130175.15447  22499139.64147
  19775195.266 7 103919349.173 7  80976166.26049  19775208.42249
  23099855.938 5 121390535.449 5  94590102.19347  23099880.28947
 23  3 10  2 57 34.0000000  0  7G04G08G09G16G26G27G31               
  21197170.250 6 111391870.408 6  86798913.07147  21197183.85547
  20935524.594 6 110016925.310 6  85727541.70249  20935541.77349
  23407893.992 5 123009302.539 5  95851491.20348  23407912.29348
  21104551.617 6 110905156.312 6  86419642.61147  21104562.95747
  22498999.180 5 118233014.531 5  92129678.54247  22499018.44947
  19774701.734 7 103916756.073 7  80974145.66249  19774715.03549
  23099778.328 5 121390128.582 5  94589785.15347  23099803.15247
 23  3 10  2 57 35.0000000  0  7G04G08G09G16G26G27G31               
  21196573.516 6 111388735.499 6  86796470.27747  21196587.32047
  20934631.727 6 110012233.088 6  85723885.42549  20934648.75449
  23406990.914 5 123004553.242 5  95847790.45748  23407009.07448
  21104291.531 6 110903789.702 6  86418577.72148  21104302.96948
  22498878.078 5 118232377.326 5  92129182.01147  22498896.97747
  19774208.500 7 103914163.808 7  80972125.71449  19774221.60249
  23099701.281 5 121389722.142 5  94589468.43847  23099725.83247
 23  3 10  2 57 36.0000000  0  7G04G08G09G16G26G27G31               
  21195977.031 6 111385601.222 6  86794027.98147  21195990.81647
  20933739.469 6 110007541.373 6  85720229.54249  20933756.18049
  23406086.578 5 122999804.380 5  95844090.05148  23406104.94948
  21104031.242 6 110902423.182 6  86417512.89648  21104042.81648
  22498756.664 5 118231740.104 5  92128685.45647  22498776.23047
  19773715.617 7 103911572.221 7  80970106.29449  19773728.43449
  23099623.867 5 121389315.938 5  94589151.90947  23099648.15647
 23  3 10  2 57 37.0000000  0  7G04G08G09G16G26G27G31               
  21195380.914 6 111382467.588 6  86791586.17947  21195394.60947
  20932846.289 6 110002850.173 6  85716574.06249  20932863.44149
  23405183.313 5 122995056.011 5  95840390.02348  23405201.49248
  21103771.367 6 110901056.825 6  86416448.19247  21103783.18447
  22498635.203 5 118231102.860 5  92128188.89147  22498654.38347
  19773222.922 7 103908981.312 7  80968087.40249  19773235.50849
  23099547.086 5 121388910.029 5  94588835.60947  23099571.55947
 23  3 10  2 57 38.0000000  0  7G04G08G09G16G26G27G31               
  21194784.875 6 111379334.562 6  86789144.85847  21194798.63747
  20931953.906 6 109998159.538 6  85712919.02849  20931970.36349
  23404279.555 5 122990308.099 5  95836690.35548  23404297.85248
  21103511.609 6 110899690.632 6  86415383.62248  21103523.26648
  22498514.523 5 118230465.602 5  92127692.32047  22498533.52047
  19772729.609 7 103906391.088 7  80966069.04849  19772742.19949
  23099469.781 5 121388504.393 5  94588519.52947  23099494.37547
 23  3 10  2 57 39.0000000  0  7G04G08G09G16G26G27G31               
  21194189.023 6 111376202.284 6  86786704.12147  21194202.59447
  20931061.367 6 109993469.492 6  85709264.44249  20931078.07449
  23403376.289 5 122985560.750 5  95832991.12648  23403394.39548
  21103251.039 6 110898324.626 6  86414319.20048  21103262.61348
  22498393.414 5 118229828.431 5  92127195.81447  22498412.21947
  19772237.063 7 103903801.632 7  80964051.28949  19772249.55549
  23099392.688 5 121388099.155 5  94588203.75447  23099416.93847
 23  3 10  2 57 40.0000000  0  7G04G08G09G16G26G27G31               
  21193593.055 6 111373070.840 6  86784264.03248  21193606.93848
  20930168.633 6 109988780.169 6  85705610.42349  20930186.01649
  23402473.078 5 122980814.037 5  95829292.38948  23402491.17248
  21102991.305 6 110896958.970 6  86413255.04747  21103003.04347
  22498272.164 5 118229191.432 5  92126699.44047  22498290.81347
  19771744.305 7 103901213.054 7  80962034.21649  19771756.94549
  23099315.844 5 121387694.332 5  94587888.30647  23099340.01647
 23  3 10  2 57 41.0000000  0  7G04G08G09G16G26G27G31               
  21192997.391 6 111369939.896 6  86781824.33047  21193011.04747
  20929276.484 6 109984091.211 6  85701956.68649  20929293.48049
  23401570.055 5 122976067.714 5  95825593.95648  23401588.19148
  21102732.078 6 110895593.291 6  86412190.87948  21102743.75048
  22498151.141 5 118228554.301 5  92126202.97047  22498169.77047
  19771251.820 7 103898625.021 7  80960017.56249  19771264.94949
  23099238.750 5 121387289.706 5  94587573.00847  23099263.24647
 23  3 10  2 57 42.0000000  0  7G04G08G09G16G26G27G31               
  21192401.445 6 111366809.530 6  86779385.08247  21192415.40647
  20928384.523 6 109979402.744 6  85698303.33749  20928400.97749
  23400667.055 5 122971321.805 5  95821895.84548  23400685.15248
  21102472.031 6 110894227.740 6  86411126.80947  21102483.56647
  22498029.367 5 118227917.070 5  92125706.41447  22498048.48047
  19770759.563 7 103896037.606 7  80958001.38949  19770772.65249
  23099161.664 5 121386885.264 5  94587257.84747  23099185.96947
 23  3 10  2 57 43.0000000  0  7G04G08G09G16G26G27G31               
  21191805.328 6 111363679.962 6  86776946.45147  21191819.50047
  20927491.820 6 109974714.911 6  85694650.47949  20927508.80149
  23399763.664 5 122966576.435 5  95818198.14948  23399781.95748
  21102212.242 6 110892862.441 6  86410062.93847  21102223.80947
  22497907.711 5 118227279.967 5  92125209.96847  22497927.23447
  19770267.328 7 103893451.012 7  80955985.85849  19770280.32049
  23099084.258 5 121386481.249 5  94586943.02247  23099109.31647
 23  3 10  2 57 44.0000000  0  7G04G08G09G16G26G27G31               
  21191210.289 6 111360550.889 6  86774508.21047  21191224.32447
  20926599.984 6 109970027.511 6  85690997.96449  20926617.14849
  23398860.523 5 122961831.472 5  95814500.77548  23398878.55948
  21101952.656 6 110891497.157 6  86408999.07547  21101964.26247
  22497786.922 5 118226642.749 5  92124713.41747  22497805.81347
  19769775.344 7 103890864.980 7  80953970.77249  19769788.19949
  23099007.617 5 121386077.379 5  94586628.32147  23099032.80947
 23  3 10  2 57 45.0000000  0  7G04G08G09G16G26G27G31               
  21190614.922 6 111357422.513 6  86772070.51947  21190628.66847
  20925708.438 6 109965340.691 6  85687345.89649  20925725.31349
  23397957.633 5 122957087.020 5  95810803.80948  23397976.47348
  21101692.133 6 110890132.083 6  86407935.37748  21101703.99248
  22497666.008 5 118226005.549 5  92124216.89247  22497684.96147
  19769283.148 7 103888279.675 7  80951956.24949  19769296.66449
  23098930.852 5 121385673.845 5  94586313.87047  23098955.36347
 23  3 10  2 57 46.0000000  0  7G04G08G09G16G26G27G31               
  21190019.461 6 111354294.979 6  86769633.46947  21190033.21547
  20924816.250 6 109960654.579 6  85683694.38049  20924833.22349
  23397055.133 5 122952343.196 5  95807107.32448  23397073.51648
  21101432.742 6 110888767.298 6  86406871.90848  21101444.25048
  22497544.414 5 118225368.515 5  92123720.48847  22497563.59447
  19768791.547 7 103885695.232 7  80949942.39449  19768804.52349
  23098854.508 5 121385270.767 5  94585999.78147  23098878.82847
 23  3 10  2 57 47.0000000  0  7G04G08G09G16G26G27G31               
  21189424.750 6 111351168.116 6  86767196.95547  21189438.41447
  20923924.922 6 109955969.056 6  85680043.32549  20923941.93049
  23396152.469 5 122947599.900 5  95803411.25348  23396170.89148
  21101172.992 6 110887402.721 6  86405808.59748  21101185.03948
  22497423.172 5 118224731.507 5  92123224.10447  22497442.69947
  19768299.766 7 103883111.536 7  80947929.12949  19768313.23049
  23098777.688 5 121384868.042 5  94585685.96547  23098801.93847
 23  3 10  2 57 48.0000000  0  7G04G08G09G16G26G27G31               
  21188830.297 6 111348041.970 6  86764760.99347  21188843.63747
  20923033.133 6 109951284.091 6  85676392.70349  20923050.16849
  23395249.797 5 122942857.177 5  95799715.61948  23395268.22748
  21100913.516 6 110886038.347 6  86404745.44348  21100925.36348
  22497302.055 5 118224094.579 5  92122727.78447  22497321.11347
  19767808.125 7 103880528.577 7  80945916.43049  19767821.45749
  23098701.109 5 121384465.627 5  94585372.39147  23098725.62947
 23  3 10  2 57 49.0000000  0  7G04G08G09G16G26G27G31               
  21188235.172 6 111344916.381 6  86762325.46347  21188248.70747
  20922141.758 6 109946599.604 6  85672742.46049  20922158.85549
  23394347.703 5 122938114.863 5  95796020.31048  23394365.53548
  21100653.656 6 110884674.032 6  86403682.34148  21100665.38348
  22497179.703 5 118223457.535 5  92122231.38447  22497199.89847
  19767317.023 7 103877946.234 7  80943904.21449  19767330.06649
  23098624.938 5 121384063.435 5  94585058.99147  23098648.91847
 23  3 10  2 57 50.0000000  0  7G04G08G09G16G26G27G31               
  21187640.508 6 111341791.195 6  86759890.25447  21187654.23847
  20921250.453 6 109941915.421 6  85669092.44949  20921267.56649
  23393445.156 5 122933372.724 5  95792325.14148  23393463.66448
  21100394.297 6 110883309.627 6  86402619.16248  21100406.04348
  22497059.039 5 118222820.261 5  92121734.80147  22497078.99247
  19766825.500 7 103875364.312 7  80941892.32549  19766838.46949
  23098548.563 5 121383661.245 5  94584745.59047  23098572.96947
 23  3 10  2 57 51.0000000  0  7G04G08G09G16G26G27G31               
  21187046.250 6 111338666.947 6  86757455.76647  21187059.55547
  20920359.805 6 109937232.028 6  85665443.05649  20920376.23849
  23392542.266 4 122928631.358 4  95788630.56748  23392561.46548
  21100134.313 6 110881945.641 6  86401556.30748  21100146.70348
  22496937.867 5 118222183.264 5  92121238.43247  22496957.27347
  19766334.516 7 103872783.395 7  80939881.22149  19766347.44549
  23098470.828 5 121383259.670 5  94584432.67347  23098496.15247
 23  3 10  2 57 52.0000000  0  7G04G08G09G16G26G27G31               
  21186451.797 6 111335543.304 6  86755021.74947  21186465.23447
  20919468.258 6 109932549.210 6  85661794.10949  20919484.82449
  23391640.711 5 122923890.501 5  95784936.39048  23391659.01648
  21099874.797 6 110880581.765 6  86400493.54748  21099886.93848
  22496816.883 5 118221546.205 5  92120742.00547  22496836.55547
  19765843.453 7 103870203.130 7  80937870.62249  19765856.53549
  23098394.945 5 121382858.325 5  94584119.92747  23098419.85947
 23  3 10  2 57 53.0000000  0  7G04G08G09G16G26G27G31               
  21185857.273 6 111332420.270 6  86752588.22247  21185871.09847
  20918577.258 6 109927866.846 6  85658145.51449  20918593.90249
  23390738.680 5 122919150.041 5  95781242.52848  23390757.47348
  21099615.672 6 110879218.009 6  86399430.88347  21099627.64547
  22496695.391 5 118220909.154 5  92120245.59447  22496714.94547
  19765352.469 7 103867623.509 7  80935860.52949  19765365.71949
  23098318.734 5 121382457.231 5  94583807.38447  23098343.58647
 23  3 10  2 57 54.0000000  0  7G04G08G09G16G26G27G31               
  21185263.766 6 111329297.908 6  86750155.20347  21185276.84447
  20917686.539 6 109923185.032 6  85654497.35049  20917703.05149
  23389836.766 5 122914410.070 5  95777549.04048  23389855.11348
  21099355.820 6 110877854.401 6  86398368.32447  21099367.53547
  22496573.656 5 118220272.013 5  92119749.10847  22496593.52747
  19764861.922 7 103865044.581 7  80933850.97549  19764874.82849
  23098242.977 5 121382056.429 5  94583495.06447  23098267.18447
 23  3 10  2 57 55.0000000  0  7G04G08G09G16G26G27G31               
  21184670.000 6 111326176.290 6  86747722.77247  21184682.48047
  20916795.531 6 109918503.846 6  85650849.67149  20916812.39849
  23388934.203 5 122909670.665 5  95773855.99548  23388953.18848
  21099096.445 6 110876491.032 6  86397305.95947  21099108.60547
  22496452.742 5 118219635.029 5  92119252.75747  22496472.21147
  19764371.023 7 103862466.435 7  80931842.02949  19764384.20349
  23098166.305 5 121381656.048 5  94583183.07347  23098190.64547
 23  3 10  2 57 56.0000000  0  7G04G08G09G16G26G27G31               
  21184075.516 6 111323055.389 6  86745290.90147  21184088.64547
  20915904.578 6 109913823.299 6  85647202.49149  20915921.75049
  23388033.578 5 122904931.853 5  95770163.41648  23388051.02748
  21098837.227 6 110875127.938 6  86396243.80347  21098849.06647
  22496331.773 5 118218998.140 5  92118756.46747  22496351.43847
  19763880.688 7 103859889.086 7  80929833.70449  19763894.04349
  23098090.273 5 121381256.011 5  94582871.34947  23098114.92247
 23  3 10  2 57 57.0000000  0  7G04G08G09G16G26G27G31               
  21183482.227 6 111319935.016 6  86742859.43847  21183494.84047
  20915014.648 6 109909143.132 6  85643555.60849  20915030.84449
  23387131.211 5 122900193.383 5  95766471.10848  23387149.45348
  21098578.500 6 110873764.810 6  86395181.62447  21098589.46547
  22496210.750 5 118218361.071 5  92118260.03347  22496230.00447
  19763390.141 7 103857312.273 7  80927825.79549  19763403.94149
  23098014.195 5 121380856.126 5  94582559.74547  23098038.74247
 23  3 10  2 57 58.0000000  0  7G04G08G09G16G26G27G31               
  21182888.148 6 111316815.343 6  86740428.52147  21182901.25047
  20914123.805 6 109904463.555 6  85639909.18849  20914140.62549
  23386229.617 5 122895455.438 5  95762779.21048  23386247.83248
  21098318.617 6 110872401.880 6  86394119.59547  21098330.74247
  22496089.414 5 118217724.055 5  92117763.64347  22496108.73847
  19762900.117 7 103854736.227 7  80925818.48949  19762913.78549
  23097938.375 5 121380456.575 5  94582248.40247  23097962.72747
 23  3 10  2 57 59.0000000  0  7G04G08G09G16G26G27G31               
  21182294.727 6 111313696.252 6  86737998.05847  21182307.64147
  20913232.953 6 109899784.446 6  85636263.13349  20913250.02049
  23385327.883 5 122890717.922 5  95759087.64048  23385346.39848
  21098059.133 6 110871039.062 6  86393057.65448  21098071.14148
  22495967.789 5 118217087.011 5  92117267.23547  22495987.16447
  19762410.070 7 103852160.800 7  80923811.66049  19762423.93049
  23097862.063 5 121380057.253 5  94581937.24347  23097886.51647
 23  3 10  2 58  0.0000000  0  7G04G08G09G16G26G27G31               
  21181701.008 6 111310577.830 6  86735568.11447  21181714.57447
  20912343.281 6 109895105.897 6  85632617.51049  20912360.10249
  23384426.758 5 122885980.859 5  95755396.42848  23384444.60948
  21097799.852 6 110869676.386 6  86391995.82548  21097811.52048
  22495847.289 5 118216449.890 5  92116770.77947  22495866.10247
  19761920.148 7 103849586.059 7  80921805.36949  19761933.50449
  23097786.594 5 121379658.168 5  94581626.26647  23097810.89847
 23  3 10  2 58  1.0000000  0  7G04G08G09G16G26G27G31               
  21181108.320 6 111307460.027 6  86733138.66447  21181121.37947
  20911452.914 6 109890427.847 6  85628972.27449  20911469.86749
  23383525.641 5 122881244.293 5  95751705.59848  23383543.76648
  21097540.938 6 110868313.829 6  86390934.09448  21097553.10548
  22495725.984 5 118215812.816 5  92116274.35147  22495745.54747
  19761430.117 7 103847012.003 7  80919799.61249  19761443.52049
  23097709.773 5 121379259.431 5  94581315.55747  23097734.50447
 23  3 10  2 58  2.0000000  0  7G04G08G09G16G26G27G31               
  21180515.070 6 111304342.910 6  86730709.72947  21180528.11747
  20910563.148 6 109885750.385 6  85625327.50149  20910579.99649
  23382624.320 5 122876508.260 5  95748015.18448  23382642.13348
  21097281.445 6 110866951.475 6  86389872.51148  21097293.30948
  22495604.477 5 118215175.752 5  92115777.92547  22495623.77747
  19760940.516 7 103844438.669 7  80917794.41549  19760954.19549
  23097633.930 5 121378860.974 5  94581005.06847  23097658.96547
 23  3 10  2 58  3.0000000  0  7G04G08G09G16G26G27G31               
  21179922.008 6 111301226.427 6  86728281.29947  21179934.94147
  20909672.711 6 109881073.467 6  85621683.15149  20909689.60949
  23381723.094 5 122871772.629 5  95744325.07848  23381740.95348
  21097022.227 6 110865589.216 6  86388811.00348  21097034.37948
  22495483.039 5 118214538.646 5  92115281.46447  22495502.58647
  19760450.922 7 103841866.006 7  80915789.73949  19760464.73449
  23097558.133 5 121378462.806 5  94580694.80347  23097583.23447
 23  3 10  2 58  4.0000000  0  7G04G08G09G16G26G27G31               
  21179328.617 6 111298110.725 6  86725853.47348  21179341.78148
  20908783.086 6 109876397.204 6  85618039.31049  20908799.60249
  23380821.758 5 122867037.688 5  95740635.52048  23380840.26248
  21096763.031 6 110864227.299 6  86387749.77048  21096775.02748
  22495362.141 5 118213901.707 5  92114785.14047  22495381.40647
  19759961.281 7 103839294.195 7  80913785.72949  19759975.27049
  23097482.656 5 121378065.064 5  94580384.87047  23097507.09847
 23  3 10  2 58  5.0000000  0  7G04G08G09G16G26G27G31               
  21178736.555 6 111294995.716 6  86723426.19048  21178749.14848
  20907893.539 6 109871721.486 6  85614395.89249  20907910.06649
  23379920.789 5 122862303.250 5  95736946.35248  23379939.19948
  21096503.820 6 110862865.517 6  86386688.64247  21096515.98847
  22495241.133 5 118213264.775 5  92114288.82247  22495260.50047
  19759472.258 7 103836723.073 7  80911782.25449  19759485.82849
  23097407.328 5 121377667.642 5  94580075.18647  23097432.32047
 23  3 10  2 58  6.0000000  0  7G04G08G09G16G26G27G31               
  21178143.477 6 111291881.281 6  86720999.36247  21178157.04747
  20907003.438 6 109867046.245 6  85610752.84749  20907020.46949
  23379020.227 5 122857569.210 5  95733257.49048  23379038.17648
  21096244.836 6 110861503.832 6  86385627.58147  21096257.30547
  22495119.547 5 118212627.763 5  92113792.44047  22495138.69147
  19758983.086 7 103834152.594 7  80909779.28449  19758996.74649
  23097331.367 5 121377270.427 5  94579765.66447  23097356.26647
 23  3 10  2 58  7.0000000  0  7G04G08G09G16G26G27G31               
  21177551.313 6 111288767.613 6  86718573.13047  21177563.62547
  20906113.789 6 109862371.644 6  85607110.30049  20906130.86349
  23378119.117 5 122852835.777 5  95729569.10248  23378137.55148
  21095985.586 6 110860142.407 6  86384566.72847  21095997.70347
  22494998.227 5 118211990.844 5  92113296.13747  22495017.93047
  19758494.133 7 103831582.919 7  80907776.93949  19758508.16849
  23097255.961 5 121376873.627 5  94579456.46947  23097280.41847
 23  3 10  2 58  8.0000000  0  7G04G08G09G16G26G27G31               
  21176958.469 6 111285654.743 6  86716147.51047  21176971.60947
  20905224.594 6 109857697.750 6  85603468.31349  20905241.38349
  23377218.656 5 122848102.936 5  95725881.16748  23377236.85248
  21095727.156 6 110858781.259 6  86383506.09147  21095738.78547
  22494876.758 5 118211354.130 5  92112799.98847  22494896.75447
  19758005.438 7 103829014.085 7  80905775.24549  19758019.03149
  23097180.484 5 121376477.239 5  94579147.58847  23097205.52047
 23  3 10  2 58  9.0000000  0  7G04G08G09G16G26G27G31               
  21176366.672 6 111282542.439 6  86713722.33648  21176379.65648
  20904335.094 6 109853024.313 6  85599826.66949  20904351.89849
  23376318.039 5 122843370.564 5  95722193.60248  23376336.05148
  21095467.922 6 110857420.229 6  86382445.54448  21095479.68048
  22494755.969 5 118210717.290 5  92112303.74047  22494776.06647
  19757516.375 7 103826445.869 7  80903774.04049  19757530.34449
  23097105.391 5 121376081.078 5  94578838.89047  23097129.89147
 23  3 10  2 58 10.0000000  0  7G04G08G09G16G26G27G31               
  21175774.078 6 111279430.729 6  86711297.62347  21175787.27347
  20903445.867 6 109848351.365 6  85596185.41249  20903462.82049
  23375418.320 5 122838638.539 5  95718506.30948  23375436.13348
  21095209.078 6 110856059.215 6  86381385.01247  21095220.77347
  22494634.750 5 118210080.375 5  92111807.43247  22494654.65247
  19757027.695 7 103823878.252 7  80901773.29349  19757041.44149
  23097029.625 5 121375685.116 5  94578530.34747  23097054.68447
 23  3 10  2 58 11.0000000  0  7G04G08G09G16G26G27G31               
  21175182.320 6 111276319.894 6  86708873.59048  21175195.17648
  20902556.938 6 109843679.193 6  85592544.75849  20902573.73049
  23374518.555 5 122833907.304 5  95714819.63348  23374535.67648
  21094950.273 6 110854698.626 6  86380324.80848  21094961.93048
  22494513.602 5 118209443.712 5  92111311.31147  22494533.28147
  19756539.336 7 103821311.566 7  80899773.27649  19756553.52049
  23096955.063 5 121375289.733 5  94578222.25047  23096979.58647
 23  3 10  2 58 12.0000000  0  7G04G08G09G16G26G27G31               
  21174590.141 6 111273209.624 6  86706449.99547  21174603.61747
  20901667.781 6 109839007.438 6  85588904.43349  20901684.88749
  23373617.875 5 122829176.404 5  95711133.22048  23373635.05948
  21094691.148 6 110853338.073 6  86379264.63348  21094703.35548
  22494392.516 5 118208806.919 5  92110815.09347  22494411.94147
  19756050.844 7 103818745.475 7  80897773.72549  19756064.98849
  23096879.648 5 121374894.468 5  94577914.25347  23096904.16447
 23  3 10  2 58 13.0000000  0  7G04G08G09G16G26G27G31               
  21173998.430 6 111270099.839 6  86704026.78247  21174011.55547
  20900779.156 6 109834336.064 6  85585264.40449  20900795.51249
  23372718.055 5 122824445.816 5  95707447.04748  23372735.22348
  21094432.047 6 110851977.514 6  86378204.45148  21094444.04748
  22494271.211 5 118208169.996 5  92110318.77847  22494290.60247
  19755562.961 7 103816179.926 7  80895774.59349  19755577.07049
  23096804.367 5 121374499.339 5  94577606.35347  23096828.72347
 23  3 10  2 58 14.0000000  0  7G04G08G09G16G26G27G31               
  21173406.555 6 111266990.709 6  86701604.08247  21173419.86347
  20899890.023 6 109829665.233 6  85581624.79449  20899907.37149
  23371817.344 5 122819715.754 5  95703761.29248  23371834.91448
  21094172.945 6 110850617.109 6  86377144.38848  21094185.14548
  22494149.914 5 118207533.039 5  92109822.44447  22494169.75847
  19755074.711 7 103813615.086 7  80893776.01949  19755088.54749
  23096729.891 5 121374104.561 5  94577298.72947  23096754.06347
 23  3 10  2 58 15.0000000  0  7G04G08G09G16G26G27G31               
  21172814.961 6 111263882.301 6  86699181.94747  21172828.43447
  20899001.445 6 109824995.007 6  85577985.65349  20899018.64549
  23370917.156 5 122814986.225 5  95700075.95048  23370934.79748
  21093914.117 6 110849256.914 6  86376084.49748  21093926.27348
  22494028.594 5 118206896.160 5  92109326.15747  22494048.64547
  19754587.141 7 103811050.984 7  80891778.01449  19754600.83649
  23096654.094 5 121373710.091 5  94576991.35547  23096679.00447
 23  3 10  2 58 16.0000000  0  7G04G08G09G16G26G27G31               
  21172224.305 6 111260774.556 6  86696760.32047  21172237.27047
  20898112.680 6 109820325.323 6  85574346.94449  20898129.70749
  23370017.797 5 122810257.158 5  95696390.96748  23370035.00048
  21093654.953 6 110847896.891 6  86375024.73148  21093667.27048
  22493907.531 5 118206259.313 5  92108829.90447  22493927.27747
  19754099.133 7 103808487.590 7  80889780.56449  19754112.58649
  23096579.297 5 121373315.915 5  94576684.20647  23096603.72347
 23  3 10  2 58 17.0000000  0  7G04G08G09G16G26G27G31               
  21171632.453 6 111257667.542 6  86694339.26747  21171646.33647
  20897224.422 6 109815656.235 6  85570708.69049  20897241.37549
  23369117.148 5 122805528.728 5  95692706.48248  23369135.50448
  21093396.680 6 110846537.084 6  86373965.13948  21093408.57448
  22493786.836 5 118205622.502 5  92108333.68747  22493806.28947
  19753611.492 7 103805924.955 7  80887783.70449  19753625.39849
  23096504.914 5 121372922.128 5  94576377.35947  23096529.19547
 23  3 10  2 58 18.0000000  0  7G04G08G09G16G26G27G31               
  21171041.609 6 111254561.072 6  86691918.63847  21171054.90247
  20896335.625 6 109810987.573 6  85567070.77149  20896353.18849
  23368217.906 4 122800800.640 4  95689022.25848  23368235.95748
  21093138.484 6 110845177.336 6  86372905.59847  21093149.97747
  22493665.672 5 118204985.619 5  92107837.40247  22493685.08647
  19753123.648 7 103803362.939 7  80885787.32849  19753137.40249
  23096429.594 5 121372528.552 5  94576070.67047  23096454.16047
 23  3 10  2 58 19.0000000  0  7G04G08G09G16G26G27G31               
  21170450.141 6 111251455.242 6  86689498.50047  21170463.59047
  20895447.094 6 109806319.447 6  85563433.27649  20895464.85949
  23367316.953 4 122796073.036 4  95685338.41548  23367335.76648
  21092879.148 6 110843817.693 6  86371846.13147  21092891.24647
  22493543.930 5 118204348.702 5  92107341.09347  22493563.69547
  19752636.297 7 103800801.578 7  80883791.45949  19752650.68449
  23096354.477 5 121372135.190 5  94575764.15547  23096379.52047
 23  3 10  2 58 20.0000000  0  7G04G08G09G16G26G27G31               
  21169860.086 6 111248350.038 6  86687078.85547  21169872.86747
  20894559.203 6 109801651.835 6  85559796.17749  20894576.67649
  23366418.070 4 122791345.843 4  95681654.88048  23366436.04348
  21092620.305 6 110842458.190 6  86370786.76947  21092632.03147
  22493422.977 5 118203711.718 5  92106844.72447  22493442.84847
  19752149.266 7 103798240.875 7  80881796.10449  19752163.34449
  23096280.023 5 121371742.098 5  94575457.84047  23096305.14147
 23  3 10  2 58 21.0000000  0  7G04G08G09G16G26G27G31               
  21169269.000 6 111245245.552 6  86684659.77647  21169282.16447
  20893671.406 6 109796984.849 6  85556159.56349  20893688.68449
  23365518.492 4 122786619.294 4  95677971.85248  23365536.69548
  21092361.945 6 110841098.904 6  86369727.58547  21092373.94947
  22493302.031 5 118203074.851 5  92106348.45747  22493321.31347
  19751661.820 7 103795680.959 7  80879801.36049  19751675.91849
  23096205.703 5 121371349.405 5  94575151.83947  23096230.28947
 23  3 10  2 58 22.0000000  0  7G04G08G09G16G26G27G31               
  21168678.328 6 111242141.681 6  86682241.17448  21168691.62548
  20892782.984 6 109792318.377 6  85552523.35649  20892800.40249
  23364619.086 4 122781893.159 4  95674289.14548  23364637.60548
  21092103.227 6 110839739.745 6  86368668.49848  21092115.16048
  22493180.766 5 118202437.923 5  92105852.15147  22493200.16447
  19751175.078 7 103793121.678 7  80877807.10949  19751188.86349
  23096130.906 5 121370956.918 5  94574845.99847  23096155.40247
 23  3 10  2 58 23.0000000  0  7G04G08G09G16G26G27G31               
  21168087.672 6 111239038.466 6  86679823.07848  21168100.80548
  20891895.039 6 109787652.434 6  85548887.55449  20891912.64849
  23363720.039 4 122777167.451 4  95670606.77548  23363738.17648
  21091844.625 6 110838380.690 6  86367609.49348  21091856.25848
  22493059.602 5 118201800.999 5  92105355.83547  22493079.16047
  19750688.008 7 103790563.105 7  80875813.41749  19750701.93849
  23096056.008 5 121370564.753 5  94574540.41347  23096080.67247
 23  3 10  2 58 24.0000000  0  7G04G08G09G16G26G27G31               
  21167497.352 6 111235935.899 6  86677405.49548  21167510.95748
  20891007.375 6 109782987.086 6  85545252.22049  20891025.17249
  23362820.133 4 122772442.322 4  95666924.85148  23362838.98448
  21091586.313 6 110837021.837 6  86366550.64547  21091598.10547
  22492938.023 5 118201164.086 5  92104859.53047  22492957.57447
  19750201.648 7 103788005.238 7  80873820.27449  19750215.29349
  23095981.484 5 121370172.916 5  94574235.08247  23096005.85247
 23  3 10  2 58 25.0000000  0  7G04G08G09G16G26G27G31               
  21166907.102 6 111232833.931 6  86674988.37048  21166920.07048
  20890119.727 6 109778322.193 6  85541617.24349  20890137.08249
  23361921.422 5 122767717.599 5  95663243.24648  23361939.96948
  21091327.617 6 110835663.050 6  86365491.84947  21091339.69547
  22492817.094 5 118200527.117 5  92104363.18447  22492836.69947
  19749714.969 7 103785447.998 7  80871827.61649  19749728.81349
  23095906.969 5 121369781.269 5  94573929.90147  23095931.66047
 23  3 10  2 58 26.0000000  0  7G04G08G09G16G26G27G31               
  21166316.758 6 111229732.689 6  86672571.81548  21166330.39148
  20889231.992 6 109773657.904 6  85537982.73649  20889249.41049
  23361023.414 4 122762993.389 4  95659562.03948  23361041.14148
  21091069.094 6 110834304.494 6  86364433.23047  21091080.61747
  22492695.539 5 118199890.160 5  92103866.84247  22492715.63347
  19749228.414 7 103782891.503 7  80869835.53949  19749242.21149
  23095832.172 5 121369389.972 5  94573624.99447  23095857.25447
 23  3 10  2 58 27.0000000  0  7G04G08G09G16G26G27G31               
  21165726.859 6 111226632.144 6  86670155.79948  21165740.30148
  20888344.211 6 109768994.196 6  85534348.67749  20888361.92249
  23360124.500 5 122758269.760 5  95655881.29948  23360141.95348
  21090810.875 6 110832946.139 6  86363374.77047  21090821.85247
  22492574.688 5 118199253.308 5  92103370.58547  22492594.73847
  19748742.453 7 103780335.791 7  80867844.07449  19748755.84849
  23095758.352 5 121368999.017 5  94573320.34847  23095782.73847
 23  3 10  2 58 28.0000000  0  7G04G08G09G16G26G27G31               
  21165136.922 6 111223532.207 6  86667740.26747  21165150.56647
  20887457.352 6 109764330.958 6  85530714.98949  20887474.53949
  23359225.922 5 122753546.512 5  95652200.84648  23359243.38348
  21090552.141 6 110831587.866 6  86362316.36848  21090563.51648
  22492453.281 5 118198616.358 5  92102874.25547  22492473.25447
  19748255.766 7 103777780.674 7  80865853.07049  19748269.33249
  23095683.734 5 121368608.308 5  94573015.88747  23095708.27047
 23  3 10  2 58 29.0000000  0  7G04G08G09G16G26G27G31               
  21164547.383 6 111220432.859 6  86665325.18847  21164560.71947
  20886569.813 6 109759668.233 6  85527081.69749  20886587.55949
  23358327.406 5 122748823.733 5  95648520.76548  23358344.63748
  21090293.453 6 110830229.676 6  86361258.03447  21090305.09847
  22492332.516 5 118197979.384 5  92102377.89847  22492351.86747
  19747769.891 7 103775226.191 7  80863862.56649  19747782.98849
  23095609.141 5 121368217.835 5  94572711.62047  23095633.89147
 23  3 10  2 58 30.0000000  0  7G04G08G09G16G26G27G31               
  21163957.570 6 111217334.264 6  86662910.69048  21163970.84848
  20885682.922 6 109755006.149 6  85523448.90449  20885699.97349
  23357428.164 5 122744101.558 5  95644841.15248  23357445.68848
  21090035.039 6 110828871.769 6  86360199.91647  21090046.64847
  22492211.000 5 118197342.494 5  92101881.61347  22492230.86347
  19747283.797 7 103772672.535 7  80861872.69649  19747297.11349
  23095535.180 5 121367827.718 5  94572407.62447  23095559.89147
 23  3 10  2 58 31.0000000  0  7G04G08G09G16G26G27G31               
  21163367.906 6 111214236.281 6  86660496.67247  21163381.72747
  20884795.344 6 109750344.580 6  85519816.51449  20884813.30949
  23356530.188 5 122739379.766 5  95641161.83548  23356546.85248
  21089776.773 6 110827513.950 6  86359141.87347  21089788.32847
  22492089.547 5 118196705.577 5  92101385.30747  22492109.75047
  19746798.039 7 103770119.505 7  80859883.32349  19746811.52349
  23095460.266 5 121367437.879 5  94572103.84847  23095485.55547
 23  3 10  2 58 32.0000000  0  7G04G08G09G16G26G27G31               
  21162777.961 6 111211138.952 6  86658083.17247  21162792.07847
  20883908.492 6 109745683.539 6  85516184.54049  20883926.15249
  23355631.828 5 122734658.514 5  95637482.94548  23355648.78548
  21089518.469 6 110826156.267 6  86358083.94047  21089529.80947
  22491968.734 5 118196068.615 5  92100888.96847  22491988.10247
  19746312.195 7 103767567.182 7  80857894.50349  19746325.58649
  23095386.680 5 121367048.295 5  94571800.27347  23095411.37947
 23  3 10  2 58 33.0000000  0  7G04G08G09G16G26G27G31               
  21162189.453 6 111208042.309 6  86655670.20247  21162203.18847
  20883021.852 6 109741023.072 6  85512553.00649  20883039.17249
  23354732.992 5 122729937.754 5  95633804.43248  23354750.68048
  21089259.969 6 110824798.777 6  86357026.15147  21089271.72347
  22491847.445 5 118195431.711 5  92100392.66347  22491867.14147
  19745826.742 7 103765015.582 7  80855906.24149  19745840.50449
  23095313.211 5 121366659.083 5  94571496.98947  23095337.42647
 23  3 10  2 58 34.0000000  0  7G04G08G09G16G26G27G31               
  21161600.336 6 111204946.366 6  86653257.77647  21161613.85947
  20882135.125 6 109736363.231 6  85508921.96449  20882152.64549
  23353834.336 5 122725217.534 5  95630126.33748  23353851.98448
  21089001.555 6 110823441.501 6  86355968.53847  21089012.95347
  22491726.500 5 118194794.865 5  92099896.41047  22491745.69547
  19745341.383 7 103762464.734 7  80853918.56749  19745355.07849
  23095238.234 5 121366270.138 5  94571193.91347  23095263.49647
 23  3 10  2 58 35.0000000  0  7G04G08G09G16G26G27G31               
  21161010.797 6 111201850.923 6  86650845.73847  21161024.87547
  20881248.336 6 109731703.770 6  85505291.22049  20881265.84849
  23352936.875 5 122720497.665 5  95626448.52148  23352954.23848
  21088743.438 6 110822084.220 6  86354910.91248  21088755.05948
  22491605.367 5 118194157.854 5  92099400.02147  22491624.77747
  19744856.289 7 103759914.415 7  80851931.30449  19744869.02349
  23095164.836 5 121365881.389 5  94570890.99047  23095189.88747
 23  3 10  2 58 36.0000000  0  7G04G08G09G16G26G27G31               
  21160422.141 6 111198756.433 6  86648434.44447  21160435.81347
  20880361.984 6 109727045.113 6  85501661.09449  20880379.62549
  23352038.813 5 122715778.559 5  95622771.28948  23352055.82448
  21088485.344 6 110820727.356 6  86353853.60648  21088497.01248
  22491484.086 5 118193521.138 5  92098903.86847  22491503.03147
  19744370.852 7 103757365.081 7  80849944.81049  19744384.18849
  23095090.703 5 121365493.198 5  94570588.49247  23095116.00447
 23  3 10  2 58 37.0000000  0  7G04G08G09G16G26G27G31               
  21159833.781 6 111195662.614 6  86646023.67348  21159847.29348
  20879475.547 6 109722387.030 6  85498031.42249  20879492.80549
  23351140.898 5 122711059.981 5  95619094.46848  23351158.16848
  21088227.094 6 110819370.699 6  86352796.47147  21088238.52347
  22491362.617 5 118192884.425 5  92098407.72647  22491381.93847
  19743886.148 7 103754816.462 7  80847958.87249  19743899.50049
  23095016.836 5 121365105.342 5  94570286.26647  23095042.32847
 23  3 10  2 58 38.0000000  0  7G04G08G09G16G26G27G31               
  21159244.805 6 111192569.391 6  86643613.36347  21159258.84047
  20878589.125 6 109717729.417 6  85494402.11649  20878606.12149
  23350242.398 5 122706341.845 5  95615417.99248  23350260.06348
  21087969.273 6 110818014.111 6  86351739.39048  21087980.86748
  22491242.023 5 118192247.663 5  92097911.54747  22491261.04747
  19743401.219 7 103752268.495 7  80845973.44149  19743414.67249
  23094943.445 5 121364717.709 5  94569984.21047  23094968.23047
 23  3 10  2 58 39.0000000  0  7G04G08G09G16G26G27G31               
  21158656.430 6 111189476.727 6  86641203.49247  21158670.07047
  20877703.289 6 109713072.259 6  85490773.16049  20877720.14849
  23349344.813 5 122701624.084 5  95611741.81548  23349362.62148
  21087710.984 6 110816657.574 6  86350682.33648  21087722.14148
  22491120.742 5 118191610.779 5  92097415.27347  22491139.91447
  19742916.680 7 103749721.084 7  80843988.44349  19742929.98849
  23094870.039 5 121364330.242 5  94569682.28847  23094894.34847
 23  3 10  2 58 40.0000000  0  7G04G08G09G16G26G27G31               
  21158068.070 6 111186384.599 6  86638794.03247  21158081.77747
  20876817.094 6 109708415.539 6  85487144.55449  20876834.04749
  23348447.289 5 122696906.699 5  95608065.93348  23348464.91048
  21087452.828 6 110815301.104 6  86349625.35048  21087464.46148
  22490999.305 5 118190973.797 5  92096918.90647  22491018.77047
  19742431.641 7 103747174.299 7  80842003.93849  19742444.85249
  23094795.594 5 121363942.998 5  94569380.53247  23094820.68047
 23  3 10  2 58 41.0000000  0  7G04G08G09G16G26G27G31               
  21157479.797 6 111183293.045 6  86636385.02747  21157494.03147
  20875930.539 6 109703759.305 6  85483516.32149  20875947.62949
  23347549.859 5 122692189.742 5  95604390.38448  23347567.00048
  21087194.758 6 110813944.688 6  86348568.39547  21087206.20747
  22490877.969 5 118190336.768 5  92096422.51247  22490897.25847
  19741947.180 7 103744628.113 7  80840019.89149  19741961.05949
  23094722.352 6 121363555.950 6  94569078.93247  23094746.59447
 23  3 10  2 58 42.0000000  0  7G04G08G09G16G26G27G31               
  21156891.516 6 111180202.088 6  86633976.49147  21156905.28147
  20875044.672 6 109699103.531 6  85479888.44549  20875062.18049
  23346652.734 5 122687473.169 5  95600715.13948  23346669.46948
  21086936.414 6 110812588.345 6  86347511.49847  21086948.30147
  22490756.828 5 118189699.638 5  92095926.03647  22490776.25447
  19741462.930 7 103742082.548 7  80838036.33849  19741476.55549
  23094648.508 5 121363169.119 5  94568777.50647  23094673.44147
 23  3 10  2 58 43.0000000  0  7G04G08G09G16G26G27G31               
  21156304.008 6 111177111.874 6  86631568.52847  21156317.46547
  20874159.492 6 109694448.384 6  85476261.05449  20874175.84049
  23345755.359 5 122682757.193 5  95597040.35148  23345771.80948
  21086678.563 6 110811232.240 6  86346454.78947  21086689.99647
  22490635.766 5 118189062.586 5  92095429.62247  22490654.76647
  19740978.688 7 103739537.780 7  80836053.39749  19740991.76249
  23094574.563 5 121362782.663 5  94568476.37247  23094599.25047
 23  3 10  2 58 44.0000000  0  7G04G08G09G16G26G27G31               
  21155715.961 6 111174022.420 6  86629161.16747  21155729.50447
  20873273.516 6 109689793.877 6  85472634.16949  20873290.52349
  23344857.852 5 122678041.805 5  95593366.02248  23344874.75048
  21086420.469 6 110809876.389 6  86345398.28047  21086432.01647
  22490514.758 5 118188425.659 5  92094933.31547  22490533.64847
  19740494.523 7 103736993.795 7  80834071.07349  19740508.01649
  23094501.188 5 121362396.575 5  94568175.52147  23094525.91847
 23  3 10  2 58 45.0000000  0  7G04G08G09G16G26G27G31               
  21155127.609 6 111170933.526 6  86626754.22647  21155141.02347
  20872387.563 6 109685139.855 6  85469007.65749  20872404.49649
  23343960.609 5 122673326.819 5  95589692.01348  23343977.38748
  21086162.789 6 110808520.612 6  86344341.83047  21086174.09047
  22490393.180 5 118187788.617 5  92094436.90447  22490412.55547
  19740010.664 7 103734450.429 7  80832089.23349  19740023.79349
  23094427.914 5 121362010.722 5  94567874.85147  23094452.72347
 23  3 10  2 58 46.0000000  0  7G04G08G09G16G26G27G31               
  21154540.250 6 111167845.459 6  86624347.93947  21154553.69947
  20871502.172 6 109680486.556 6  85465381.71849  20871519.17649
  23343063.195 5 122668612.517 5  95586018.53448  23343080.46548
  21085904.492 6 110807165.141 6  86343285.61248  21085916.19548
  22490271.828 5 118187151.811 5  92093940.67747  22490291.09447
  19739526.828 7 103731907.941 7  80830108.07249  19739540.15249
  23094354.344 5 121361625.332 5  94567574.54347  23094379.62547
 23  3 10  2 58 47.0000000  0  7G04G08G09G16G26G27G31               
  21153952.750 6 111164758.307 6  86621942.36747  21153966.39847
  20870616.617 6 109675834.023 6  85461756.36849  20870633.97749
  23342166.305 5 122663898.938 5  95582345.61148  23342183.65648
  21085646.867 6 110805810.078 6  86342229.72148  21085657.89848
  22490150.891 5 118186515.177 5  92093444.59147  22490170.23047
  19739043.234 7 103729366.350 7  80828127.61249  19739056.46149
  23094282.133 5 121361240.476 5  94567274.64647  23094306.07447
 23  3 10  2 58 48.0000000  0  7G04G08G09G16G26G27G31               
  21153365.750 6 111161671.693 6  86619537.20747  21153379.05547
  20869732.047 6 109671181.983 6  85458131.40549  20869748.74249
  23341268.773 5 122659185.741 5  95578672.99248  23341286.35248
  21085388.875 6 110804455.063 6  86341173.86047  21085400.01647
  22490029.961 5 118185878.502 5  92092948.47347  22490048.86347
  19738559.516 7 103726825.424 7  80826147.66549  19738572.71949
  23094208.727 5 121360855.819 5  94566974.90347  23094232.93847
 23  3 10  2 58 49.0000000  0  7G04G08G09G16G26G27G31               
  21152778.461 6 111158585.638 6  86617132.48447  21152792.15647
  20868846.445 6 109666530.345 6  85454506.74849  20868863.45349
  23340372.133 5 122654472.961 5  95575000.70148  23340389.31648
  21085131.094 6 110803100.083 6  86340118.02948  21085142.55948
  22489908.094 5 118185241.659 5  92092452.22847  22489927.70747
  19738075.930 7 103724285.031 7  80824168.13749  19738089.38749
  23094135.219 5 121360471.313 5  94566675.29247  23094159.96547
 23  3 10  2 58 50.0000000  0  7G04G08G09G16G26G27G31               
  21152191.242 6 111155500.253 6  86614728.29147  21152204.80947
  20867961.672 6 109661879.273 6  85450882.53949  20867978.36349
  23339475.539 5 122649760.638 5  95571328.75948  23339492.67248
  21084873.422 6 110801745.261 6  86339062.31848  21084884.60548
  22489787.758 5 118184604.861 5  92091956.01547  22489806.45347
  19737592.461 7 103721745.357 7  80822189.17149  19737605.92649
  23094062.188 6 121360087.135 6  94566375.93747  23094086.79747
 23  3 10  2 58 51.0000000  0  7G04G08G09G16G26G27G31               
  21151604.227 6 111152415.552 6  86612324.62048  21151617.71948
  20867076.391 6 109657228.783 6  85447258.78349  20867093.51649
  23338579.016 5 122645048.908 5  95567657.28348  23338596.21548
  21084615.219 6 110800390.638 6  86338006.77048  21084627.13348
  22489666.117 5 118183968.118 5  92091459.85047  22489685.10547
  19737110.000 7 103719206.426 7  80820210.78349  19737123.39849
  23093989.172 5 121359703.319 5  94566076.85347  23094013.70347
 23  3 10  2 58 52.0000000  0  7G04G08G09G16G26G27G31               
  21151017.648 6 111149331.479 6  86609921.44847  21151030.77347
  20866191.531 6 109652578.813 6  85443635.43049  20866208.35549
  23337682.727 5 122640337.569 5  95563986.10248  23337699.13348
  21084357.844 6 110799036.105 6  86336951.28948  21084369.32048
  22489544.727 5 118183331.281 5  92090963.59347  22489563.84447
  19736626.555 7 103716668.154 7  80818232.90749  19736640.25849
  23093915.711 5 121359319.697 5  94565777.92247  23093940.60947
 23  3 10  2 58 53.0000000  0  7G04G08G09G16G26G27G31               
  21150430.289 6 111146247.957 6  86607518.70047  21150443.92247
  20865307.172 6 109647929.276 6  85440012.41249  20865323.71949
  23336786.211 5 122635626.618 5  95560315.22948  23336803.26248
  21084100.156 6 110797681.640 6  86335895.85447  21084111.64847
  22489423.688 5 118182694.394 5  92090467.31347  22489442.43047
  19736143.508 7 103714130.457 7  80816255.47949  19736157.39149
  23093842.805 5 121358936.271 5  94565479.14247  23093867.73047
 23  3 10  2 58 54.0000000  0  7G04G08G09G16G26G27G31               
  21149843.789 6 111143164.993 6  86605116.38547  21149857.55947
  20864422.367 6 109643280.194 6  85436389.75249  20864438.93849
  23335889.906 5 122630916.111 5  95556644.70748  23335906.84048
  21083842.133 6 110796327.257 6  86334840.48447  21083853.91047
  22489302.320 5 118182057.404 5  92089970.94547  22489321.07047
  19735660.977 7 103711593.379 7  80814278.53449  19735674.71949
  23093769.859 5 121358553.083 5  94565180.54847  23093794.77347
 23  3 10  2 58 55.0000000  0  7G04G08G09G16G26G27G31               
  21149257.359 6 111140082.871 6  86602714.73347  21149270.91847
  20863537.133 6 109638631.864 6  85432767.67349  20863554.34849
  23334993.234 5 122626206.270 5  95552974.70348  23335010.64548
  21083584.906 6 110794973.193 6  86333785.36847  21083596.08247
  22489181.375 5 118181420.606 5  92089474.73346  22489200.08646
  19735178.273 7 103709057.201 7  80812302.29149  19735192.14549
  23093697.563 5 121358170.359 5  94564882.32147  23093721.73447
 23  3 10  2 58 56.0000000  0  7G04G08G09G16G26G27G31               
  21148671.055 6 111137001.495 6  86600313.66247  21148684.94147
  20862653.539 6 109633984.146 6  85429146.07749  20862670.15649
  23334097.617 5 122621497.002 5  95549305.14648  23334114.61348
  21083327.148 6 110793619.376 6  86332730.44647  21083338.58247
  22489060.250 5 118180783.898 5  92088978.58847  22489078.66447
  19734695.672 7 103706521.769 7  80810326.62649  19734709.55549
  23093624.531 5 121357788.011 5  94564584.38447  23093648.96547
 23  3 10  2 58 57.0000000  0  7G04G08G09G16G26G27G31               
  21148084.883 6 111133920.699 6  86597913.03847  21148098.48047
  20861768.742 6 109629336.896 6  85425524.84849  20861785.91049
  23333201.484 5 122616788.107 5  95545635.87948  23333218.69548
  21083069.172 6 110792265.634 6  86331675.57747  21083080.66847
  22488938.609 5 118180147.107 5  92088482.37047  22488957.87147
  19734212.961 7 103703986.992 7  80808351.47249  19734227.16049
  23093551.445 5 121357405.867 5  94564286.60747  23093576.33647
 23  3 10  2 58 58.0000000  0  7G04G08G09G16G26G27G31               
  21147498.063 6 111130840.761 6  86595513.08447  21147511.63747
  20860884.648 6 109624690.384 6  85421904.19149  20860901.46149
  23332305.406 5 122612079.962 5  95541967.20148  23332322.16448
  21082811.359 6 110790912.212 6  86330620.96148  21082823.23848
  22488817.266 5 118179510.476 5  92087986.28447  22488836.71147
  19733731.164 7 103701453.087 7  80806377.00149  19733745.30549
  23093479.164 5 121357024.217 5  94563989.21247  23093503.22347
 23  3 10  2 58 59.0000000  0  7G04G08G09G16G26G27G31               
  21146912.547 6 111127761.515 6  86593113.66747  21146926.28547
  20860000.430 6 109620044.438 6  85418283.97549  20860017.39849
  23331409.906 5 122607372.292 5  95538298.88848  23331426.63348
  21082554.211 6 110789558.982 6  86329566.49347  21082566.02747
  22488696.406 5 118178873.931 5  92087490.27247  22488715.53547
  19733249.000 7 103698919.905 7  80804403.09649  19733262.81349
  23093406.852 5 121356642.896 5  94563692.07647  23093431.08647
