     3.02           OBSERVATION DATA    G: GPS              RINEX VERSION / TYPE
convert_skytraq_raw Skytraq Corp.       20241216 141316 UTC PGM / RUN BY / DATE 
Test version 0.1                                            COMMENT             
                                                            MARKER NAME         
                                                            MARKER NUMBER       
                                                            MARKER TYPE         
Skytraq Corp.                                               OBSERVER / AGENCY   
                                                            REC # / TYPE / VERS 
                                                            ANT # / TYPE        
 -2956512.4890  5075998.2815  2476568.5855                  APPROX POSITION XYZ 
        0.0000        0.0000        0.0000                  ANTENNA: DELTA H/E/N
G    4 C1C L1C D1C S1C                                      SYS / # / OBS TYPES 
  2024    12    16     3    58   23.9860001     GPS         TIME OF FIRST OBS   
  2024    12    16     4    58   51.9849999     GPS         TIME OF LAST OBS    
                                                            END OF HEADER       
> 2024 12 16  3 58 23.9860001  0 10                     
G 3  19691053.747    -4574352.396        1759.000          37.000  
G10  20333843.142     5818982.815       -2902.000          37.000  
G16  17710297.443    -6722719.674        2952.000          43.000  
G25  20631936.711     5912753.461       -2977.000          37.000  
G26  16383871.304    -2601969.831         787.000          47.000  
G27  21111823.017    -5163546.452        4130.000          37.000  
G28  17803664.063     -474817.108         185.000          44.000  
G29  19387618.024     -554378.611        -281.000          42.000  
G31  17513023.937    -2074207.759         949.000          44.000  
G32  17132369.609      624437.387        -839.000          48.000  
> 2024 12 16  3 58 24.9860001  0 10                     
G 3  19690719.051    -4576111.205        1758.000          37.000  
G10  20334395.386     5821884.822       -2902.000          37.000  
G16  17709735.726    -6725671.484        2951.000          43.000  
G25  20632503.350     5915731.052       -2977.000          37.000  
G26  16383721.516    -2602757.009         787.000          47.000  
G27  21111036.921    -5167677.475        4131.000          37.000  
G28  17803628.782     -475002.530         185.000          44.000  
G29  19387671.684     -554096.721        -281.000          41.000  
G31  17512843.342    -2075156.741         948.000          44.000  
G32  17132529.522      625277.695        -840.000          48.000  
> 2024 12 16  3 58 25.9860001  0 10                     
G 3  19690384.361    -4577870.009        1758.000          37.000  
G10  20334947.521     5824786.173       -2901.000          37.000  
G16  17709173.995    -6728623.391        2951.000          43.000  
G25  20633069.871     5918708.044       -2976.000          37.000  
G26  16383571.722    -2603544.233         787.000          47.000  
G27  21110250.676    -5171809.276        4131.000          37.000  
G28  17803593.404     -475188.473         185.000          44.000  
G29  19387725.353     -553814.791        -281.000          42.000  
G31  17512662.653    -2076106.203         949.000          44.000  
G32  17132689.427      626117.958        -840.000          48.000  
> 2024 12 16  3 58 26.9860001  0 10                     
G 3  19690049.851    -4579627.929        1757.000          37.000  
G10  20335499.696     5827687.772       -2901.000          37.000  
G16  17708612.420    -6731574.502        2951.000          43.000  
G25  20633636.450     5921685.330       -2977.000          37.000  
G26  16383422.091    -2604330.619         786.000          47.000  
G27  21109464.460    -5175940.901        4131.000          37.000  
G28  17803558.111     -475373.985         185.000          44.000  
G29  19387779.191     -553531.966        -282.000          42.000  
G31  17512482.047    -2077055.240         949.000          44.000  
G32  17132849.499      626959.085        -841.000          48.000  
> 2024 12 16  3 58 27.9860001  0 10                     
G 3  19689715.527    -4581384.934        1757.000          38.000  
G10  20336051.915     5830589.615       -2901.000          37.000  
G16  17708050.999    -6734524.826        2950.000          43.000  
G25  20634203.085     5924662.851       -2977.000          37.000  
G26  16383272.616    -2605116.179         785.000          47.000  
G27  21108678.281    -5180072.333        4131.000          36.000  
G28  17803522.886     -475559.133         185.000          44.000  
G29  19387833.183     -553248.269        -283.000          41.000  
G31  17512301.523    -2078003.865         948.000          44.000  
G32  17133009.740      627801.078        -841.000          48.000  
> 2024 12 16  3 58 28.9860001  0 10                     
G 3  19689381.358    -4583141.172        1756.000          37.000  
G10  20336604.158     5833491.569       -2901.000          37.000  
G16  17707489.712    -6737474.463        2949.000          43.000  
G25  20634769.752     5927640.553       -2977.000          36.000  
G26  16383123.272    -2605901.011         784.000          47.000  
G27  21107892.107    -5184203.729        4131.000          36.000  
G28  17803487.712     -475744.003         184.000          44.000  
G29  19387887.330     -552963.778        -284.000          41.000  
G31  17512121.064    -2078952.167         948.000          44.000  
G32  17133170.130      628643.838        -842.000          48.000  
> 2024 12 16  3 58 29.9860001  0 10                     
G 3  19689047.285    -4584896.955        1755.000          38.000  
G10  20337156.355     5836393.291       -2901.000          37.000  
G16  17706928.496    -6740423.768        2949.000          43.000  
G25  20635326.066     5930618.0851      -2977.000          36.000  
G26  16382973.996    -2606685.459         784.000          46.000  
G27  21107105.881    -5188335.414        4131.000          36.000  
G28  17803452.527     -475928.937         184.000          44.000  
G29  19387941.558     -552678.852        -284.000          41.000  
G31  17511940.602    -2079900.535         948.000          44.000  
G32  17133330.597      629486.994        -843.000          48.000  
> 2024 12 16  3 58 30.9860001  0 10                     
G 3  19688713.232    -4586652.578        1755.000          37.000  
G10  20337708.475     5839294.541       -2901.000          37.000  
G16  17706367.294    -6743373.007        2949.000          43.000  
G25  20635901.299     5933595.134       -2977.000          35.000  
G26  16382824.736    -2607469.808         784.000          47.000  
G27  21106319.546    -5192467.663        4132.000          36.000  
G28  17803417.278     -476114.212         185.000          44.000  
G29  19387995.825     -552393.703        -285.000          41.000  
G31  17511760.073    -2080849.228         948.000          44.000  
G32  17133491.092      630330.299        -843.000          48.000  
> 2024 12 16  3 58 31.9860001  0 10                     
G 3  19688379.252    -4588407.813        1755.000          37.000  
G10  20338260.558     5842195.507       -2900.000          37.000  
G16  17705806.138    -6746322.013        2949.000          43.000  
G25  20636466.582     5936571.933       -2976.000          35.000  
G26  16382675.527    -2608253.883         784.000          47.000  
G27  21105533.135    -5196600.274        4132.000          36.000  
G28  17803382.004     -476299.615         185.000          44.000  
G29  19388050.150     -552108.229        -285.000          41.000  
G31  17511579.528    -2081797.988         948.000          44.000  
G32  17133651.646      631173.933        -843.000          48.000  
> 2024 12 16  3 58 32.9860001  0 10                     
G 3  19688045.355    -4590162.612        1754.000          37.000  
G10  20338812.613     5845096.289       -2900.000          38.000  
G16  17705245.039    -6749270.628        2948.000          43.000  
G25  20637036.087     5939548.665       -2976.000          34.000  
G26  16382526.400    -2609037.516         783.000          47.000  
G27  21104746.685    -5200733.143        4132.000          36.000  
G28  17803346.728     -476485.042         185.000          44.000  
G29  19388104.552     -551822.280        -285.000          41.000  
G31  17511398.988    -2082746.770         948.000          44.000  
G32  17133812.279      632017.998        -844.000          48.000  
> 2024 12 16  3 58 33.9860001  0 10                     
G 3  19687711.556    -4591916.942        1754.000          37.000  
G10  20339364.617     5847996.854       -2900.000          38.000  
G16  17704683.995    -6752218.908        2948.000          43.000  
G25  20637601.300     5942525.169       -2976.000          35.000  
G26  16382377.334    -2609820.830         783.000          46.000  
G27  21103960.184    -5204866.285        4133.000          36.000  
G28  17803311.433     -476670.580         185.000          44.000  
G29  19388159.038     -551535.828        -286.000          41.000  
G31  17511218.438    -2083695.645         948.000          44.000  
G32  17133972.982      632862.430        -844.000          48.000  
> 2024 12 16  3 58 34.9860001  0 10                     
G 3  19687377.887    -4593670.574        1753.000          37.000  
G10  20339916.617     5850897.437       -2900.000          38.000  
G16  17704123.068    -6755166.603        2947.000          43.000  
G25  20638171.307     5945501.738       -2976.000          35.000  
G26  16382228.400    -2610603.454         782.000          47.000  
G27  21103173.673    -5208999.477        4133.000          37.000  
G28  17803276.189     -476855.864         185.000          44.000  
G29  19388213.642     -551248.745        -287.000          41.000  
G31  17511037.930    -2084644.249         948.000          44.000  
G32  17134133.813      633707.559        -845.000          48.000  
> 2024 12 16  3 58 35.9860001  0 10                     
G 3  19687044.433    -4595422.978        1752.000          37.000  
G10  20340468.722     5853798.616       -2901.000          38.000  
G16  17703562.352    -6758113.169        2946.000          43.000  
G25  20638738.884     5948478.871       -2977.000          35.000  
G26  16382079.684    -2611384.933         781.000          46.000  
G27  21102387.263    -5213132.172        4132.000          37.000  
G28  17803241.074     -477040.483         184.000          44.000  
G29  19388268.490     -550960.426        -288.000          41.000  
G31  17510857.553    -2085592.147         947.000          44.000  
G32  17134294.873      634553.909        -846.000          48.000  
> 2024 12 16  3 58 36.9860001  0 10                     
G 3  19686711.126    -4597174.593        1751.000          37.000  
G10  20341020.853     5856699.928       -2901.000          38.000  
G16  17703001.761    -6761059.053        2945.000          43.000  
G25  20639303.023     5951456.262       -2977.000          35.000  
G26  16381931.110    -2612165.667         780.000          47.000  
G27  21101600.865    -5217264.795        4132.000          36.000  
G28  17803206.020     -477224.788         184.000          44.000  
G29  19388323.499     -550671.309        -289.000          41.000  
G31  17510677.236    -2086539.721         947.000          44.000  
G32  17134456.069      635400.972        -847.000          48.000  
> 2024 12 16  3 58 37.9860001  0 10                     
G 3  19686377.869    -4598925.951        1751.000          37.000  
G10  20341572.889     5859600.778       -2900.000          38.000  
G16  17702441.196    -6764004.796        2945.000          43.000  
G25  20639867.948     5954433.237       -2976.000          35.000  
G26  16381782.567    -2612946.264         780.000          47.000  
G27  21100814.373    -5221397.881        4133.000          36.000  
G28  17803170.913     -477409.353         184.000          44.000  
G29  19388378.565     -550381.930        -289.000          41.000  
G31  17510496.876    -2087487.529         947.000          44.000  
G32  17134617.306      636248.256        -847.000          48.000  
> 2024 12 16  3 58 38.9860001  0 10                     
G 3  19686044.713    -4600676.806        1750.000          37.000  
G10  20342124.910     5862501.554       -2900.000          38.000  
G16  17701880.715    -6766950.124        2945.000          43.000  
G25  20640439.102     5957410.084       -2976.000          35.000  
G26  16381634.119    -2613726.367         780.000          47.000  
G27  21100027.823    -5225531.211        4133.000          36.000  
G28  17803135.807     -477593.904         184.000          44.000  
G29  19388433.744     -550092.011        -289.000          42.000  
G31  17510316.527    -2088435.297         947.000          44.000  
G32  17134778.637      637096.043        -847.000          48.000  
> 2024 12 16  3 58 39.9860001  0 10                     
G 3  19685711.717    -4602426.857        1750.000          37.000  
G10  20342676.953     5865402.441       -2900.000          38.000  
G16  17701320.363    -6769894.736        2944.000          43.000  
G25  20641003.385     5960387.225       -2977.000          35.000  
G26  16381485.813    -2614505.723         779.000          47.000  
G27  21099241.283    -5229664.452        4133.000          36.000  
G28  17803100.761     -477778.156         184.000          44.000  
G29  19388489.075     -549801.315        -290.000          41.000  
G31  17510136.246    -2089382.714         947.000          44.000  
G32  17134940.115      637944.611        -848.000          48.000  
> 2024 12 16  3 58 40.9860001  0 10                     
G 3  19685378.836    -4604176.345        1749.000          38.000  
G10  20343228.971     5868303.224       -2900.000          38.000  
G16  17700760.093    -6772838.899        2944.000          43.000  
G25  20641568.240     5963364.218       -2976.000          35.000  
G26  16381337.591    -2615284.640         778.000          46.000  
G27  21098454.721    -5233797.860        4133.000          36.000  
G28  17803065.718     -477962.377         184.000          44.000  
G29  19388544.515     -549510.064        -291.000          41.000  
G31  17509955.977    -2090330.087         947.000          44.000  
G32  17135101.682      638793.658        -849.000          48.000  
> 2024 12 16  3 58 41.9860001  0 10                     
G 3  19685045.981    -4605925.762        1749.000          37.000  
G10  20343780.876     5871203.427       -2900.000          38.000  
G16  17700199.807    -6775783.116        2944.000          43.000  
G25  20642134.884     5966340.690       -2976.000          35.000  
G26  16381189.380    -2616063.521         778.000          46.000  
G27  21097668.041    -5237931.906        4134.000          36.000  
G28  17803030.599     -478147.014         184.000          44.000  
G29  19388599.968     -549218.723        -291.000          41.000  
G31  17509775.631    -2091277.869         947.000          44.000  
G32  17135263.261      639642.771        -849.000          48.000  
> 2024 12 16  3 58 42.9860001  0 10                     
G 3  19684713.282    -4607674.424        1748.000          38.000  
G10  20344332.798     5874103.731       -2900.000          37.000  
G16  17699639.644    -6778726.687        2943.000          43.000  
G25  20642701.383     5969317.251       -2976.000          35.000  
G26  16381041.297    -2616841.732         778.000          47.000  
G27  21096881.371    -5242065.984        4134.000          36.000  
G28  17802995.518     -478331.437         184.000          44.000  
G29  19388655.554     -548926.641        -292.000          41.000  
G31  17509595.341    -2092225.372         947.000          44.000  
G32  17135424.973      640492.572        -849.000          48.000  
> 2024 12 16  3 58 43.9860001  0 10                     
G 3  19684380.760    -4609422.080        1747.000          38.000  
G10  20344884.775     5877004.353       -2900.000          37.000  
G16  17699079.647    -6781669.368        2942.000          43.000  
G25  20643264.951     5972294.211       -2976.000          35.000  
G26  16380893.396    -2617619.001         777.000          46.000  
G27  21096094.760    -5246199.770        4133.000          36.000  
G28  17802960.538     -478515.335         183.000          44.000  
G29  19388711.317     -548633.568        -293.000          41.000  
G31  17509415.150    -2093172.375         947.000          45.000  
G32  17135586.876      641343.365        -850.000          48.000  
> 2024 12 16  3 58 44.9860001  0 10                     
G 3  19684048.295    -4611169.414        1747.000          38.000  
G10  20345436.689     5879904.649       -2900.000          37.000  
G16  17698519.694    -6784611.820        2942.000          43.000  
G25  20643834.064     5975270.832       -2976.000          36.000  
G26  16380745.544    -2618396.034         777.000          46.000  
G27  21095307.994    -5250333.923        4134.000          36.000  
G28  17802925.515     -478699.437         184.000          44.000  
G29  19388767.147     -548340.165        -293.000          41.000  
G31  17509234.931    -2094119.535         947.000          45.000  
G32  17135748.834      642194.421        -851.000          48.000  
> 2024 12 16  3 58 45.9860001  0 10                     
G 3  19683715.842    -4612916.662        1747.000          37.000  
G10  20345988.511     5882804.463       -2899.000          37.000  
G16  17697959.751    -6787554.232        2942.000          43.000  
G25  20644400.816     5978247.021       -2976.000          37.000  
G26  16380597.714    -2619172.945         776.000          47.000  
G27  21094521.191    -5254468.731        4134.000          36.000  
G28  17802890.433     -478883.872         184.000          44.000  
G29  19388823.009     -548046.589        -293.000          41.000  
G31  17509054.650    -2095067.012         947.000          45.000  
G32  17135910.821      643045.607        -851.000          48.000  
> 2024 12 16  3 58 46.9860001  0 10                     
G 3  19683383.519    -4614663.177        1746.000          38.000  
G10  20346540.325     5885704.216       -2899.000          37.000  
G16  17697399.909    -6790496.101        2941.000          43.000  
G25  20644966.352     5981223.257       -2976.000          37.000  
G26  16380449.986    -2619949.307         776.000          46.000  
G27  21093734.377    -5258603.576        4134.000          36.000  
G28  17802855.371     -479068.193         184.000          44.000  
G29  19388878.996     -547752.381        -294.000          41.000  
G31  17508874.402    -2096014.346         947.000          45.000  
G32  17136072.927      643897.396        -851.000          48.000  
> 2024 12 16  3 58 47.9860001  0 10                     
G 3  19683051.333    -4616408.945        1745.000          37.000  
G10  20347092.152     5888604.070       -2899.000          38.000  
G16  17696840.191    -6793437.313        2941.000          43.000  
G25  20645533.636     5984199.596       -2976.000          37.000  
G26  16380302.392    -2620724.953         775.000          46.000  
G27  21092947.560    -5262738.372        4134.000          36.000  
G28  17802820.359     -479252.235         184.000          44.000  
G29  19388935.138     -547457.400        -294.000          41.000  
G31  17508694.212    -2096961.382         947.000          45.000  
G32  17136235.171      644749.911        -852.000          48.000  
> 2024 12 16  3 58 48.9860001  0 10                     
G 3  19682719.229    -4618154.201        1745.000          38.000  
G10  20347643.962     5891503.846       -2899.000          38.000  
G16  17696280.563    -6796378.071        2940.000          43.000  
G25  20646101.283     5987175.867       -2976.000          37.000  
G26  16380154.884    -2621500.151         775.000          46.000  
G27  21092160.692    -5266873.348        4134.000          36.000  
G28  17802785.346     -479436.255         184.000          44.000  
G29  19388991.378     -547161.879        -295.000          41.000  
G31  17508514.031    -2097908.387         947.000          45.000  
G32  17136397.514      645602.946        -853.000          48.000  
> 2024 12 16  3 58 49.9860001  0 10                     
G 3  19682387.165    -4619899.188        1744.000          37.000  
G10  20348195.688     5894403.214       -2899.000          37.000  
G16  17695720.971    -6799318.681        2940.000          43.000  
G25  20646668.284     5990151.802       -2975.000          37.000  
G26  16380007.418    -2622275.137         774.000          46.000  
G27  21091373.736    -5271008.840        4135.000          36.000  
G28  17802750.283     -479620.513         184.000          44.000  
G29  19389047.662     -546866.073        -295.000          41.000  
G31  17508333.808    -2098855.613         947.000          45.000  
G32  17136559.894      646456.186        -853.000          48.000  
> 2024 12 16  3 58 50.9860001  0 10                     
G 3  19682055.217    -4621643.644        1744.000          38.000  
G10  20348747.389     5897302.442       -2899.000          37.000  
G16  17695161.469    -6802258.871        2940.000          43.000  
G25  20647235.072     5993127.590       -2975.000          38.000  
G26  16379860.039    -2623049.659         774.000          46.000  
G27  21090586.742    -5275144.536        4135.000          36.000  
G28  17802715.226     -479804.750         184.000          44.000  
G29  19389104.038     -546569.737        -296.000          41.000  
G31  17508153.603    -2099802.765         947.000          45.000  
G32  17136722.376      647309.945        -853.000          48.000  
> 2024 12 16  3 58 51.9860001  0 10                     
G 3  19681723.381    -4623387.531        1743.000          38.000  
G10  20349299.077     5900201.580       -2899.000          37.000  
G16  17694602.056    -6805198.610        2939.000          43.000  
G25  20647801.358     5996103.323       -2975.000          38.000  
G26  16379712.756    -2623823.679         774.000          46.000  
G27  21089799.712    -5279280.349        4135.000          36.000  
G28  17802680.186     -479988.922         184.000          44.000  
G29  19389160.518     -546272.834        -296.000          41.000  
G31  17507973.415    -2100749.823         947.000          45.000  
G32  17136884.957      648164.226        -854.000          48.000  
> 2024 12 16  3 58 52.9860001  0 10                     
G 3  19681391.648    -4625130.893        1743.000          38.000  
G10  20349850.743     5903100.538       -2898.000          38.000  
G16  17694042.727    -6808137.934        2939.000          43.000  
G25  20648367.683     5999079.005       -2975.000          38.000  
G26  16379565.551    -2624597.272         773.000          46.000  
G27  21089012.651    -5283416.393        4136.000          36.000  
G28  17802645.141     -480173.125         184.000          44.000  
G29  19389217.099     -545975.434        -297.000          41.000  
G31  17507793.229    -2101696.874         947.000          45.000  
G32  17137047.627      649018.972        -854.000          48.000  
> 2024 12 16  3 58 53.9860001  0 10                     
G 3  19681060.015    -4626873.789        1742.000          38.000  
G10  20350402.385     5905999.336       -2898.000          38.000  
G16  17693483.476    -6811076.889        2938.000          43.000  
G25  20648934.863     6002054.509       -2975.000          38.000  
G26  16379418.426    -2625370.430         773.000          46.000  
G27  21088225.548    -5287552.690        4136.000          36.000  
G28  17802610.098     -480357.312         184.000          44.000  
G29  19389273.778     -545677.547        -297.000          41.000  
G31  17507613.042    -2102643.928         947.000          45.000  
G32  17137210.379      649874.159        -855.000          48.000  
> 2024 12 16  3 58 54.9860001  0 10                     
G 3  19680728.503    -4628616.117        1742.000          38.000  
G10  20350954.020     5908898.060       -2898.000          38.000  
G16  17692924.314    -6814015.386        2938.000          43.000  
G25  20649501.471     6005029.965       -2975.000          38.000  
G26  16379271.389    -2626143.104         772.000          46.000  
G27  21087438.405    -5291689.142        4136.000          36.000  
G28  17802575.059     -480541.474         184.000          44.000  
G29  19389330.571     -545379.096        -298.000          41.000  
G31  17507432.873    -2103590.889         946.000          45.000  
G32  17137373.231      650729.899        -855.000          48.000  
> 2024 12 16  3 58 55.9860001  0 10                     
G 3  19680397.085    -4630357.948        1741.000          38.000  
G10  20351505.620     5911796.581       -2898.000          38.000  
G16  17692365.238    -6816953.467        2938.000          43.000  
G25  20650067.862     6008005.288       -2975.000          38.000  
G26  16379124.428    -2626915.353         772.000          46.000  
G27  21086651.230    -5295825.829        4136.000          36.000  
G28  17802540.015     -480725.641         184.000          44.000  
G29  19389387.452     -545080.150        -298.000          41.000  
G31  17507252.701    -2104537.859         946.000          45.000  
G32  17137536.160      651586.073        -856.000          48.000  
> 2024 12 16  3 58 56.9860001  0 10                     
G 3  19680065.797    -4632099.102        1741.000          38.000  
G10  20352057.219     5914695.106       -2898.000          38.000  
G16  17691806.261    -6819891.016        2937.000          43.000  
G25  20650633.148     6010980.638       -2975.000          38.000  
G26  16378977.582    -2627686.993         771.000          46.000  
G27  21085864.025    -5299962.604        4136.000          36.000  
G28  17802505.005     -480909.629         183.000          44.000  
G29  19389444.453     -544780.515        -299.000          41.000  
G31  17507072.567    -2105484.628         946.000          45.000  
G32  17137699.210      652442.889        -856.000          48.000  
> 2024 12 16  3 58 57.9860001  0 10                     
G 3  19679734.622    -4633839.664        1740.000          37.000  
G10  20352608.812     5917593.618       -2898.000          38.000  
G16  17691247.368    -6822828.062        2937.000          43.000  
G25  20651199.076     6013956.007       -2975.000          38.000  
G26  16378830.839    -2628458.098         771.000          46.000  
G27  21085076.816    -5304099.489        4136.000          36.000  
G28  17802470.015     -481093.521         183.000          44.000  
G29  19389501.562     -544480.294        -300.000          41.000  
G31  17506892.461    -2106431.254         946.000          45.000  
G32  17137862.370      653300.284        -857.000          48.000  
> 2024 12 16  3 58 58.9860001  0 10                     
G 3  19679403.583    -4635579.465        1739.000          37.000  
G10  20353160.410     5920492.172       -2898.000          38.000  
G16  17690688.593    -6825764.449        2936.000          43.000  
G25  20651765.074     6016931.463       -2975.000          38.000  
G26  16378684.219    -2629228.534         770.000          46.000  
G27  21084289.618    -5308236.337        4136.000          36.000  
G28  17802435.069     -481277.195         183.000          44.000  
G29  19389558.824     -544179.316        -300.000          41.000  
G31  17506712.404    -2107377.646         946.000          45.000  
G32  17138025.664      654158.370        -858.000          48.000  
> 2024 12 16  3 58 59.9860001  0 10                     
G 3  19679072.710    -4637318.413        1738.000          37.000  
G10  20353712.047     5923390.944       -2898.000          38.000  
G16  17690129.950    -6828700.096        2935.000          43.000  
G25  20652332.219     6019907.214       -2975.000          38.000  
G26  16378537.755    -2629998.159         769.000          46.000  
G27  21083502.451    -5312373.074        4136.000          36.000  
G28  17802400.195     -481460.501         183.000          44.000  
G29  19389616.247     -543877.510        -301.000          41.000  
G31  17506532.427    -2108323.649         946.000          45.000  
G32  17138189.117      655017.289        -858.000          48.000  
> 2024 12 16  3 59  0.9860001  0 10                     
G 3  19678741.965    -4639056.716        1738.000          38.000  
G10  20354263.688     5926289.704       -2898.000          38.000  
G16  17689571.408    -6831635.192        2935.000          43.000  
G25  20652897.829     6022882.924       -2975.000          38.000  
G26  16378391.395    -2630767.233         769.000          46.000  
G27  21082715.286    -5316509.839        4136.000          37.000  
G28  17802365.344     -481643.678         183.000          44.000  
G29  19389673.814     -543575.039        -302.000          41.000  
G31  17506352.486    -2109269.479         945.000          45.000  
G32  17138352.686      655876.812        -859.000          48.000  
> 2024 12 16  3 59  1.9860001  0 10                     
G 3  19678411.377    -4640794.128        1737.000          38.000  
G10  20354815.367     5929188.682       -2898.000          38.000  
G16  17689013.014    -6834569.502        2934.000          43.000  
G25  20653463.648     6025858.928       -2975.000          38.000  
G26  16378245.201    -2631535.458         768.000          46.000  
G27  21081928.146    -5320646.469        4136.000          36.000  
G28  17802330.572     -481826.438         182.000          44.000  
G29  19389731.556     -543271.645        -303.000          41.000  
G31  17506172.625    -2110214.907         945.000          45.000  
G32  17138516.423      656737.218        -860.000          48.000  
> 2024 12 16  3 59  2.9860001  0 10                     
G 3  19678080.914    -4642530.884        1736.000          38.000  
G10  20355367.037     5932087.662       -2898.000          38.000  
G16  17688454.722    -6837503.267        2933.000          43.000  
G25  20654029.113     6028834.980       -2976.000          38.000  
G26  16378099.121    -2632303.092         767.000          46.000  
G27  21081140.987    -5324783.219        4136.000          36.000  
G28  17802295.827     -482009.064         182.000          44.000  
G29  19389789.421     -542967.604        -304.000          41.000  
G31  17505992.801    -2111160.154         945.000          45.000  
G32  17138680.270      657598.217        -860.000          48.000  
> 2024 12 16  3 59  3.9860001  0 10                     
G 3  19677750.503    -4644267.310        1736.000          38.000  
G10  20355918.639     5934986.323       -2898.000          38.000  
G16  17687896.476    -6840436.780        2933.000          43.000  
G25  20654595.041     6031810.782       -2975.000          38.000  
G26  16377953.094    -2633070.458         767.000          46.000  
G27  21080353.748    -5328920.333        4137.000          36.000  
G28  17802261.053     -482191.861         182.000          44.000  
G29  19389847.352     -542663.240        -304.000          41.000  
G31  17505812.945    -2112105.565         945.000          45.000  
G32  17138844.173      658459.535        -861.000          48.000  
> 2024 12 16  3 59  4.9860001  0 10                     
G 3  19677420.182    -4646003.255        1735.000          38.000  
G10  20356470.210     5937884.813       -2898.000          39.000  
G16  17687338.300    -6843369.938        2933.000          43.000  
G25  20655161.650     6034786.388       -2975.000          38.000  
G26  16377807.146    -2633837.422         766.000          46.000  
G27  21079566.454    -5333057.690        4137.000          36.000  
G28  17802226.271     -482374.688         182.000          44.000  
G29  19389905.374     -542358.375        -304.000          41.000  
G31  17505633.088    -2113050.960         945.000          45.000  
G32  17139008.157      659321.297        -861.000          48.000  
> 2024 12 16  3 59  5.9860001  0 10                     
G 3  19677089.939    -4647738.781        1735.000          38.000  
G10  20357021.735     5940782.980       -2898.000          39.000  
G16  17686780.176    -6846302.818        2932.000          43.000  
G25  20655727.792     6037761.718       -2975.000          38.000  
G26  16377661.257    -2634604.069         766.000          46.000  
G27  21078779.087    -5337195.382        4137.000          36.000  
G28  17802191.465     -482557.636         182.000          44.000  
G29  19389963.452     -542053.150        -305.000          41.000  
G31  17505453.206    -2113996.468         945.000          45.000  
G32  17139172.205      660183.399        -862.000          48.000  
> 2024 12 16  3 59  6.9860001  0 10                     
G 3  19676759.810    -4649473.791        1735.000          38.000  
G10  20357573.241     5943681.046       -2898.000          38.000  
G16  17686222.135    -6849235.277        2932.000          43.000  
G25  20656293.829     6040737.010       -2975.000          38.000  
G26  16377515.456    -2635370.254         766.000          46.000  
G27  21077991.680    -5341333.254        4137.000          36.000  
G28  17802156.660     -482740.558         182.000          44.000  
G29  19390021.633     -541747.376        -305.000          41.000  
G31  17505273.343    -2114941.904         945.000          45.000  
G32  17139336.350      661045.996        -862.000          48.000  
> 2024 12 16  3 59  7.9860001  0 10                     
G 3  19676429.779    -4651208.245        1734.000          38.000  
G10  20358124.737     5946579.016       -2897.000          38.000  
G16  17685664.181    -6852167.285        2932.000          43.000  
G25  20656860.045     6043712.206       -2975.000          38.000  
G26  16377369.740    -2636135.952         765.000          46.000  
G27  21077204.243    -5345471.327        4138.000          36.000  
G28  17802121.857     -482923.442         182.000          44.000  
G29  19390079.911     -541441.041        -306.000          40.000  
G31  17505093.491    -2115887.296         945.000          45.000  
G32  17139500.597      661909.113        -863.000          48.000  
> 2024 12 16  3 59  8.9860001  0 10                     
G 3  19676099.872    -4652942.028        1733.000          37.000  
G10  20358676.222     5949476.965       -2897.000          39.000  
G16  17685106.342    -6855098.694        2931.000          43.000  
G25  20657425.899     6046687.532       -2975.000          38.000  
G26  16377224.138    -2636901.051         765.000          46.000  
G27  21076416.781    -5349609.458        4138.000          36.000  
G28  17802087.091     -483106.134         182.000          44.000  
G29  19390138.312     -541134.027        -307.000          40.000  
G31  17504913.687    -2116832.466         945.000          45.000  
G32  17139664.973      662772.878        -863.000          48.000  
> 2024 12 16  3 59  9.9860001  0 10                     
G 3  19675770.053    -4654675.324        1733.000          37.000  
G10  20359227.675     5952374.779       -2897.000          38.000  
G16  17684548.568    -6858029.764        2931.000          43.000  
G25  20657991.866     6049662.619       -2975.000          38.000  
G26  16377078.616    -2637665.712         764.000          46.000  
G27  21075629.275    -5353747.832        4138.000          36.000  
G28  17802052.314     -483288.880         182.000          44.000  
G29  19390196.785     -540826.501        -307.000          40.000  
G31  17504733.885    -2117777.655         945.000          45.000  
G32  17139829.438      663637.088        -864.000          48.000  
> 2024 12 16  3 59 10.9860001  0 10                     
G 3  19675440.359    -4656407.951        1732.000          37.000  
G10  20359779.124     5955272.605       -2897.000          38.000  
G16  17683990.906    -6860960.230        2930.000          43.000  
G25  20658557.615     6052637.830       -2975.000          37.000  
G26  16376933.213    -2638429.756         764.000          46.000  
G27  21074841.763    -5357886.225        4138.000          36.000  
G28  17802017.580     -483471.411         182.000          44.000  
G29  19390255.388     -540518.301        -308.000          40.000  
G31  17504554.121    -2118722.637         944.000          45.000  
G32  17139994.030      664501.948        -864.000          48.000  
> 2024 12 16  3 59 11.9860001  0 10                     
G 3  19675110.801    -4658139.813        1731.000          37.000  
G10  20360330.579     5958170.480       -2897.000          38.000  
G16  17683433.358    -6863890.067        2929.000          43.000  
G25  20659123.792     6055613.114       -2975.000          38.000  
G26  16376787.937    -2639193.142         763.000          46.000  
G27  21074054.246    -5362024.615        4138.000          36.000  
G28  17801982.885     -483653.755         182.000          44.000  
G29  19390314.119     -540209.387        -308.000          40.000  
G31  17504374.405    -2119667.354         944.000          45.000  
G32  17140158.753      665367.502        -865.000          48.000  
> 2024 12 16  3 59 12.9860001  0 10                     
G 3  19674781.323    -4659871.195        1731.000          37.000  
G10  20360882.012     5961068.198       -2897.000          39.000  
G16  17682875.876    -6866819.512        2929.000          43.000  
G25  20659690.221     6058588.301       -2975.000          37.000  
G26  16376642.736    -2639956.110         762.000          46.000  
G27  21073266.655    -5366163.216        4138.000          36.000  
G28  17801948.196     -483836.076         182.000          44.000  
G29  19390372.964     -539899.979        -309.000          40.000  
G31  17504194.681    -2120612.072         944.000          45.000  
G32  17140323.563      666233.501        -865.000          48.000  
> 2024 12 16  3 59 13.9860001  0 10                     
G 3  19674451.954    -4661601.977        1730.000          37.000  
G10  20361433.442     5963965.820       -2897.000          39.000  
G16  17682318.490    -6869748.479        2928.000          43.000  
G25  20660256.293     6061563.441       -2975.000          37.000  
G26  16376497.642    -2640718.523         762.000          46.000  
G27  21072479.049    -5370301.993        4138.000          35.000  
G28  17801913.522     -484018.325         182.000          44.000  
G29  19390431.920     -539589.961        -310.000          41.000  
G31  17504014.984    -2121556.656         944.000          45.000  
G32  17140488.486      667100.097        -866.000          48.000  
> 2024 12 16  3 59 14.9860001  0 10                     
G 3  19674122.685    -4663332.199        1730.000          37.000  
G10  20361984.867     5966863.389       -2897.000          39.000  
G16  17681761.198    -6872676.961        2928.000          43.000  
G25  20660822.509     6064538.552       -2975.000          37.000  
G26  16376352.641    -2641480.464         761.000          46.000  
G27  21071691.439    -5374440.890        4138.000          35.000  
G28  17801878.861     -484200.488         182.000          44.000  
G29  19390490.992     -539279.369        -310.000          41.000  
G31  17503835.303    -2122501.171         944.000          45.000  
G32  17140653.498      667967.180        -867.000          48.000  
> 2024 12 16  3 59 15.9860001  0 10                     
G 3  19673793.546    -4665061.748        1729.000          37.000  
G10  20362536.298     5969760.967       -2897.000          39.000  
G16  17681204.016    -6875604.892        2927.000          43.000  
G25  20661388.149     6067513.688       -2975.000          37.000  
G26  16376207.761    -2642241.780         761.000          46.000  
G27  21070903.849    -5378579.879        4138.000          35.000  
G28  17801844.226     -484382.502         182.000          44.000  
G29  19390550.212     -538968.112        -311.000          41.000  
G31  17503655.659    -2123445.498         944.000          45.000  
G32  17140818.639      668834.945        -867.000          48.000  
> 2024 12 16  3 59 16.9860001  0 10                     
G 3  19673464.493    -4666790.832        1729.000          37.000  
G10  20363087.677     5972658.336       -2897.000          39.000  
G16  17680646.913    -6878532.462        2927.000          43.000  
G25  20661953.938     6070488.710       -2975.000          37.000  
G26  16376062.953    -2643002.734         760.000          46.000  
G27  21070116.190    -5382719.088        4139.000          35.000  
G28  17801809.576     -484564.563         182.000          44.000  
G29  19390609.522     -538656.401        -311.000          41.000  
G31  17503476.006    -2124389.868         944.000          45.000  
G32  17140983.854      669703.093        -868.000          48.000  
> 2024 12 16  3 59 17.9860001  0 10                     
G 3  19673135.532    -4668519.471        1728.000          37.000  
G10  20363638.995     5975555.451       -2897.000          38.000  
G16  17680089.882    -6881459.675        2927.000          43.000  
G25  20662520.795     6073463.486       -2974.000          37.000  
G26  16375918.225    -2643763.267         760.000          46.000  
G27  21069328.547    -5386858.600        4139.000          36.000  
G28  17801774.904     -484746.702         182.000          44.000  
G29  19390668.922     -538344.229        -312.000          41.000  
G31  17503296.356    -2125334.245         944.000          45.000  
G32  17141149.150      670571.683        -868.000          48.000  
> 2024 12 16  3 59 18.9860001  0 10                     
G 3  19672806.666    -4670247.674        1728.000          38.000  
G10  20364190.267     5978452.373       -2896.000          38.000  
G16  17679532.912    -6884386.566        2926.000          43.000  
G25  20663088.154     6076438.083       -2974.000          37.000  
G26  16375773.562    -2644523.454         760.000          46.000  
G27  21068540.816    -5390998.427        4139.000          36.000  
G28  17801740.226     -484928.860         182.000          44.000  
G29  19390728.403     -538031.632        -312.000          41.000  
G31  17503116.699    -2126278.683         944.000          45.000  
G32  17141314.520      671440.670        -868.000          48.000  
> 2024 12 16  3 59 19.9860001  0 10                     
G 3  19672477.973    -4671975.020        1727.000          38.000  
G10  20364741.568     5981349.453       -2897.000          38.000  
G16  17678976.086    -6887312.738        2926.000          43.000  
G25  20663654.514     6079412.888       -2974.000          36.000  
G26  16375629.042    -2645282.876         759.000          46.000  
G27  21067753.087    -5395138.134        4139.000          36.000  
G28  17801705.604     -485110.745         181.000          44.000  
G29  19390788.038     -537718.204        -313.000          41.000  
G31  17502937.112    -2127222.764         944.000          45.000  
G32  17141480.039      672310.435        -869.000          48.000  
> 2024 12 16  3 59 20.9860001  0 10                     
G 3  19672149.354    -4673701.976        1726.000          37.000  
G10  20365292.837     5984246.320       -2896.000          38.000  
G16  17678419.326    -6890238.576        2925.000          43.000  
G25  20664221.227     6082387.553       -2974.000          36.000  
G26  16375484.580    -2646041.978         759.000          46.000  
G27  21066965.302    -5399278.125        4139.000          36.000  
G28  17801670.967     -485292.717         181.000          44.000  
G29  19390847.750     -537404.354        -313.000          41.000  
G31  17502757.505    -2128166.929         944.000          45.000  
G32  17141645.630      673180.574        -870.000          48.000  
> 2024 12 16  3 59 21.9860001  0 10                     
G 3  19671820.767    -4675428.782        1726.000          37.000  
G10  20365843.996     5987142.582       -2896.000          38.000  
G16  17677862.570    -6893164.406        2925.000          43.000  
G25  20664786.907     6085361.604       -2974.000          36.000  
G26  16375340.132    -2646801.007         759.000          46.000  
G27  21066177.385    -5403418.721        4140.000          36.000  
G28  17801636.260     -485475.079         182.000          44.000  
G29  19390907.499     -537090.376        -313.000          41.000  
G31  17502577.828    -2129111.438         944.000          45.000  
G32  17141811.241      674050.825        -870.000          48.000  
> 2024 12 16  3 59 22.9860001  0 10                     
G 3  19671492.365    -4677154.655        1725.000          37.000  
G10  20366395.224     5990039.166       -2896.000          38.000  
G16  17677305.976    -6896089.393        2924.000          43.000  
G25  20665352.979     6088336.088       -2974.000          36.000  
G26  16375195.857    -2647559.124         758.000          46.000  
G27  21065389.494    -5407559.116        4140.000          36.000  
G28  17801601.654     -485656.935         181.000          44.000  
G29  19390967.441     -536775.420        -314.000          41.000  
G31  17502398.243    -2130055.464         944.000          45.000  
G32  17141977.021      674921.977        -871.000          48.000  
> 2024 12 16  3 59 23.9860001  0 10                     
G 3  19671164.072    -4678879.878        1725.000          37.000  
G10  20366946.467     5992935.790       -2896.000          38.000  
G16  17676749.492    -6899013.778        2924.000          43.000  
G25  20665918.941     6091310.584       -2974.000          36.000  
G26  16375051.695    -2648316.650         757.000          46.000  
G27  21064601.590    -5411699.561        4140.000          36.000  
G28  17801567.072     -485838.649         181.000          44.000  
G29  19391027.517     -536459.821        -315.000          41.000  
G31  17502218.694    -2130999.283         943.000          45.000  
G32  17142142.921      675793.782        -871.000          48.000  
> 2024 12 16  3 59 24.9860001  0 10                     
G 3  19670835.889    -4680604.407        1724.000          37.000  
G10  20367497.694     5995832.333       -2896.000          38.000  
G16  17676193.105    -6901937.664        2923.000          43.000  
G25  20666484.765     6094285.121       -2974.000          35.000  
G26  16374907.635    -2649073.627         756.000          46.000  
G27  21063813.676    -5415840.063        4140.000          36.000  
G28  17801532.507     -486020.265         181.000          44.000  
G29  19391087.700     -536143.596        -316.000          41.000  
G31  17502039.166    -2131942.979         943.000          45.000  
G32  17142308.930      676666.167        -872.000          48.000  
> 2024 12 16  3 59 25.9860001  0 10                     
G 3  19670507.799    -4682328.446        1724.000          37.000  
G10  20368048.895     5998728.771       -2896.000          39.000  
G16  17675636.795    -6904861.121        2923.000          43.000  
G25  20667044.467     6097259.506       -2974.000          35.000  
G26  16374763.664    -2649830.135         756.000          46.000  
G27  21063025.729    -5419980.776        4140.000          36.000  
G28  17801497.942     -486201.833         181.000          44.000  
G29  19391147.990     -535826.800        -316.000          41.000  
G31  17501859.645    -2132886.622         943.000          45.000  
G32  17142475.034      677539.063        -872.000          48.000  
> 2024 12 16  3 59 26.9860001  0 10                     
G 3  19670179.774    -4684052.180        1723.000          37.000  
G10  20368600.029     6001624.847       -2896.000          39.000  
G16  17675080.521    -6907784.383        2923.000          43.000  
G25  20667611.543     6100233.582       -2974.000          35.000  
G26  16374619.743    -2650586.394         756.000          46.000  
G27  21062237.691    -5424121.884        4141.000          36.000  
G28  17801463.337     -486383.616         181.000          44.000  
G29  19391208.328     -535509.727        -317.000          41.000  
G31  17501680.082    -2133830.459         943.000          45.000  
G32  17142641.185      678412.211        -873.000          48.000  
> 2024 12 16  3 59 27.9860001  0 10                     
G 3  19669851.786    -4685775.739        1723.000          37.000  
G10  20369151.072     6004520.445       -2895.000          39.000  
G16  17674524.263    -6910707.521        2923.000          43.000  
G25  20668177.397     6103207.279       -2973.000          35.000  
G26  16374475.840    -2651342.543         756.000          46.000  
G27  21061449.513    -5428263.647        4141.000          36.000  
G28  17801428.676     -486565.696         182.000          44.000  
G29  19391268.706     -535192.428        -317.000          41.000  
G31  17501500.469    -2134774.568         944.000          45.000  
G32  17142807.370      679285.517        -873.000          48.000  
> 2024 12 16  3 59 28.9860001  0 10                     
G 3  19669523.879    -4687498.880        1723.000          37.000  
G10  20369702.053     6007415.749       -2895.000          38.000  
G16  17673968.046    -6913630.429        2922.000          43.000  
G25  20668746.047     6106180.643       -2973.000          35.000  
G26  16374331.996    -2652098.393         755.000          46.000  
G27  21060663.157    -5432405.6371       4141.000          36.000  
G28  17801393.987     -486747.944         182.000          44.000  
G29  19391329.137     -534874.819        -317.000          41.000  
G31  17501320.831    -2135718.802         944.000          45.000  
G32  17142973.622      680159.156        -873.000          48.000  
> 2024 12 16  3 59 29.9860001  0 10                     
G 3  19669196.029    -4689221.766        1722.000          38.000  
G10  20370252.963     6010310.672       -2894.000          39.000  
G16  17673411.864    -6916553.127        2922.000          43.000  
G25  20669311.329     6109153.777       -2973.000          36.000  
G26  16374188.189    -2652854.034         755.000          46.000  
G27  21059872.933    -5436548.1171       4142.000          36.000  
G28  17801359.270     -486930.394         182.000          44.000  
G29  19391389.629     -534556.896        -317.000          41.000  
G31  17501141.157    -2136663.249         944.000          45.000  
G32  17143139.928      681033.059        -873.000          48.000  
> 2024 12 16  3 59 30.9860001  0 10                     
G 3  19668868.326    -4690943.902        1722.000          38.000  
G10  20370803.887     6013205.659       -2894.000          39.000  
G16  17672855.795    -6919475.226        2922.000          43.000  
G25  20669883.661     6112126.923       -2973.000          36.000  
G26  16374044.516    -2653608.994         754.000          46.000  
G27  21059084.353    -5440690.610        4142.000          36.000  
G28  17801324.604     -487112.611         182.000          44.000  
G29  19391450.258     -534238.225        -318.000          41.000  
G31  17500961.535    -2137607.403         944.000          45.000  
G32  17143306.368      681907.640        -874.000          48.000  
> 2024 12 16  3 59 31.9860001  0 10                     
G 3  19668540.758    -4692665.309        1721.000          38.000  
G10  20371354.819     6016100.663       -2894.000          39.000  
G16  17672299.841    -6922396.704        2921.000          43.000  
G25  20670448.089     6115100.120       -2973.000          36.000  
G26  16373900.968    -2654363.321         754.000          46.000  
G27  21058295.167    -5444833.101        4142.000          36.000  
G28  17801289.979     -487294.633         182.000          44.000  
G29  19391511.003     -533918.859        -319.000          40.000  
G31  17500781.953    -2138551.352         943.000          45.000  
G32  17143472.942      682782.918        -875.000          48.000  
> 2024 12 16  3 59 32.9860001  0 10                     
G 3  19668213.304    -4694386.155        1720.000          37.000  
G10  20371905.755     6018995.675       -2895.000          39.000  
G16  17671743.985    -6925317.663        2920.000          43.000  
G25  20671014.697     6118073.395       -2973.000          37.000  
G26  16373757.532    -2655117.084         753.000          46.000  
G27  21057501.828    -5448975.676        4142.000          36.000  
G28  17801255.370     -487476.538         181.000          44.000  
G29  19391571.862     -533598.879        -319.000          40.000  
G31  17500602.394    -2139495.164         943.000          45.000  
G32  17143639.622      683658.771        -875.000          48.000  
> 2024 12 16  3 59 33.9860001  0 10                     
G 3  19667885.990    -4696106.228        1720.000          37.000  
G10  20372456.687     6021890.700       -2895.000          39.000  
G16  17671188.235    -6928238.032        2920.000          43.000  
G25  20671579.875     6121046.701       -2973.000          36.000  
G26  16373614.206    -2655870.264         753.000          46.000  
G27  21056721.476    -5453118.269        4142.000          36.000  
G28  17801220.789     -487658.250         181.000          44.000  
G29  19391632.865     -533278.165        -320.000          41.000  
G31  17500422.879    -2140438.761         943.000          45.000  
G32  17143806.417      684535.253        -876.000          48.000  
> 2024 12 16  3 59 34.9860001  0 10                     
G 3  19667558.799    -4697825.656        1719.000          37.000  
G10  20373007.630     6024785.783       -2895.000          39.000  
G16  17670632.606    -6931157.777        2919.000          43.000  
G25  20672144.551     6124020.136       -2973.000          36.000  
G26  16373471.015    -2656622.736         752.000          46.000  
G27  21055938.262    -5457260.875        4142.000          36.000  
G28  17801186.241     -487839.765         181.000          44.000  
G29  19391693.998     -532956.731        -321.000          41.000  
G31  17500243.418    -2141382.085         943.000          45.000  
G32  17143973.346      685412.454        -877.000          48.000  
> 2024 12 16  3 59 35.9860001  0 10                     
G 3  19667231.718    -4699544.381        1718.000          37.000  
G10  20373558.567     6027680.813       -2895.000          39.000  
G16  17670077.075    -6934077.006        2919.000          43.000  
G25  20672709.332     6126993.537       -2973.000          36.000  
G26  16373327.922    -2657374.688         751.000          46.000  
G27  21055148.897    -5461403.583        4142.000          36.000  
G28  17801151.726     -488021.128         181.000          44.000  
G29  19391755.247     -532634.692        -322.000          41.000  
G31  17500063.982    -2142325.300         943.000          45.000  
G32  17144140.384      686290.234        -877.000          48.000  
> 2024 12 16  3 59 36.9860001  0 10                     
G 3  19666904.720    -4701262.598        1718.000          36.000  
G10  20374109.484     6030575.743       -2894.000          39.000  
G16  17669521.630    -6936995.795        2918.000          43.000  
G25  20673273.475     6129966.893       -2973.000          37.000  
G26  16373184.923    -2658126.109         751.000          46.000  
G27  21054359.781    -5465546.465        4142.000          35.000  
G28  17801117.217     -488202.457         181.000          44.000  
G29  19391816.626     -532312.085        -322.000          41.000  
G31  17499884.565    -2143268.421         943.000          45.000  
G32  17144307.525      687168.553        -878.000          48.000  
> 2024 12 16  3 59 37.9860001  0 10                     
G 3  19666577.768    -4702980.563        1717.000          36.000  
G10  20374660.323     6033470.236       -2894.000          39.000  
G16  17668966.217    -6939914.432        2918.000          43.000  
G25  20673838.256     6132939.870       -2972.000          37.000  
G26  16373041.948    -2658877.402         751.000          46.000  
G27  21053570.664    -5469689.842        4143.000          36.000  
G28  17801082.654     -488384.053         181.000          44.000  
G29  19391878.062     -531989.264        -322.000          41.000  
G31  17499705.096    -2144211.819         943.000          45.000  
G32  17144474.701      688047.047        -878.000          48.000  
> 2024 12 16  3 59 38.9860001  0 10                     
G 3  19666250.940    -4704697.875        1717.000          36.000  
G10  20375211.155     6036364.676       -2894.000          39.000  
G16  17668410.905    -6942832.555        2918.000          43.000  
G25  20674403.399     6135912.813       -2972.000          37.000  
G26  16372899.080    -2659628.126         750.000          46.000  
G27  21052780.440    -5473833.303        4143.000          35.000  
G28  17801048.113     -488565.527         181.000          44.000  
G29  19391939.636     -531665.767        -323.000          41.000  
G31  17499525.659    -2145155.054         943.000          45.000  
G32  17144641.992      688926.133        -879.000          48.000  
> 2024 12 16  3 59 39.9860001  0 10                     
G 3  19665924.234    -4706414.617        1716.000          37.000  
G10  20375761.982     6039259.091       -2894.000          39.000  
G16  17667855.688    -6945750.196        2917.000          43.000  
G25  20674968.363     6138885.759       -2972.000          37.000  
G26  16372756.311    -2660378.340         750.000          46.000  
G27  21051979.196    -5477976.929        4143.000          36.000  
G28  17801013.592     -488746.907         181.000          44.000  
G29  19392001.333     -531341.673        -324.000          42.000  
G31  17499346.243    -2146098.172         943.000          45.000  
G32  17144809.396      689805.795        -879.000          48.000  
> 2024 12 16  3 59 40.9860001  0 10                     
G 3  19665597.620    -4708130.925        1716.000          37.000  
G10  20376312.756     6042153.252       -2894.000          39.000  
G16  17667300.540    -6948667.466        2917.000          43.000  
G25  20675534.038     6141858.509       -2972.000          37.000  
G26  16372613.625    -2661128.133         749.000          46.000  
G27  21051196.841    -5482120.834        4143.000          35.000  
G28  17800979.050     -488928.389         181.000          44.000  
G29  19392063.117     -531017.185        -324.000          42.000  
G31  17499166.821    -2147041.308         943.000          45.000  
G32  17144976.877      690685.865        -880.000          48.000  
> 2024 12 16  3 59 41.9860001  0 10                     
G 3  19665271.133    -4709846.630        1715.000          37.000  
G10  20376863.518     6045047.361       -2894.000          39.000  
G16  17666745.489    -6951584.255        2916.000          43.000  
G25  20676100.398     6144831.238       -2972.000          37.000  
G26  16372471.038    -2661877.435         749.000          46.000  
G27  21050408.188    -5486264.800        4143.000          35.000  
G28  17800944.530     -489109.742         181.000          44.000  
G29  19392125.021     -530692.074        -325.000          41.000  
G31  17498987.417    -2147984.350         943.000          45.000  
G32  17145144.463      691566.490        -880.000          48.000  
> 2024 12 16  3 59 42.9860001  0 10                     
G 3  19664944.798    -4711561.556        1714.000          37.000  
G10  20377414.293     6047941.528       -2894.000          39.000  
G16  17666190.565    -6954500.408        2916.000          43.000  
G25  20676666.579     6147804.085       -2972.000          38.000  
G26  16372328.582    -2662626.048         748.000          46.000  
G27  21049621.828    -5490408.793        4143.000          35.000  
G28  17800910.056     -489290.851         181.000          44.000  
G29  19392187.064     -530366.190        -325.000          41.000  
G31  17498808.055    -2148927.151         942.000          45.000  
G32  17145312.175      692447.808        -881.000          48.000  
> 2024 12 16  3 59 43.9860001  0 10                     
G 3  19664618.594    -4713275.789        1714.000          37.000  
G10  20377965.081     6050835.762       -2894.000          39.000  
G16  17665635.766    -6957415.934        2915.000          43.000  
G25  20677233.113     6150777.000       -2972.000          38.000  
G26  16372186.248    -2663374.024         747.000          46.000  
G27  21048833.820    -5494552.781        4143.000          35.000  
G28  17800875.620     -489471.758         180.000          44.000  
G29  19392249.229     -530039.611        -326.000          41.000  
G31  17498628.744    -2149869.681         942.000          45.000  
G32  17145480.020      693329.832        -882.000          48.000  
> 2024 12 16  3 59 44.9860001  0 10                     
G 3  19664292.470    -4714989.566        1713.000          37.000  
G10  20378515.827     6053729.799       -2894.000          39.000  
G16  17665081.038    -6960331.129        2915.000          43.000  
G25  20677799.434     6153749.775       -2972.000          38.000  
G26  16372043.982    -2664121.632         747.000          46.000  
G27  21048041.951    -5498697.035        4144.000          35.000  
G28  17800841.177     -489652.718         180.000          44.000  
G29  19392311.469     -529712.593        -327.000          41.000  
G31  17498449.425    -2150812.256         942.000          45.000  
G32  17145647.942      694212.265        -882.000          48.000  
> 2024 12 16  3 59 45.9860001  0 10                     
G 3  19663966.437    -4716702.830        1713.000          37.000  
G10  20379066.543     6056623.673       -2893.000          39.000  
G16  17664526.391    -6963245.906        2914.000          43.000  
G25  20678365.257     6156722.418       -2972.000          38.000  
G26  16371901.800    -2664868.758         747.000          46.000  
G27  21047255.016    -5502841.518        4144.000          36.000  
G28  17800806.734     -489833.664         180.000          44.000  
G29  19392373.799     -529385.042        -327.000          41.000  
G31  17498270.116    -2151754.804         942.000          45.000  
G32  17145815.952      695095.181        -882.000          48.000  
> 2024 12 16  3 59 46.9860001  0 10                     
G 3  19663640.551    -4718415.239        1712.000          37.000  
G10  20379617.286     6059517.706       -2894.000          38.000  
G16  17663971.889    -6966159.916        2914.000          43.000  
G25  20678931.687     6159695.315       -2972.000          38.000  
G26  16371759.762    -2665615.120         746.000          46.000  
G27  21046467.152    -5506985.884        4144.000          36.000  
G28  17800772.353     -490014.269         180.000          44.000  
G29  19392436.278     -529056.642        -328.000          41.000  
G31  17498090.876    -2152696.988         942.000          45.000  
G32  17145984.113      695978.892        -883.000          48.000  
> 2024 12 16  3 59 47.9860001  0 10                     
G 3  19663314.722    -4720127.329        1712.000          37.000  
G10  20380167.960     6062411.423       -2893.000          39.000  
G16  17663417.424    -6969073.733        2913.000          43.000  
G25  20679496.969     6162667.871       -2972.000          38.000  
G26  16371617.775    -2666361.208         746.000          46.000  
G27  21045677.713    -5511130.599        4144.000          36.000  
G28  17800737.934     -490195.073         180.000          44.000  
G29  19392498.807     -528727.896        -328.000          40.000  
G31  17497911.607    -2153639.313         942.000          45.000  
G32  17146152.338      696862.922        -884.000          48.000  
> 2024 12 16  3 59 48.9860001  0 10                     
G 3  19662988.974    -4721839.023        1711.000          37.000  
G10  20380718.584     6065304.868       -2893.000          39.000  
G16  17662863.025    -6971987.243        2913.000          43.000  
G25  20680061.898     6165640.229       -2972.000          38.000  
G26  16371475.848    -2667106.978         745.000          46.000  
G27  21044892.780    -5515275.659        4145.000          36.000  
G28  17800703.504     -490375.962         180.000          44.000  
G29  19392561.406     -528398.769        -329.000          41.000  
G31  17497732.322    -2154581.725         942.000          45.000  
G32  17146320.630      697747.304        -884.000          48.000  
> 2024 12 16  3 59 49.9860001  0 10                     
G 3  19662663.306    -4723550.327        1711.000          37.000  
G10  20381269.156     6068198.021       -2893.000          39.000  
G16  17662308.678    -6974900.479        2913.000          43.000  
G25  20680627.180     6168612.340       -2972.000          38.000  
G26  16371333.973    -2667852.455         745.000          46.000  
G27  21044105.274    -5519421.117        4145.000          36.000  
G28  17800669.047     -490556.982         181.000          44.000  
G29  19392624.085     -528069.235        -329.000          41.000  
G31  17497553.017    -2155524.234         942.000          45.000  
G32  17146488.984      698632.018        -884.000          48.000  
> 2024 12 16  3 59 50.9860001  0 10                     
G 3  19662337.769    -4725260.977        1710.000          38.000  
G10  20381819.722     6071091.115       -2893.000          39.000  
G16  17661754.422    -6977813.229        2912.000          43.000  
G25  20681192.502     6171584.377       -2972.000          38.000  
G26  16371192.202    -2668597.415         744.000          46.000  
G27  21043316.982    -5523566.643        4145.000          36.000  
G28  17800634.603     -490737.915         180.000          44.000  
G29  19392686.878     -527739.144        -330.000          41.000  
G31  17497373.733    -2156466.652         942.000          46.000  
G32  17146657.442      699517.274        -885.000          48.000  
> 2024 12 16  3 59 51.9860001  0 10                     
G 3  19662012.344    -4726971.050        1710.000          38.000  
G10  20382370.279     6073984.164       -2893.000          39.000  
G16  17661200.269    -6980725.418        2912.000          43.000  
G25  20681757.571     6174556.471       -2972.000          38.000  
G26  16371050.550    -2669341.769         744.000          46.000  
G27  21042528.651    -5527712.253        4145.000          36.000  
G28  17800600.182     -490918.713         180.000          44.000  
G29  19392749.802     -527408.421        -330.000          41.000  
G31  17497194.492    -2157408.870         942.000          45.000  
G32  17146826.021      700403.189        -885.000          48.000  
> 2024 12 16  3 59 52.9860001  0 10                     
G 3  19661687.070    -4728680.409        1709.000          38.000  
G10  20382920.844     6076877.261       -2893.000          38.000  
G16  17660646.220    -6983637.025        2911.000          43.000  
G25  20682323.573     6177528.660       -2972.000          38.000  
G26  16370909.023    -2670085.498         743.000          47.000  
G27  21041739.897    -5531857.909        4145.000          36.000  
G28  17800565.799     -491099.307         180.000          44.000  
G29  19392812.887     -527076.905        -331.000          41.000  
G31  17497015.289    -2158350.885         942.000          45.000  
G32  17146994.719      701289.733        -886.000          48.000  
> 2024 12 16  3 59 53.9860001  0 10                     
G 3  19661361.928    -4730389.150        1708.000          38.000  
G10  20383471.395     6079770.303       -2893.000          38.000  
G16  17660092.267    -6986548.100        2911.000          43.000  
G25  20682889.034     6180500.782       -2972.000          38.000  
G26  16370767.605    -2670828.705         743.000          47.000  
G27  21040950.601    -5536003.667        4145.000          36.000  
G28  17800531.431     -491279.819         180.000          44.000  
G29  19392876.078     -526744.875        -332.000          42.000  
G31  17496836.099    -2159292.789         941.000          45.000  
G32  17147163.526      702176.850        -887.000          48.000  
> 2024 12 16  3 59 54.9860001  0 10                     
G 3  19661036.878    -4732097.417        1708.000          38.000  
G10  20384021.893     6082663.142       -2892.000          38.000  
G16  17659538.368    -6989458.847        2910.000          43.000  
G25  20683454.534     6183472.767       -2971.000          37.000  
G26  16370626.264    -2671571.522         742.000          46.000  
G27  21040161.376    -5540149.690        4146.000          36.000  
G28  17800497.061     -491460.352         180.000          44.000  
G29  19392939.362     -526412.369        -332.000          42.000  
G31  17496656.910    -2160234.690         941.000          45.000  
G32  17147332.415      703064.391        -887.000          48.000  
> 2024 12 16  3 59 55.9860001  0 10                     
G 3  19660711.949    -4733805.022        1707.000          38.000  
G10  20384572.391     6085555.983       -2892.000          39.000  
G16  17658984.588    -6992368.982        2910.000          43.000  
G25  20684020.820     6186444.812       -2972.000          37.000  
G26  16370485.045    -2672313.684         742.000          46.000  
G27  21039371.793    -5544295.760        4146.000          36.000  
G28  17800462.719     -491640.728         180.000          44.000  
G29  19393002.783     -526079.145        -333.000          42.000  
G31  17496477.761    -2161176.396         941.000          45.000  
G32  17147501.433      703952.593        -888.000          48.000  
> 2024 12 16  3 59 56.9860001  0 10                     
G 3  19660387.159    -4735511.875        1706.000          37.000  
G10  20385122.898     6088448.862       -2892.000          38.000  
G16  17658430.925    -6995278.504        2909.000          43.000  
G25  20684585.535     6189416.945       -2972.000          37.000  
G26  16370343.939    -2673055.230         741.000          46.000  
G27  21038581.822    -5548441.796        4146.000          36.000  
G28  17800428.419     -491820.869         180.000          44.000  
G29  19393066.334     -525745.211        -333.000          41.000  
G31  17496298.662    -2162117.858         941.000          46.000  
G32  17147670.585      704841.502        -888.000          48.000  
> 2024 12 16  3 59 57.9860001  0 10                     
G 3  19660062.443    -4737218.285        1706.000          37.000  
G10  20385673.378     6091341.561       -2892.000          39.000  
G16  17657877.322    -6998187.699        2909.000          43.000  
G25  20685150.137     6192388.894       -2971.000          37.000  
G26  16370202.902    -2673796.389         741.000          46.000  
G27  21037792.204    -5552588.143        4146.000          36.000  
G28  17800394.104     -492001.076         180.000          44.000  
G29  19393129.980     -525410.823        -334.000          41.000  
G31  17496119.552    -2163059.369         941.000          45.000  
G32  17147839.806      705730.768        -889.000          48.000  
> 2024 12 16  3 59 58.9860001  0 10                     
G 3  19659737.817    -4738924.081        1705.000          37.000  
G10  20386223.844     6094234.214       -2892.000          39.000  
G16  17657323.818    -7001096.342        2908.000          43.000  
G25  20685716.030     6195360.845       -2971.000          37.000  
G26  16370061.976    -2674536.957         740.000          46.000  
G27  21037002.764    -5556734.564        4146.000          36.000  
G28  17800359.816     -492181.146         180.000          44.000  
G29  19393193.750     -525075.807        -335.000          41.000  
G31  17495940.471    -2164000.730         941.000          46.000  
G32  17148009.151      706620.667        -889.000          48.000  
> 2024 12 16  3 59 59.9860001  0 10                     
G 3  19659413.285    -4740629.414        1705.000          37.000  
G10  20386774.261     6097126.659       -2892.000          39.000  
G16  17656770.377    -7004004.644        2908.000          43.000  
G25  20686281.352     6198332.648       -2971.000          37.000  
G26  16369921.112    -2675277.196         740.000          47.000  
G27  21036213.578    -5560881.307        4146.000          35.000  
G28  17800325.517     -492361.283         180.000          44.000  
G29  19393257.608     -524740.310        -335.000          41.000  
G31  17495761.389    -2164942.114         941.000          46.000  
G32  17148178.577      707510.967        -890.000          48.000  
> 2024 12 16  4  0  0.9860001  0 10                     
G 3  19659088.830    -4742334.379        1704.000          37.000  
G10  20387324.617     6100018.775       -2892.000          39.000  
G16  17656216.984    -7006912.684        2908.000          43.000  
G25  20686848.139     6201304.1851      -2971.000          36.000  
G26  16369780.312    -2676017.105         739.000          47.000  
G27  21035424.104    -5565028.313        4147.000          36.000  
G28  17800291.202     -492541.529         180.000          44.000  
G29  19393321.527     -524404.463        -335.000          41.000  
G31  17495582.285    -2165883.607         941.000          46.000  
G32  17148348.073      708401.613        -890.000          48.000  
> 2024 12 16  4  0  1.9860001  0 10                     
G 3  19658764.486    -4744038.768        1704.000          37.000  
G10  20387874.975     6102910.884       -2892.000          39.000  
G16  17655663.687    -7009820.225        2907.000          43.000  
G25  20687413.496     6204275.7051      -2971.000          36.000  
G26  16369639.612    -2676756.483         739.000          47.000  
G27  21034630.303    -5569175.455        4147.000          35.000  
G28  17800256.904     -492721.699         180.000          44.000  
G29  19393385.553     -524068.002        -336.000          41.000  
G31  17495403.198    -2166825.018         941.000          46.000  
G32  17148517.679      709292.825        -891.000          48.000  
> 2024 12 16  4  0  2.9860001  0 10                     
G 3  19658440.240    -4745742.598        1703.000          37.000  
G10  20388425.294     6105802.782       -2891.000          39.000  
G16  17655110.467    -7012727.354        2907.000          43.000  
G25  20687979.175     6207247.1081      -2971.000          36.000  
G26  16369498.995    -2677495.416         738.000          47.000  
G27  21033843.725    -5573322.830        4147.000          35.000  
G28  17800222.608     -492901.870         180.000          44.000  
G29  19393449.668     -523731.080        -336.000          41.000  
G31  17495224.122    -2167766.364         941.000          46.000  
G32  17148687.374      710184.502        -891.000          48.000  
> 2024 12 16  4  0  3.9860001  0 10                     
G 3  19658116.061    -4747446.071        1703.000          37.000  
G10  20388975.565     6108694.357       -2891.000          39.000  
G16  17654557.293    -7015634.208        2906.000          43.000  
G25  20688543.816     6210218.2261      -2971.000          36.000  
G26  16369358.434    -2678234.084         738.000          47.000  
G27  21033053.213    -5577470.572        4147.000          35.000  
G28  17800188.288     -493082.191         180.000          44.000  
G29  19393513.868     -523393.719        -337.000          41.000  
G31  17495045.023    -2168707.845         941.000          46.000  
G32  17148857.128      711076.504        -891.000          48.000  
> 2024 12 16  4  0  4.9860001  0 10                     
G 3  19657791.969    -4749149.126        1703.000          37.000  
G10  20389525.803     6111585.759       -2891.000          39.000  
G16  17654004.180    -7018540.751        2906.000          43.000  
G25  20689107.812     6213189.1601      -2970.000          36.000  
G26  16369217.950    -2678972.352         738.000          47.000  
G27  21032266.352    -5581618.582        4148.000          36.000  
G28  17800153.969     -493262.526         180.000          44.000  
G29  19393578.153     -523055.938        -337.000          41.000  
G31  17494865.919    -2169649.367         941.000          46.000  
G32  17149026.956      711968.908        -892.000          48.000  
> 2024 12 16  4  0  5.9860001  0 10                     
G 3  19657467.990    -4750851.583        1702.000          37.000  
G10  20390076.013     6114477.035       -2891.000          39.000  
G16  17653451.167    -7021446.776        2906.000          43.000  
G25  20689673.312     6216160.0731      -2970.000          36.000  
G26  16369077.563    -2679710.110         737.000          47.000  
G27  21031474.479    -5585766.702        4148.000          36.000  
G28  17800119.661     -493442.819         180.000          44.000  
G29  19393642.556     -522717.577        -338.000          41.000  
G31  17494686.840    -2170590.764         941.000          46.000  
G32  17149196.887      712861.883        -892.000          48.000  
> 2024 12 16  4  0  6.9860001  0 10                     
G 3  19657144.147    -4752553.320        1701.000          37.000  
G10  20390626.223     6117368.363       -2891.000          39.000  
G16  17652898.265    -7024352.246        2905.000          43.000  
G25  20690238.485     6219131.031       -2970.000          36.000  
G26  16368937.296    -2680447.255         737.000          47.000  
G27  21030686.972    -5589914.918        4148.000          35.000  
G28  17800085.384     -493622.952         180.000          44.000  
G29  19393707.092     -522378.540        -339.000          41.000  
G31  17494507.794    -2171531.984         941.000          46.000  
G32  17149366.933      713755.488        -893.000          48.000  
> 2024 12 16  4  0  7.9860001  0 10                     
G 3  19656820.407    -4754254.543        1701.000          37.000  
G10  20391176.394     6120259.532       -2891.000          39.000  
G16  17652345.455    -7027257.288        2905.000          43.000  
G25  20690802.843     6222101.942       -2970.000          36.000  
G26  16368797.114    -2681183.960         736.000          47.000  
G27  21029897.394    -5594063.339        4148.000          35.000  
G28  17800051.121     -493803.026         180.000          44.000  
G29  19393771.737     -522038.978        -339.000          41.000  
G31  17494328.756    -2172473.151         941.000          46.000  
G32  17149537.067      714649.581        -894.000          48.000  
> 2024 12 16  4  0  8.9860001  0 10                     
G 3  19656496.791    -4755955.182        1700.000          37.000  
G10  20391726.547     6123150.619       -2891.000          39.000  
G16  17651792.748    -7030161.817        2904.000          43.000  
G25  20691368.199     6225072.754       -2970.000          36.000  
G26  16368657.034    -2681920.120         736.000          47.000  
G27  21029106.593    -5598211.819        4148.000          35.000  
G28  17800016.872     -493983.032         180.000          44.000  
G29  19393836.495     -521698.800        -340.000          41.000  
G31  17494149.737    -2173414.200         941.000          46.000  
G32  17149707.311      715544.256        -894.000          48.000  
> 2024 12 16  4  0  9.9860001  0 10                     
G 3  19656173.266    -4757655.347        1700.000          37.000  
G10  20392276.661     6126041.515       -2890.000          39.000  
G16  17651240.111    -7033066.002        2904.000          43.000  
G25  20691933.591     6228043.379       -2970.000          36.000  
G26  16368517.027    -2682655.878         735.000          47.000  
G27  21028314.436    -5602360.619        4148.000          35.000  
G28  17799982.618     -494163.080         180.000          45.000  
G29  19393901.342     -521358.187        -340.000          41.000  
G31  17493970.712    -2174355.276         941.000          45.000  
G32  17149877.634      716439.346        -895.000          48.000  
> 2024 12 16  4  0 10.9860001  0 10                     
G 3  19655849.847    -4759355.011        1699.000          37.000  
G10  20392826.746     6128932.250       -2890.000          39.000  
G16  17650687.563    -7035969.742        2903.000          43.000  
G25  20692499.052     6231013.938       -2970.000          36.000  
G26  16368377.094    -2683391.236         735.000          47.000  
G27  21027529.792    -5606509.618        4149.000          35.000  
G28  17799948.360     -494343.139         180.000          44.000  
G29  19393966.287     -521017.042        -341.000          41.000  
G31  17493791.685    -2175296.338         941.000          45.000  
G32  17150048.040      717334.879        -895.000          48.000  
> 2024 12 16  4  0 11.9860001  0 10                     
G 3  19655526.500    -4761054.340        1699.000          37.000  
G10  20393376.770     6131822.631       -2890.000          39.000  
G16  17650135.053    -7038873.287        2903.000          43.000  
G25  20693065.019     6233984.195       -2970.000          36.000  
G26  16368237.215    -2684126.286         735.000          47.000  
G27  21026739.497    -5610659.007        4149.000          35.000  
G28  17799914.076     -494523.337         180.000          45.000  
G29  19394031.298     -520675.557        -341.000          42.000  
G31  17493612.629    -2176237.532         941.000          45.000  
G32  17150218.507      718230.749        -895.000          48.000  
> 2024 12 16  4  0 12.9860001  0 10                     
G 3  19655203.295    -4762752.961        1698.000          37.000  
G10  20393926.809     6134713.078       -2890.000          39.000  
G16  17649582.662    -7041776.195        2902.000          43.000  
G25  20693630.768     6236954.505       -2970.000          36.000  
G26  16368097.449    -2684860.728         734.000          47.000  
G27  21025948.627    -5614808.370        4149.000          35.000  
G28  17799879.825     -494703.378         180.000          45.000  
G29  19394096.446     -520333.357        -342.000          41.000  
G31  17493433.607    -2177178.515         940.000          45.000  
G32  17150389.095      719127.259        -896.000          48.000  
> 2024 12 16  4  0 13.9860001  0 10                     
G 3  19654880.249    -4764450.724        1697.000          37.000  
G10  20394476.865     6137603.651       -2890.000          39.000  
G16  17649030.404    -7044678.408        2902.000          43.000  
G25  20694197.233     6239925.025       -2970.000          36.000  
G26  16367957.823    -2685594.445         733.000          47.000  
G27  21025158.115    -5618957.665        4149.000          35.000  
G28  17799845.643     -494883.060         179.000          45.000  
G29  19394161.748     -519990.344        -343.000          41.000  
G31  17493254.643    -2178119.167         940.000          45.000  
G32  17150559.836      720024.559        -897.000          48.000  
> 2024 12 16  4  0 14.9860001  0 10                     
G 3  19654557.318    -4766147.768        1697.000          37.000  
G10  20395026.936     6140494.313       -2890.000          39.000  
G16  17648478.266    -7047579.963        2901.000          43.000  
G25  20694762.873     6242895.699       -2970.000          36.000  
G26  16367818.336    -2686327.446         733.000          47.000  
G27  21024369.396    -5623106.931        4149.000          35.000  
G28  17799811.512     -495062.512         179.000          45.000  
G29  19394227.193     -519646.579        -343.000          41.000  
G31  17493075.727    -2179059.530         940.000          45.000  
G32  17150730.718      720922.602        -898.000          48.000  
> 2024 12 16  4  0 15.9860001  0 10                     
G 3  19654234.456    -4767844.458        1696.000          37.000  
G10  20395576.953     6143384.703       -2890.000          39.000  
G16  17647926.175    -7050481.266        2901.000          43.000  
G25  20695327.732     6245866.058       -2970.000          36.000  
G26  16367678.909    -2687060.144         732.000          47.000  
G27  21023578.024    -5627256.543        4149.000          35.000  
G28  17799777.361     -495242.095         179.000          45.000  
G29  19394292.699     -519302.479        -344.000          41.000  
G31  17492896.780    -2180000.035         940.000          45.000  
G32  17150901.662      721820.939        -898.000          48.000  
> 2024 12 16  4  0 16.9860001  0 10                     
G 3  19653911.674    -4769540.747        1696.000          37.000  
G10  20396126.915     6146274.777       -2890.000          38.000  
G16  17647374.143    -7053382.258        2900.000          43.000  
G25  20695892.980     6248836.176       -2970.000          36.000  
G26  16367539.545    -2687792.548         732.000          47.000  
G27  21022789.802    -5631406.474        4149.000          35.000  
G28  17799743.184     -495421.799         179.000          45.000  
G29  19394358.282     -518957.944        -344.000          41.000  
G31  17492717.813    -2180940.627         940.000          45.000  
G32  17151072.686      722719.667        -898.000          48.000  
> 2024 12 16  4  0 17.9860001  0 10                     
G 3  19653589.007    -4771236.353        1695.000          37.000  
G10  20396676.874     6149164.812       -2890.000          38.000  
G16  17646822.210    -7056282.712        2900.000          43.000  
G25  20696457.547     6251806.361       -2970.000          36.000  
G26  16367400.307    -2688524.327         731.000          47.000  
G27  21022002.082    -5635556.458        4149.000          35.000  
G28  17799709.035     -495601.350         179.000          44.000  
G29  19394423.986     -518612.729        -345.000          41.000  
G31  17492538.889    -2181881.006         940.000          45.000  
G32  17151243.830      723618.985        -899.000          48.000  
> 2024 12 16  4  0 18.9860001  0 10                     
G 3  19653266.437    -4772931.413        1695.000          37.000  
G10  20397226.817     6152054.771       -2889.000          39.000  
G16  17646270.363    -7059182.705        2899.000          43.000  
G25  20697017.502     6254776.489       -2970.000          35.000  
G26  16367261.157    -2689255.650         731.000          47.000  
G27  21021209.711    -5639706.663        4150.000          35.000  
G28  17799674.891     -495780.852         179.000          45.000  
G29  19394489.785     -518266.975        -345.000          41.000  
G31  17492359.979    -2182821.338         940.000          46.000  
G32  17151415.083      724518.847        -899.000          48.000  
> 2024 12 16  4  0 19.9860001  0 10                     
G 3  19652943.968    -4774625.975        1694.000          37.000  
G10  20397776.720     6154944.509       -2889.000          39.000  
G16  17645718.583    -7062082.346        2899.000          43.000  
G25  20697585.507     6257746.405       -2969.000          35.000  
G26  16367122.075    -2689986.582         730.000          47.000  
G27  21020421.057    -5643857.094        4150.000          35.000  
G28  17799640.731     -495960.402         179.000          44.000  
G29  19394555.663     -517920.798        -346.000          41.000  
G31  17492181.068    -2183761.696         940.000          46.000  
G32  17151586.415      725419.097        -900.000          48.000  
> 2024 12 16  4  0 20.9860001  0 10                     
G 3  19652621.544    -4776320.359        1694.000          37.000  
G10  20398326.541     6157833.856       -2889.000          38.000  
G16  17645166.832    -7064981.817        2899.000          43.000  
G25  20698149.433     6260715.998       -2969.000          35.000  
G26  16366983.021    -2690717.342         730.000          47.000  
G27  21019631.548    -5648007.988        4150.000          35.000  
G28  17799606.514     -496140.219         179.000          44.000  
G29  19394621.598     -517574.324        -346.000          41.000  
G31  17492002.123    -2184702.259         940.000          46.000  
G32  17151757.791      726319.584        -900.000          48.000  
> 2024 12 16  4  0 21.9860001  0 10                     
G 3  19652299.228    -4778014.112        1693.000          37.000  
G10  20398876.336     6160723.060       -2889.000          38.000  
G16  17644615.169    -7067880.803        2898.000          43.000  
G25  20698714.859     6263685.501       -2969.000          35.000  
G26  16366844.069    -2691447.559         730.000          46.000  
G27  21018837.031    -5652159.024        4151.000          34.000  
G28  17799572.319     -496319.911         179.000          44.000  
G29  19394687.645     -517227.295        -347.000          41.000  
G31  17491823.196    -2185642.736         940.000          46.000  
G32  17151929.266      727220.610        -901.000          48.000  
> 2024 12 16  4  0 22.9860001  0 10                     
G 3  19651977.064    -4779706.971        1692.000          37.000  
G10  20399426.185     6163612.562       -2889.000          38.000  
G16  17644063.654    -7070778.989        2898.000          43.000  
G25  20699279.500     6266655.269       -2969.000          35.000  
G26  16366705.267    -2692176.986         729.000          46.000  
G27  21018051.099    -5656309.928        4150.000          35.000  
G28  17799538.187     -496499.266         179.000          44.000  
G29  19394753.866     -516879.390        -347.000          41.000  
G31  17491644.347    -2186582.813         940.000          46.000  
G32  17152100.898      728122.484        -901.000          48.000  
> 2024 12 16  4  0 23.9860001  0 10                     
G 3  19651655.033    -4781399.163        1692.000          37.000  
G10  20399976.027     6166502.018       -2889.000          38.000  
G16  17643512.242    -7073676.634        2897.000          43.000  
G25  20699845.999     6269625.067       -2969.000          35.000  
G26  16366566.584    -2692905.809         728.000          47.000  
G27  21017261.015    -5660460.844        4150.000          34.000  
G28  17799504.085     -496678.464         179.000          44.000  
G29  19394820.231     -516530.771        -348.000          41.000  
G31  17491465.532    -2187522.714         939.000          46.000  
G32  17152272.651      729025.020        -902.000          48.000  
> 2024 12 16  4  0 24.9860001  0 10                     
G 3  19651333.118    -4783090.805        1691.000          37.000  
G10  20400525.839     6169391.341       -2889.000          38.000  
G16  17642960.919    -7076573.808        2897.000          43.000  
G25  20700409.785     6272594.860       -2969.000          35.000  
G26  16366427.993    -2693634.164         728.000          47.000  
G27  21016473.150    -5664611.936        4151.000          34.000  
G28  17799469.995     -496857.605         179.000          44.000  
G29  19394886.704     -516181.611        -349.000          41.000  
G31  17491286.731    -2188462.543         939.000          46.000  
G32  17152444.498      729928.046        -903.000          48.000  
> 2024 12 16  4  0 25.9860001  0 10                     
G 3  19651011.291    -4784782.004        1691.000          36.000  
G10  20401075.604     6172280.455       -2889.000          38.000  
G16  17642409.660    -7079470.646        2896.000          43.000  
G25  20700975.569     6275564.390       -2969.000          35.000  
G26  16366289.478    -2694362.129         727.000          47.000  
G27  21015684.287    -5668763.307        4151.000          35.000  
G28  17799435.898     -497036.781         179.000          45.000  
G29  19394953.255     -515832.004        -349.000          41.000  
G31  17491107.928    -2189402.415         939.000          46.000  
G32  17152616.416      730831.472        -903.000          48.000  
> 2024 12 16  4  0 26.9860001  0 10                     
G 3  19650689.539    -4786472.771        1690.000          36.000  
G10  20401625.331     6175169.345       -2888.000          39.000  
G16  17641858.460    -7082367.167        2896.000          43.000  
G25  20701546.039     6278533.741       -2969.000          35.000  
G26  16366151.033    -2695089.736         727.000          47.000  
G27  21014894.202    -5672914.967        4151.000          35.000  
G28  17799401.786     -497216.053         179.000          45.000  
G29  19395019.876     -515481.997        -350.000          41.000  
G31  17490929.120    -2190342.319         939.000          46.000  
G32  17152788.411      731735.314        -903.000          48.000  
> 2024 12 16  4  0 27.9860001  0 10                     
G 3  19650367.928    -4788162.840        1690.000          37.000  
G10  20402175.059     6178058.188       -2888.000          39.000  
G16  17641307.375    -7085263.093        2895.000          43.000  
G25  20702109.681     6281503.190       -2969.000          36.000  
G26  16366012.701    -2695816.727         726.000          47.000  
G27  21014101.046    -5677066.645        4151.000          35.000  
G28  17799367.718     -497395.118         179.000          45.000  
G29  19395086.625     -515131.272        -350.000          41.000  
G31  17490750.350    -2191282.038         939.000          46.000  
G32  17152960.524      732639.799        -904.000          48.000  
> 2024 12 16  4  0 28.9860001  0 10                     
G 3  19650046.450    -4789852.196        1689.000          37.000  
G10  20402724.813     6180947.209       -2889.000          39.000  
G16  17640756.418    -7088158.350        2895.000          43.000  
G25  20702674.680     6284472.714       -2969.000          36.000  
G26  16365874.494    -2696543.036         726.000          47.000  
G27  21013312.968    -5681218.250        4151.000          35.000  
G28  17799333.694     -497573.957         178.000          44.000  
G29  19395153.514     -514779.759        -351.000          40.000  
G31  17490571.630    -2192221.466         939.000          46.000  
G32  17153132.775      733545.010        -905.000          48.000  
> 2024 12 16  4  0 29.9860001  0 10                     
G 3  19649725.120    -4791540.807        1688.000          37.000  
G10  20403274.576     6183836.196       -2888.000          39.000  
G16  17640205.562    -7091053.042        2894.000          43.000  
G25  20703239.500     6287442.334       -2969.000          36.000  
G26  16365736.406    -2697268.713         725.000          46.000  
G27  21012521.954    -5685370.009        4151.000          35.000  
G28  17799299.706     -497752.610         178.000          45.000  
G29  19395220.516     -514427.610        -352.000          40.000  
G31  17490392.941    -2193160.713         939.000          46.000  
G32  17153305.144      734450.840        -905.000          48.000  
> 2024 12 16  4  0 30.9860001  0 10                     
G 3  19649403.850    -4793229.093        1688.000          37.000  
G10  20403824.269     6186724.824       -2888.000          39.000  
G16  17639654.744    -7093947.521        2894.000          43.000  
G25  20703803.495     6290411.624       -2969.000          36.000  
G26  16365598.360    -2697994.162         725.000          47.000  
G27  21011729.584    -5689522.055        4152.000          34.000  
G28  17799265.684     -497931.448         178.000          45.000  
G29  19395287.587     -514075.109        -352.000          41.000  
G31  17490214.226    -2194100.081         939.000          46.000  
G32  17153477.579      735357.007        -906.000          48.000  
> 2024 12 16  4  0 31.9860001  0 10                     
G 3  19649082.627    -4794917.152        1688.000          37.000  
G10  20404373.883     6189613.042       -2888.000          39.000  
G16  17639103.951    -7096841.862        2894.000          43.000  
G25  20704368.817     6293380.510       -2968.000          36.000  
G26  16365460.350    -2698719.423         725.000          47.000  
G27  21010938.286    -5693674.646        4152.000          35.000  
G28  17799231.612     -498110.544         179.000          45.000  
G29  19395354.710     -513722.387        -352.000          41.000  
G31  17490035.451    -2195039.743         939.000          46.000  
G32  17153650.047      736263.345        -906.000          48.000  
> 2024 12 16  4  0 32.9860001  0 10                     
G 3  19648761.506    -4796604.712        1687.000          37.000  
G10  20404923.459     6192501.034       -2887.000          39.000  
G16  17638553.232    -7099735.814        2893.000          43.000  
G25  20704934.387     6296349.288       -2968.000          36.000  
G26  16365322.418    -2699444.289         724.000          47.000  
G27  21010149.850    -5697827.439        4152.000          35.000  
G28  17799197.538     -498289.665         179.000          45.000  
G29  19395421.925     -513369.190        -353.000          41.000  
G31  17489856.681    -2195979.367         939.000          46.000  
G32  17153822.600      737170.126        -906.000          48.000  
> 2024 12 16  4  0 33.9860001  0 10                     
G 3  19648440.508    -4798291.643        1686.000          37.000  
G10  20405473.042     6195389.064       -2888.000          39.000  
G16  17638002.617    -7102629.217        2893.000          43.000  
G25  20705499.600     6299318.083       -2968.000          37.000  
G26  16365184.595    -2700168.578         724.000          47.000  
G27  21009359.482    -5701980.315        4152.000          35.000  
G28  17799163.494     -498468.651         178.000          45.000  
G29  19395489.272     -513015.325        -353.000          41.000  
G31  17489677.936    -2196918.848         939.000          46.000  
G32  17153995.263      738077.497        -907.000          48.000  
> 2024 12 16  4  0 34.9860001  0 10                     
G 3  19648119.604    -4799978.044        1686.000          37.000  
G10  20406022.584     6198276.837       -2887.000          39.000  
G16  17637452.084    -7105522.246        2893.000          43.000  
G25  20706063.918     6302286.690       -2968.000          37.000  
G26  16365046.847    -2700892.463         723.000          46.000  
G27  21008570.614    -5706133.419        4153.000          35.000  
G28  17799129.447     -498647.665         179.000          45.000  
G29  19395556.710     -512660.963        -354.000          41.000  
G31  17489499.193    -2197858.332         939.000          46.000  
G32  17154168.018      738985.349        -907.000          48.000  
> 2024 12 16  4  0 35.9860001  0 10                     
G 3  19647798.846    -4801663.626        1685.000          37.000  
G10  20406572.177     6201164.874       -2888.000          39.000  
G16  17636901.705    -7108414.512        2892.000          43.000  
G25  20706627.878     6305255.589       -2968.000          36.000  
G26  16364909.253    -2701615.519         723.000          46.000  
G27  21007779.744    -5710286.386        4152.000          35.000  
G28  17799095.475     -498826.293         178.000          45.000  
G29  19395624.314     -512305.748        -355.000          41.000  
G31  17489320.534    -2198797.389         939.000          46.000  
G32  17154340.928      739894.034        -908.000          48.000  
> 2024 12 16  4  0 36.9860001  0 10                     
G 3  19647478.165    -4803348.793        1685.000          36.000  
G10  20407121.720     6204052.647       -2887.000          39.000  
G16  17636351.392    -7111306.459        2891.000          43.000  
G25  20707192.519     6308224.258       -2968.000          37.000  
G26  16364771.726    -2702338.230         722.000          46.000  
G27  21006989.664    -5714439.629        4153.000          35.000  
G28  17799061.486     -499005.005         178.000          45.000  
G29  19395691.997     -511950.117        -355.000          41.000  
G31  17489141.856    -2199736.527         939.000          46.000  
G32  17154513.910      740803.099        -909.000          48.000  
> 2024 12 16  4  0 37.9860001  0 10                     
G 3  19647157.620    -4805033.274        1684.000          37.000  
G10  20407671.257     6206940.367       -2887.000          39.000  
G16  17635801.189    -7114197.845        2891.000          43.000  
G25  20707757.374     6311192.922       -2968.000          37.000  
G26  16364634.302    -2703060.396         722.000          46.000  
G27  21006198.868    -5718592.963        4153.000          35.000  
G28  17799027.519     -499183.588         178.000          45.000  
G29  19395759.807     -511593.831        -356.000          41.000  
G31  17488963.202    -2200675.519         938.000          46.000  
G32  17154687.007      741712.762        -909.000          48.000  
> 2024 12 16  4  0 38.9860001  0 10                     
G 3  19646837.215    -4806717.028        1683.000          37.000  
G10  20408220.809     6209828.171       -2887.000          39.000  
G16  17635251.110    -7117088.602        2890.000          43.000  
G25  20708323.516     6314161.729       -2968.000          36.000  
G26  16364497.014    -2703781.866         721.000          46.000  
G27  21005409.931    -5722746.283        4153.000          35.000  
G28  17798993.594     -499361.939         178.000          45.000  
G29  19395827.747     -511236.823        -357.000          41.000  
G31  17488784.594    -2201614.251         938.000          46.000  
G32  17154860.248      742623.153        -910.000          48.000  
> 2024 12 16  4  0 39.9860001  0 10                     
G 3  19646516.953    -4808400.063        1683.000          37.000  
G10  20408770.366     6212716.033       -2887.000          39.000  
G16  17634701.148    -7119978.746        2890.000          43.000  
G25  20708887.620     6317130.607       -2968.000          37.000  
G26  16364359.844    -2704502.704         720.000          46.000  
G27  21004618.131    -5726899.600        4153.000          35.000  
G28  17798959.709     -499540.072         178.000          45.000  
G29  19395895.830     -510879.060        -357.000          41.000  
G31  17488606.040    -2202552.713         938.000          46.000  
G32  17155033.626      743534.226        -911.000          48.000  
> 2024 12 16  4  0 40.9860001  0 10                     
G 3  19646196.844    -4810082.377        1682.000          37.000  
G10  20409319.916     6215603.864       -2887.000          39.000  
G16  17634151.289    -7122868.319        2889.000          43.000  
G25  20709452.872     6320099.519       -2968.000          37.000  
G26  16364222.796    -2705222.923         720.000          46.000  
G27  21003827.903    -5731052.984        4153.000          35.000  
G28  17798925.853     -499718.031         177.000          45.000  
G29  19395964.019     -510520.691        -358.000          41.000  
G31  17488427.517    -2203491.017         938.000          46.000  
G32  17155207.126      744445.906        -911.000          48.000  
> 2024 12 16  4  0 41.9860001  0 10                     
G 3  19645876.828    -4811764.172        1681.000          37.000  
G10  20409869.444     6218491.610       -2887.000          38.000  
G16  17633601.522    -7125757.423        2889.000          43.000  
G25  20710017.190     6323068.410       -2968.000          37.000  
G26  16364085.836    -2705942.693         719.000          46.000  
G27  21003036.177    -5735206.447        4153.000          35.000  
G28  17798892.000     -499895.960         177.000          45.000  
G29  19396032.319     -510161.703        -358.000          40.000  
G31  17488249.009    -2204429.265         938.000          46.000  
G32  17155380.729      745358.110        -912.000          48.000  
> 2024 12 16  4  0 42.9860001  0 10                     
G 3  19645556.913    -4813445.432        1681.000          37.000  
G10  20410418.946     6221379.189       -2887.000          39.000  
G16  17633051.834    -7128646.093        2888.000          43.000  
G25  20710581.866     6326037.138       -2968.000          37.000  
G26  16363948.969    -2706661.979         719.000          46.000  
G27  21002247.026    -5739360.185        4153.000          35.000  
G28  17798858.155     -500073.834         177.000          44.000  
G29  19396100.717     -509802.202        -359.000          40.000  
G31  17488070.517    -2205367.430         938.000          46.000  
G32  17155554.429      746270.829        -912.000          48.000  
> 2024 12 16  4  0 43.9860001  0 10                     
G 3  19645237.062    -4815126.322        1680.000          37.000  
G10  20410968.394     6224266.499       -2887.000          39.000  
G16  17632502.192    -7131534.498        2888.000          43.000  
G25  20711147.258     6329005.638       -2968.000          37.000  
G26  16363812.160    -2707380.954         718.000          46.000  
G27  21001458.233    -5743514.236        4154.000          35.000  
G28  17798824.285     -500251.842         178.000          44.000  
G29  19396169.192     -509442.313        -359.000          41.000  
G31  17487891.999    -2206305.727         938.000          46.000  
G32  17155728.192      747183.889        -913.000          48.000  
> 2024 12 16  4  0 44.9860001  0 10                     
G 3  19644917.341    -4816806.528        1680.000          37.000  
G10  20411517.838     6227153.781       -2887.000          39.000  
G16  17631952.653    -7134422.344        2887.000          43.000  
G25  20711712.972     6331974.205       -2968.000          37.000  
G26  16363675.459    -2708099.346         718.000          46.000  
G27  21000669.077    -5747668.337        4154.000          34.000  
G28  17798790.444     -500429.698         177.000          44.000  
G29  19396237.793     -509081.779        -360.000          41.000  
G31  17487713.524    -2207243.815         938.000          46.000  
G32  17155902.070      748097.559        -913.000          48.000  
> 2024 12 16  4  0 45.9860001  0 10                     
G 3  19644597.723    -4818486.293        1679.000          37.000  
G10  20412067.239     6230040.829       -2887.000          38.000  
G16  17631403.178    -7137309.826        2887.000          43.000  
G25  20712278.900     6334942.557       -2968.000          37.000  
G26  16363538.827    -2708817.362         718.000          46.000  
G27  20999881.431    -5751822.723        4154.000          34.000  
G28  17798756.591     -500607.610         177.000          44.000  
G29  19396306.491     -508720.789        -360.000          41.000  
G31  17487535.038    -2208181.965         938.000          46.000  
G32  17156076.024      749011.627        -914.000          48.000  
> 2024 12 16  4  0 46.9860001  0 10                     
G 3  19644278.249    -4820165.282        1678.000          37.000  
G10  20412616.660     6232927.986       -2887.000          38.000  
G16  17630853.819    -7140196.686        2886.000          43.000  
G25  20712843.471     6337911.011       -2968.000          37.000  
G26  16363402.322    -2709534.717         717.000          46.000  
G27  20999089.558    -5755977.053        4154.000          35.000  
G28  17798722.781     -500785.285         177.000          44.000  
G29  19396375.338     -508359.063        -361.000          41.000  
G31  17487356.613    -2209119.819         937.000          46.000  
G32  17156250.118      749926.426        -914.000          48.000  
> 2024 12 16  4  0 47.9860001  0 10                     
G 3  19643958.869    -4821843.804        1678.000          38.000  
G10  20413166.044     6235814.944       -2886.000          38.000  
G16  17630304.532    -7143083.146        2886.000          43.000  
G25  20713407.253     6340879.327       -2968.000          37.000  
G26  16363265.895    -2710251.650         716.000          46.000  
G27  20998297.257    -5760131.663        4154.000          34.000  
G28  17798688.968     -500962.986         177.000          45.000  
G29  19396444.279     -507996.847        -362.000          41.000  
G31  17487178.182    -2210057.711         937.000          46.000  
G32  17156424.300      750841.676        -915.000          48.000  
> 2024 12 16  4  0 48.9860001  0 10                     
G 3  19643639.657    -4823521.377        1677.000          37.000  
G10  20413715.477     6238702.152       -2887.000          38.000  
G16  17629755.402    -7145968.769        2885.000          43.000  
G25  20713971.357     6343847.945       -2968.000          37.000  
G26  16363129.636    -2710967.688         716.000          46.000  
G27  20997505.388    -5764285.975        4154.000          34.000  
G28  17798655.243     -501140.216         177.000          45.000  
G29  19396513.400     -507633.683        -363.000          41.000  
G31  17486999.840    -2210995.108         937.000          46.000  
G32  17156598.652      751757.830        -916.000          48.000  
> 2024 12 16  4  0 49.9860001  0 10                     
G 3  19643320.531    -4825198.380        1677.000          37.000  
G10  20414264.893     6241589.290       -2887.000          38.000  
G16  17629206.364    -7148853.901        2885.000          43.000  
G25  20714536.819     6346816.543       -2968.000          37.000  
G26  16362993.464    -2711683.252         715.000          46.000  
G27  20996716.738    -5768440.476        4154.000          34.000  
G28  17798621.524     -501317.412         177.000          44.000  
G29  19396582.621     -507269.938        -363.000          41.000  
G31  17486821.510    -2211932.428         937.000          46.000  
G32  17156773.103      752674.513        -916.000          48.000  
> 2024 12 16  4  0 50.9860001  0 10                     
G 3  19643001.498    -4826874.846        1676.000          37.000  
G10  20414814.271     6244476.260       -2886.000          38.000  
G16  17628657.407    -7151738.616        2884.000          43.000  
G25  20715102.070     6349785.020       -2968.000          37.000  
G26  16362857.376    -2712398.365         715.000          46.000  
G27  20995925.297    -5772595.176        4154.000          34.000  
G28  17798587.807     -501494.588         177.000          44.000  
G29  19396651.937     -506905.696        -364.000          41.000  
G31  17486643.182    -2212869.724         937.000          46.000  
G32  17156947.645      753591.676        -917.000          48.000  
> 2024 12 16  4  0 51.9860001  0 10                     
G 3  19642682.510    -4828551.058        1676.000          37.000  
G10  20415363.568     6247362.833       -2886.000          38.000  
G16  17628108.478    -7154623.187        2884.000          43.000  
G25  20715666.781     6352753.115       -2968.000          36.000  
G26  16362721.327    -2713113.267         714.000          46.000  
G27  20995130.993    -5776750.335        4155.000          34.000  
G28  17798554.036     -501671.992         177.000          44.000  
G29  19396721.309     -506541.162        -364.000          41.000  
G31  17486464.818    -2213807.228         937.000          46.000  
G32  17157122.232      754509.095        -917.000          48.000  
> 2024 12 16  4  0 52.9860001  0 10                     
G 3  19642363.584    -4830226.965        1675.000          37.000  
G10  20415912.790     6250249.029       -2886.000          38.000  
G16  17627559.592    -7157507.526        2884.000          43.000  
G25  20716231.850     6355720.979       -2967.000          36.000  
G26  16362585.321    -2713827.942         714.000          46.000  
G27  20994338.692    -5780905.892        4155.000          34.000  
G28  17798520.224     -501849.584         177.000          44.000  
G29  19396790.747     -506176.304        -364.000          41.000  
G31  17486286.426    -2214744.886         937.000          46.000  
G32  17157296.862      755426.759        -917.000          48.000  
> 2024 12 16  4  0 53.9860001  0 10                     
G 3  19642044.836    -4831902.012        1675.000          37.000  
G10  20416462.036     6253135.389       -2886.000          38.000  
G16  17627010.843    -7160391.139        2883.000          43.000  
G25  20716795.632     6358688.983       -2968.000          36.000  
G26  16362449.459    -2714541.847         713.000          46.000  
G27  20993549.397    -5785061.322        4155.000          34.000  
G28  17798486.480     -502026.833         177.000          44.000  
G29  19396860.340     -505810.638        -365.000          41.000  
G31  17486108.093    -2215682.215         937.000          46.000  
G32  17157471.645      756345.228        -918.000          48.000  
> 2024 12 16  4  0 54.9860001  0 10                     
G 3  19641726.161    -4833576.705        1674.000          37.000  
G10  20417011.230     6256021.481       -2886.000          38.000  
G16  17626462.148    -7163274.457        2883.000          43.000  
G25  20717360.129     6361656.701       -2967.000          36.000  
G26  16362313.653    -2715255.438         713.000          46.000  
G27  20992756.594    -5789217.132        4155.000          34.000  
G28  17798452.704     -502204.239         177.000          44.000  
G29  19396930.014     -505444.565        -366.000          41.000  
G31  17485929.741    -2216619.626         937.000          46.000  
G32  17157646.496      757264.052        -918.000          48.000  
> 2024 12 16  4  0 55.9860001  0 10                     
G 3  19641407.551    -4835251.081        1674.000          38.000  
G10  20417560.346     6258907.140       -2885.000          38.000  
G16  17625913.481    -7166157.624        2883.000          43.000  
G25  20717924.630     6364624.0631      -2967.000          36.000  
G26  16362177.883    -2715968.849         713.000          46.000  
G27  20991966.942    -5793373.329        4156.000          35.000  
G28  17798418.891     -502381.858         177.000          44.000  
G29  19396999.724     -505078.268        -366.000          41.000  
G31  17485751.347    -2217557.250         937.000          46.000  
G32  17157821.389      758183.100        -919.000          48.000  
> 2024 12 16  4  0 56.9860001  0 10                     
G 3  19641089.059    -4836924.874        1673.000          38.000  
G10  20418109.453     6261792.769       -2885.000          38.000  
G16  17625364.927    -7169040.246        2882.000          43.000  
G25  20718482.509     6367591.5201      -2967.000          36.000  
G26  16362042.226    -2716681.692         712.000          46.000  
G27  20991176.717    -5797529.614        4156.000          35.000  
G28  17798385.097     -502559.365         177.000          44.000  
G29  19397069.565     -504711.277        -366.000          41.000  
G31  17485572.980    -2218494.730         937.000          46.000  
G32  17157996.396      759102.767        -919.000          48.000  
> 2024 12 16  4  0 57.9860001  0 10                     
G 3  19640770.663    -4838598.188        1673.000          38.000  
G10  20418658.511     6264678.096       -2885.000          38.000  
G16  17624816.428    -7171922.577        2882.000          43.000  
G25  20719048.651     6370558.6351      -2967.000          35.000  
G26  16361906.637    -2717394.197         712.000          46.000  
G27  20990387.993    -5801686.273        4156.000          35.000  
G28  17798351.288     -502736.957         177.000          44.000  
G29  19397139.476     -504343.932        -367.000          41.000  
G31  17485394.591    -2219432.307         937.000          46.000  
G32  17158171.464      760022.760        -919.000          48.000  
> 2024 12 16  4  0 58.9860001  0 10                     
G 3  19640452.428    -4840270.632        1672.000          38.000  
G10  20419207.617     6267563.733       -2885.000          38.000  
G16  17624268.089    -7174804.074        2881.000          43.000  
G25  20719612.864     6373526.1511      -2967.000          35.000  
G26  16361771.214    -2718105.846         711.000          46.000  
G27  20989599.344    -5805842.605        4156.000          35.000  
G28  17798317.562     -502914.116         177.000          44.000  
G29  19397209.563     -503975.638        -368.000          41.000  
G31  17485216.287    -2220369.416         937.000          46.000  
G32  17158346.708      760943.665        -920.000          48.000  
> 2024 12 16  4  0 59.9860001  0 10                     
G 3  19640134.361    -4841942.215        1671.000          38.000  
G10  20419756.743     6270449.475       -2885.000          38.000  
G16  17623719.895    -7177684.839        2880.000          43.000  
G25  20720178.649     6376493.7771      -2967.000          35.000  
G26  16361635.926    -2718816.770         710.000          46.000  
G27  20988808.692    -5809998.939        4156.000          35.000  
G28  17798283.886     -503091.004         176.000          44.000  
G29  19397279.799     -503606.527        -369.000          41.000  
G31  17485038.041    -2221306.213         936.000          46.000  
G32  17158522.105      761865.345        -921.000          48.000  
> 2024 12 16  4  1  0.9860001  0 10                     
G 3  19639816.400    -4843613.225        1671.000          38.000  
G10  20420305.868     6273335.146       -2885.000          38.000  
G16  17623171.795    -7180565.130        2880.000          43.000  
G25  20720744.790     6379461.382       -2967.000          36.000  
G26  16361500.735    -2719527.172         710.000          46.000  
G27  20988018.821    -5814155.392        4156.000          35.000  
G28  17798250.233     -503267.771         176.000          44.000  
G29  19397350.134     -503236.834        -369.000          41.000  
G31  17484859.822    -2222242.886         936.000          46.000  
G32  17158697.610      762787.580        -922.000          48.000  
> 2024 12 16  4  1  1.9860001  0 10                     
G 3  19639498.507    -4845283.867        1670.000          38.000  
G10  20420854.940     6276220.507       -2885.000          38.000  
G16  17622623.746    -7183445.163        2880.000          43.000  
G25  20721308.288     6382428.737       -2967.000          35.000  
G26  16361365.604    -2720237.255         710.000          46.000  
G27  20987228.671    -5818312.175        4156.000          35.000  
G28  17798216.555     -503444.685         176.000          44.000  
G29  19397420.532     -502866.767        -370.000          40.000  
G31  17484681.585    -2223179.662         936.000          46.000  
G32  17158873.185      763710.157        -922.000          48.000  
> 2024 12 16  4  1  2.9860001  0 10                     
G 3  19639180.730    -4846953.860        1669.000          38.000  
G10  20421404.015     6279105.842       -2885.000          38.000  
G16  17622075.802    -7186324.629        2879.000          43.000  
G25  20721879.473     6385396.063       -2967.000          36.000  
G26  16361230.582    -2720946.771         709.000          46.000  
G27  20986433.652    -5822469.028        4156.000          35.000  
G28  17798182.899     -503621.459         176.000          44.000  
G29  19397491.052     -502496.042        -370.000          40.000  
G31  17484503.381    -2224116.282         936.000          46.000  
G32  17159048.878      764633.331        -923.000          48.000  
> 2024 12 16  4  1  3.9860001  0 10                     
G 3  19638863.051    -4848623.346        1669.000          37.000  
G10  20421953.052     6281991.009       -2885.000          38.000  
G16  17621527.930    -7189203.710        2879.000          43.000  
G25  20722435.494     6388363.318       -2967.000          36.000  
G26  16361095.639    -2721655.899         709.000          46.000  
G27  20985643.353    -5826626.121        4157.000          35.000  
G28  17798149.238     -503798.261         176.000          44.000  
G29  19397561.669     -502124.862        -371.000          41.000  
G31  17484325.172    -2225052.909         936.000          46.000  
G32  17159224.658      765556.949        -923.000          48.000  
> 2024 12 16  4  1  4.9860001  0 10                     
G 3  19638545.498    -4850292.125        1668.000          37.000  
G10  20422502.096     6284876.190       -2885.000          38.000  
G16  17620980.173    -7192082.175        2878.000          43.000  
G25  20723004.929     6391330.592       -2967.000          35.000  
G26  16360960.825    -2722364.353         708.000          46.000  
G27  20984852.985    -5830783.202        4157.000          35.000  
G28  17798115.633     -503974.822         176.000          44.000  
G29  19397632.436     -501752.937        -371.000          40.000  
G31  17484147.010    -2225989.262         936.000          46.000  
G32  17159400.571      766481.248        -924.000          48.000  
> 2024 12 16  4  1  5.9860001  0 10                     
G 3  19638227.987    -4851960.676        1668.000          37.000  
G10  20423051.068     6287761.003       -2884.000          38.000  
G16  17620432.451    -7194960.458        2878.000          43.000  
G25  20723569.749     6394297.547       -2966.000          36.000  
G26  16360826.045    -2723072.635         708.000          46.000  
G27  20984058.468    -5834940.699        4157.000          35.000  
G28  17798081.985     -504151.629         176.000          44.000  
G29  19397703.261     -501380.722        -372.000          41.000  
G31  17483968.797    -2226925.859         936.000          46.000  
G32  17159576.537      767405.810        -924.000          48.000  
> 2024 12 16  4  1  6.9860001  0 10                     
G 3  19637910.583    -4853628.659        1667.000          37.000  
G10  20423599.991     6290645.585       -2884.000          38.000  
G16  17619884.802    -7197838.364        2877.000          43.000  
G25  20724134.923     6397264.394       -2966.000          36.000  
G26  16360691.350    -2723780.491         707.000          46.000  
G27  20983268.388    -5839098.450        4157.000          34.000  
G28  17798048.336     -504328.457         176.000          44.000  
G29  19397774.177     -501008.045        -372.000          41.000  
G31  17483790.586    -2227862.440         936.000          46.000  
G32  17159752.583      768330.794        -924.000          48.000  
> 2024 12 16  4  1  7.9860001  0 10                     
G 3  19637593.299    -4855296.033        1667.000          37.000  
G10  20424148.905     6293530.141       -2884.000          38.000  
G16  17619337.251    -7200715.767        2877.000          43.000  
G25  20724699.638     6400231.153       -2966.000          36.000  
G26  16360556.762    -2724487.799         707.000          47.000  
G27  20982474.084    -5843256.322        4157.000          34.000  
G28  17798014.701     -504505.204         176.000          45.000  
G29  19397845.212     -500634.750        -373.000          41.000  
G31  17483612.388    -2228798.930         936.000          46.000  
G32  17159928.738      769256.357        -925.000          48.000  
> 2024 12 16  4  1  8.9860001  0 10                     
G 3  19637276.103    -4856963.006        1666.000          38.000  
G10  20424697.770     6296414.443       -2884.000          38.000  
G16  17618789.770    -7203592.806        2877.000          43.000  
G25  20725263.668     6403197.771       -2966.000          36.000  
G26  16360422.245    -2725194.751         706.000          46.000  
G27  20981683.358    -5847414.491        4158.000          34.000  
G28  17797981.063     -504681.975         176.000          44.000  
G29  19397916.342     -500261.016        -373.000          41.000  
G31  17483434.188    -2229735.419         936.000          46.000  
G32  17160104.970      770182.341        -925.000          48.000  
> 2024 12 16  4  1  9.9860001  0 10                     
G 3  19636958.941    -4858629.777        1666.000          37.000  
G10  20425246.533     6299298.166       -2883.000          38.000  
G16  17618242.285    -7206469.865        2877.000          43.000  
G25  20725828.453     6406163.796       -2966.000          36.000  
G26  16360287.736    -2725901.660         706.000          46.000  
G27  20980892.130    -5851573.237        4158.000          34.000  
G28  17797947.350     -504859.153         177.000          44.000  
G29  19397987.507     -499887.148        -373.000          41.000  
G31  17483255.919    -2230672.281         936.000          46.000  
G32  17160281.212      771108.393        -926.000          48.000  
> 2024 12 16  4  1 10.9860001  0 10                     
G 3  19636641.900    -4860295.865        1666.000          37.000  
G10  20425795.320     6302182.032       -2883.000          38.000  
G16  17617694.939    -7209346.197        2876.000          43.000  
G25  20726387.048     6409130.075       -2966.000          36.000  
G26  16360153.365    -2726607.828         706.000          47.000  
G27  20980102.046    -5855731.899        4158.000          34.000  
G28  17797913.694     -505036.027         176.000          44.000  
G29  19398058.825     -499512.498        -374.000          41.000  
G31  17483077.709    -2231608.843         936.000          46.000  
G32  17160457.594      772035.203        -926.000          48.000  
> 2024 12 16  4  1 11.9860001  0 10                     
G 3  19636325.031    -4861961.026        1665.000          37.000  
G10  20426344.152     6305066.138       -2884.000          38.000  
G16  17617147.736    -7212221.744        2875.000          43.000  
G25  20726954.014     6412096.576       -2966.000          36.000  
G26  16360019.148    -2727313.188         705.000          46.000  
G27  20979312.894    -5859890.376        4158.000          34.000  
G28  17797880.111     -505212.511         176.000          44.000  
G29  19398130.317     -499136.938        -375.000          41.000  
G31  17482899.578    -2232544.985         936.000          46.000  
G32  17160634.135      772962.863        -927.000          48.000  
> 2024 12 16  4  1 12.9860001  0 10                     
G 3  19636008.282    -4863625.562        1664.000          37.000  
G10  20426892.973     6307950.117       -2883.000          38.000  
G16  17616600.617    -7215096.814        2875.000          43.000  
G25  20727519.693     6415063.012       -2966.000          36.000  
G26  16359885.024    -2728018.048         704.000          46.000  
G27  20978516.663    -5864048.985        4158.000          34.000  
G28  17797846.535     -505388.931         176.000          45.000  
G29  19398201.908     -498760.822        -376.000          41.000  
G31  17482721.466    -2233481.024         936.000          46.000  
G32  17160810.779      773891.081        -928.000          48.000  
> 2024 12 16  4  1 13.9860001  0 10                     
G 3  19635691.626    -4865289.621        1664.000          37.000  
G10  20427441.755     6310833.920       -2883.000          38.000  
G16  17616053.567    -7217971.494        2874.000          43.000  
G25  20728085.765     6418029.364       -2966.000          37.000  
G26  16359750.979    -2728722.480         704.000          46.000  
G27  20977726.150    -5868207.847        4158.000          34.000  
G28  17797812.952     -505565.373         176.000          45.000  
G29  19398273.591     -498384.180        -376.000          41.000  
G31  17482543.352    -2234417.078         936.000          46.000  
G32  17160987.510      774819.749        -928.000          48.000  
> 2024 12 16  4  1 14.9860001  0 10                     
G 3  19635375.146    -4866952.705        1663.000          37.000  
G10  20427990.592     6313718.035       -2884.000          38.000  
G16  17615506.681    -7220845.308        2873.000          43.000  
G25  20728649.975     6420996.021       -2966.000          37.000  
G26  16359617.103    -2729426.021         703.000          47.000  
G27  20976934.565    -5872366.418        4158.000          34.000  
G28  17797779.455     -505741.353         175.000          44.000  
G29  19398345.438     -498006.601        -377.000          40.000  
G31  17482365.324    -2235352.651         935.000          46.000  
G32  17161164.416      775749.326        -929.000          48.000  
> 2024 12 16  4  1 15.9860001  0 10                     
G 3  19635058.819    -4868615.042        1662.000          37.000  
G10  20428539.432     6316602.194       -2884.000          38.000  
G16  17614959.916    -7223718.456        2873.000          43.000  
G25  20729214.009     6423962.805       -2966.000          37.000  
G26  16359483.353    -2730128.873         702.000          46.000  
G27  20976145.558    -5876525.039        4158.000          34.000  
G28  17797746.010     -505917.045         175.000          44.000  
G29  19398417.418     -497628.253        -378.000          40.000  
G31  17482187.350    -2236287.922         935.000          45.000  
G32  17161341.461      776679.638        -930.000          48.000  
> 2024 12 16  4  1 16.9860001  0 10                     
G 3  19634742.595    -4870276.835        1661.000          37.000  
G10  20429088.251     6319486.218       -2884.000          38.000  
G16  17614413.232    -7226591.188        2872.000          43.000  
G25  20729778.183     6426929.432       -2966.000          37.000  
G26  16359349.692    -2730831.284         702.000          46.000  
G27  20975357.405    -5880683.750        4158.000          35.000  
G28  17797712.552     -506092.757         175.000          44.000  
G29  19398489.490     -497249.383        -378.000          40.000  
G31  17482009.384    -2237223.143         935.000          46.000  
G32  17161518.599      777610.439        -930.000          48.000  
> 2024 12 16  4  1 17.9860001  0 10                     
G 3  19634426.466    -4871938.146        1661.000          37.000  
G10  20429637.025     6322370.068       -2883.000          38.000  
G16  17613866.626    -7229463.528        2872.000          43.000  
G25  20730343.540     6429895.936       -2966.000          37.000  
G26  16359216.114    -2731533.277         701.000          46.000  
G27  20974566.535    -5884842.703        4158.000          35.000  
G28  17797679.096     -506268.472         175.000          44.000  
G29  19398561.655     -496870.032        -379.000          40.000  
G31  17481831.418    -2238158.364         935.000          45.000  
G32  17161695.823      778541.690        -931.000          48.000  
> 2024 12 16  4  1 18.9860001  0 10                     
G 3  19634110.380    -4873599.245        1661.000          37.000  
G10  20430185.704     6325253.434       -2883.000          38.000  
G16  17613320.042    -7232335.764        2872.000          43.000  
G25  20730908.683     6432862.024       -2966.000          37.000  
G26  16359082.556    -2732235.162         701.000          46.000  
G27  20973771.373    -5889002.217        4159.000          35.000  
G28  17797645.591     -506444.474         176.000          44.000  
G29  19398633.870     -496490.448        -379.000          41.000  
G31  17481653.397    -2239093.889         935.000          46.000  
G32  17161873.076      779473.100        -931.000          48.000  
> 2024 12 16  4  1 19.9860001  0 10                     
G 3  19633794.491    -4875259.362        1660.000          37.000  
G10  20430734.446     6328137.099       -2883.000          38.000  
G16  17612773.625    -7235207.121        2871.000          43.000  
G25  20731472.534     6435828.459       -2966.000          36.000  
G26  16358949.172    -2732936.110         700.000          46.000  
G27  20972980.683    -5893161.407        4159.000          34.000  
G28  17797612.176     -506620.035         175.000          44.000  
G29  19398706.277     -496109.905        -380.000          41.000  
G31  17481475.472    -2240028.914         935.000          46.000  
G32  17162050.506      780405.445        -932.000          48.000  
> 2024 12 16  4  1 20.9860001  0 10                     
G 3  19633478.733    -4876918.808        1659.000          37.000  
G10  20431283.172     6331020.771       -2883.000          38.000  
G16  17612227.325    -7238077.860        2870.000          43.000  
G25  20732037.926     6438794.992       -2966.000          37.000  
G26  16358815.901    -2733636.454         700.000          46.000  
G27  20972189.198    -5897320.646        4159.000          34.000  
G28  17797578.805     -506795.385         175.000          45.000  
G29  19398778.822     -495728.653        -381.000          41.000  
G31  17481297.589    -2240963.718         934.000          46.000  
G32  17162228.060      781338.445        -932.000          48.000  
> 2024 12 16  4  1 21.9860001  0 10                     
G 3  19633163.023    -4878577.978        1659.000          37.000  
G10  20431831.813     6333904.046       -2883.000          38.000  
G16  17611681.049    -7240948.483        2870.000          43.000  
G25  20732602.606     6441761.052       -2966.000          37.000  
G26  16358682.657    -2734336.625         700.000          46.000  
G27  20971397.610    -5901480.362        4159.000          34.000  
G28  17797545.388     -506970.987         175.000          44.000  
G29  19398851.409     -495347.202        -381.000          41.000  
G31  17481119.660    -2241898.759         935.000          45.000  
G32  17162405.657      782271.675        -933.000          48.000  
> 2024 12 16  4  1 22.9860001  0 10                     
G 3  19632847.368    -4880236.801        1658.000          37.000  
G10  20432380.381     6336786.940       -2882.000          38.000  
G16  17611134.835    -7243818.816        2870.000          43.000  
G25  20733168.032     6444726.933       -2965.000          37.000  
G26  16358549.464    -2735036.503         699.000          46.000  
G27  20970605.905    -5905640.435        4160.000          34.000  
G28  17797511.939     -507146.737         175.000          45.000  
G29  19398924.075     -494965.316        -381.000          41.000  
G31  17480941.712    -2242833.919         935.000          45.000  
G32  17162583.315      783205.225        -933.000          48.000  
> 2024 12 16  4  1 23.9860001  0 10                     
G 3  19632531.772    -4881895.295        1658.000          37.000  
G10  20432928.894     6339669.557       -2882.000          38.000  
G16  17610588.654    -7246688.960        2870.000          43.000  
G25  20733732.529     6447692.443       -2965.000          37.000  
G26  16358416.320    -2735736.124         699.000          46.000  
G27  20969814.118    -5909800.909        4160.000          34.000  
G28  17797478.449     -507322.692         175.000          45.000  
G29  19398996.794     -494583.175        -382.000          41.000  
G31  17480763.725    -2243769.256         935.000          45.000  
G32  17162761.027      784139.036        -933.000          48.000  
> 2024 12 16  4  1 24.9860001  0 10                     
G 3  19632216.331    -4883553.056        1657.000          37.000  
G10  20433477.417     6342552.199       -2882.000          38.000  
G16  17610042.593    -7249558.481        2869.000          43.000  
G25  20734296.206     6450658.029       -2965.000          36.000  
G26  16358283.294    -2736435.125         699.000          46.000  
G27  20969022.394    -5913961.332        4160.000          34.000  
G28  17797445.003     -507498.428         175.000          44.000  
G29  19399069.659     -494200.292        -382.000          41.000  
G31  17480585.774    -2244704.371         935.000          45.000  
G32  17162938.876      785073.542        -934.000          48.000  
> 2024 12 16  4  1 25.9860001  0 10                     
G 3  19631900.995    -4885210.256        1657.000          37.000  
G10  20434025.904     6345434.675       -2882.000          38.000  
G16  17609496.622    -7252427.547        2869.000          43.000  
G25  20734861.380     6453623.579       -2965.000          37.000  
G26  16358150.363    -2737133.653         698.000          46.000  
G27  20968230.596    -5918121.992        4160.000          34.000  
G28  17797411.568     -507674.105         175.000          45.000  
G29  19399142.624     -493816.865        -383.000          41.000  
G31  17480407.833    -2245639.400         935.000          45.000  
G32  17163116.826      786008.556        -935.000          48.000  
> 2024 12 16  4  1 26.9860001  0 10                     
G 3  19631585.766    -4886866.894        1656.000          37.000  
G10  20434574.383     6348317.105       -2882.000          38.000  
G16  17608950.755    -7255296.090        2868.000          43.000  
G25  20735424.450     6456589.078       -2965.000          37.000  
G26  16358017.540    -2737831.625         697.000          46.000  
G27  20967438.768    -5922282.785        4160.000          34.000  
G28  17797378.157     -507849.660         175.000          45.000  
G29  19399215.700     -493432.819        -384.000          40.000  
G31  17480229.919    -2246574.271         934.000          45.000  
G32  17163294.889      786944.153        -935.000          48.000  
> 2024 12 16  4  1 27.9860001  0 10                     
G 3  19631270.735    -4888522.471        1655.000          37.000  
G10  20435122.937     6351199.886       -2882.000          38.000  
G16  17608405.058    -7258163.751        2867.000          43.000  
G25  20735988.014     6459554.924       -2965.000          36.000  
G26  16357884.895    -2738528.675         697.000          46.000  
G27  20966647.052    -5926443.192        4160.000          34.000  
G28  17797344.838     -508024.747         175.000          45.000  
G29  19399288.959     -493047.768        -385.000          40.000  
G31  17480052.094    -2247508.670         934.000          45.000  
G32  17163473.134      787880.683        -936.000          48.000  
> 2024 12 16  4  1 28.9860001  0 10                     
G 3  19630955.810    -4890177.406        1654.000          37.000  
G10  20435671.477     6354082.579       -2882.000          38.000  
G16  17607859.479    -7261030.824        2867.000          42.000  
G25  20736553.230     6462520.858       -2965.000          36.000  
G26  16357752.361    -2739225.156         696.000          46.000  
G27  20965855.305    -5930603.677        4160.000          34.000  
G28  17797311.549     -508199.694         174.000          45.000  
G29  19399362.349     -492662.058        -385.000          40.000  
G31  17479874.306    -2248442.878         934.000          45.000  
G32  17163651.502      788817.860        -937.000          48.000  
> 2024 12 16  4  1 29.9860001  0 10                     
G 3  19630640.973    -4891831.888        1654.000          37.000  
G10  20436219.985     6356965.072       -2882.000          38.000  
G16  17607313.961    -7263897.580        2866.000          43.000  
G25  20737116.083     6465486.540       -2965.000          36.000  
G26  16357619.898    -2739921.255         696.000          46.000  
G27  20965063.531    -5934764.473        4160.000          35.000  
G28  17797278.257     -508374.673         174.000          45.000  
G29  19399435.812     -492275.949        -386.000          40.000  
G31  17479696.506    -2249377.142         934.000          45.000  
G32  17163829.937      789755.418        -937.000          48.000  
> 2024 12 16  4  1 30.9860001  0 10                     
G 3  19630326.147    -4893486.326        1654.000          37.000  
G10  20436768.377     6359846.962       -2881.000          38.000  
G16  17606768.435    -7266764.354        2866.000          42.000  
G25  20737680.829     6468451.660       -2965.000          36.000  
G26  16357487.432    -2740617.363         696.000          46.000  
G27  20964271.640    -5938925.882        4161.000          35.000  
G28  17797244.882     -508550.112         175.000          45.000  
G29  19399509.301     -491889.717        -386.000          40.000  
G31  17479518.630    -2250311.793         934.000          45.000  
G32  17164008.381      790693.028        -937.000          48.000  
> 2024 12 16  4  1 31.9860001  0 10                     
G 3  19630011.449    -4895140.130        1653.000          37.000  
G10  20437316.749     6362728.779       -2881.000          37.000  
G16  17606223.001    -7269630.616        2866.000          42.000  
G25  20738244.968     6471416.783       -2965.000          36.000  
G26  16357355.067    -2741312.943         695.000          46.000  
G27  20963479.716    -5943087.445        4161.000          35.000  
G28  17797211.532     -508725.435         175.000          45.000  
G29  19399582.906     -491502.900        -386.000          41.000  
G31  17479340.777    -2251246.320         934.000          45.000  
G32  17164186.926      791631.200        -938.000          48.000  
> 2024 12 16  4  1 32.9860001  0 10                     
G 3  19629696.840    -4896793.422        1653.000          38.000  
G10  20437865.088     6365610.447       -2881.000          38.000  
G16  17605677.651    -7272496.459        2865.000          43.000  
G25  20738807.070     6474381.803       -2965.000          36.000  
G26  16357222.789    -2742008.049         695.000          46.000  
G27  20962687.718    -5947249.176        4161.000          35.000  
G28  17797178.187     -508900.719         175.000          45.000  
G29  19399656.616     -491115.556        -387.000          41.000  
G31  17479162.931    -2252180.813         934.000          45.000  
G32  17164365.564      792569.883        -938.000          48.000  
> 2024 12 16  4  1 33.9860001  0 10                     
G 3  19629382.264    -4898446.518        1653.000          38.000  
G10  20438413.331     6368491.604       -2881.000          38.000  
G16  17605132.316    -7275362.216        2865.000          43.000  
G25  20739372.710     6477346.376       -2964.000          35.000  
G26  16357090.520    -2742703.098         695.000          46.000  
G27  20961895.619    -5951411.406        4162.000          34.000  
G28  17797144.776     -509076.370         175.000          45.000  
G29  19399730.370     -490728.020        -387.000          41.000  
G31  17478985.016    -2253115.657         934.000          45.000  
G32  17164544.217      793508.652        -938.000          48.000  
> 2024 12 16  4  1 34.9860001  0 10                     
G 3  19629067.836    -4900098.788        1652.000          37.000  
G10  20438961.600     6371372.934       -2881.000          38.000  
G16  17604587.121    -7278227.228        2865.000          43.000  
G25  20739931.488     6480311.081       -2964.000          35.000  
G26  16356958.403    -2743397.350         694.000          46.000  
G27  20961103.558    -5955573.557        4162.000          34.000  
G28  17797111.437     -509251.657         175.000          45.000  
G29  19399804.287     -490339.676        -388.000          41.000  
G31  17478807.173    -2254050.092         934.000          45.000  
G32  17164723.033      794448.280        -939.000          48.000  
> 2024 12 16  4  1 35.9860001  0 10                     
G 3  19628753.489    -4901750.618        1651.000          37.000  
G10  20439509.820     6374254.011       -2881.000          37.000  
G16  17604041.982    -7281091.935        2864.000          43.000  
G25  20740499.702     6483275.659       -2964.000          35.000  
G26  16356826.359    -2744091.222         693.000          46.000  
G27  20960311.413    -5959736.022        4162.000          34.000  
G28  17797078.082     -509427.015         175.000          45.000  
G29  19399878.281     -489950.893        -388.000          41.000  
G31  17478629.321    -2254984.593         934.000          45.000  
G32  17164901.916      795388.266        -939.000          48.000  
> 2024 12 16  4  1 36.9860001  0 10                     
G 3  19628439.225    -4903402.021        1651.000          37.000  
G10  20440057.991     6377134.792       -2880.000          38.000  
G16  17603496.898    -7283956.326        2864.000          42.000  
G25  20741062.341     6486239.994       -2964.000          35.000  
G26  16356694.368    -2744784.823         693.000          46.000  
G27  20959519.242    -5963898.703        4162.000          34.000  
G28  17797044.695     -509602.509         175.000          45.000  
G29  19399952.344     -489561.705        -389.000          41.000  
G31  17478451.452    -2255919.175         934.000          45.000  
G32  17165080.859      796328.590        -940.000          48.000  
> 2024 12 16  4  1 37.9860001  0 10                     
G 3  19628125.032    -4905053.003        1650.000          37.000  
G10  20440606.134     6380015.358       -2880.000          38.000  
G16  17602951.881    -7286820.354        2864.000          42.000  
G25  20741626.768     6489204.131       -2964.000          35.000  
G26  16356562.452    -2745478.034         693.000          46.000  
G27  20958727.015    -5968061.671        4162.000          34.000  
G28  17797011.299     -509778.038         175.000          45.000  
G29  19400026.489     -489172.059        -389.000          41.000  
G31  17478273.572    -2256853.819         934.000          45.000  
G32  17165259.885      797269.360        -940.000          48.000  
> 2024 12 16  4  1 38.9860001  0 10                     
G 3  19627810.930    -4906703.528        1650.000          37.000  
G10  20441154.244     6382895.733       -2880.000          37.000  
G16  17602406.930    -7289684.014        2863.000          42.000  
G25  20742189.049     6492168.094       -2963.000          35.000  
G26  16356430.613    -2746170.836         692.000          46.000  
G27  20957934.755    -5972224.958        4163.000          34.000  
G28  17796977.898     -509953.605         175.000          45.000  
G29  19400100.718     -488781.948        -390.000          41.000  
G31  17478095.696    -2257788.440         934.000          45.000  
G32  17165438.998      798210.574        -941.000          48.000  
> 2024 12 16  4  1 39.9860001  0 10                     
G 3  19627497.045    -4908353.043        1649.000          37.000  
G10  20441702.404     6385776.367       -2880.000          38.000  
G16  17601862.142    -7292546.811        2862.000          42.000  
G25  20742757.764     6495132.360       -2964.000          35.000  
G26  16356298.939    -2746862.763         691.000          46.000  
G27  20957142.559    -5976388.001        4163.000          34.000  
G28  17796944.584     -510128.729         175.000          45.000  
G29  19400175.129     -488390.895        -391.000          41.000  
G31  17477917.907    -2258722.604         934.000          45.000  
G32  17165618.282      799152.680        -942.000          48.000  
> 2024 12 16  4  1 40.9860001  0 10                     
G 3  19627183.308    -4910001.835        1648.000          37.000  
G10  20442250.580     6388657.062       -2880.000          37.000  
G16  17601317.481    -7295408.971        2862.000          43.000  
G25  20743319.688     6498096.835       -2964.000          35.000  
G26  16356167.385    -2747554.020         691.000          46.000  
G27  20956350.410    -5980550.927        4162.000          34.000  
G28  17796911.321     -510303.590         174.000          45.000  
G29  19400249.692     -487999.053        -391.000          41.000  
G31  17477740.170    -2259656.507         933.000          45.000  
G32  17165797.708      800095.522        -942.000          48.000  
> 2024 12 16  4  1 41.9860001  0 10                     
G 3  19626869.692    -4911649.981        1648.000          37.000  
G10  20442798.750     6391537.732       -2880.000          38.000  
G16  17600772.915    -7298270.621        2861.000          43.000  
G25  20743885.258     6501061.184       -2964.000          35.000  
G26  16356035.933    -2748244.725         690.000          46.000  
G27  20955558.216    -5984714.023        4163.000          35.000  
G28  17796878.081     -510478.356         174.000          45.000  
G29  19400324.384     -487606.629        -392.000          41.000  
G31  17477562.458    -2260590.269         933.000          45.000  
G32  17165977.240      801038.908        -943.000          48.000  
> 2024 12 16  4  1 42.9860001  0 10                     
G 3  19626556.213    -4913297.455        1647.000          37.000  
G10  20443346.922     6394418.431       -2880.000          37.000  
G16  17600228.466    -7301131.650        2861.000          42.000  
G25  20744447.753     6504025.670       -2964.000          35.000  
G26  16355904.603    -2748934.787         690.000          46.000  
G27  20954766.032    -5988877.100        4163.000          35.000  
G28  17796844.891     -510652.916         174.000          45.000  
G29  19400399.220     -487213.484        -393.000          41.000  
G31  17477384.789    -2261523.819         933.000          45.000  
G32  17166156.902      801982.984        -944.000          48.000  
> 2024 12 16  4  1 43.9860001  0 10                     
G 3  19626242.880    -4914944.254        1646.000          38.000  
G10  20443895.076     6397299.093       -2880.000          37.000  
G16  17599684.127    -7303992.106        2860.000          42.000  
G25  20745011.107     6506990.177       -2964.000          35.000  
G26  16355773.384    -2749624.268         689.000          46.000  
G27  20953973.860    -5993040.204        4163.000          35.000  
G28  17796811.739     -510827.290         174.000          45.000  
G29  19400474.188     -486819.689        -393.000          41.000  
G31  17477207.160    -2262457.175         933.000          45.000  
G32  17166336.684      802927.706        -944.000          48.000  
> 2024 12 16  4  1 44.9860001  0 10                     
G 3  19625929.696    -4916590.379        1646.000          38.000  
G10  20444443.228     6400179.676       -2880.000          37.000  
G16  17599139.883    -7306852.064        2859.000          42.000  
G25  20745575.892     6509954.658       -2964.000          35.000  
G26  16355642.266    -2750313.225         688.000          46.000  
G27  20953181.664    -5997203.420        4163.000          35.000  
G28  17796778.600     -511001.580         174.000          45.000  
G29  19400549.284     -486425.258        -394.000          41.000  
G31  17477029.555    -2263390.408         933.000          45.000  
G32  17166516.570      803872.982        -945.000          48.000  
> 2024 12 16  4  1 45.9860001  0 10                     
G 3  19625616.658    -4918235.712        1645.000          38.000  
G10  20444991.423     6403060.471       -2880.000          38.000  
G16  17598595.792    -7309711.222        2859.000          43.000  
G25  20746139.743     6512919.361       -2964.000          36.000  
G26  16355511.306    -2751001.364         688.000          46.000  
G27  20952389.479    -6001366.438        4163.000          35.000  
G28  17796745.532     -511175.487         173.000          45.000  
G29  19400624.549     -486029.958        -395.000          41.000  
G31  17476852.021    -2264323.264         932.000          45.000  
G32  17166696.618      804819.104        -946.000          48.000  
> 2024 12 16  4  1 46.9860001  0 10                     
G 3  19625303.752    -4919880.253        1644.000          37.000  
G10  20445539.622     6405941.295       -2880.000          37.000  
G16  17598051.822    -7312569.787        2858.000          42.000  
G25  20746704.528     6515884.150       -2964.000          36.000  
G26  16355380.469    -2751688.893         687.000          47.000  
G27  20951597.244    -6005529.538        4163.000          35.000  
G28  17796712.494     -511349.214         173.000          45.000  
G29  19400699.934     -485633.963        -395.000          41.000  
G31  17476674.536    -2265255.867         932.000          45.000  
G32  17166876.794      805765.892        -946.000          48.000  
> 2024 12 16  4  1 47.9860001  0 10                     
G 3  19624990.955    -4921524.232        1643.000          37.000  
G10  20446087.800     6408822.034       -2880.000          37.000  
G16  17597507.945    -7315427.852        2858.000          42.000  
G25  20747269.989     6518848.932       -2964.000          36.000  
G26  16355249.741    -2752375.877         686.000          46.000  
G27  20950805.014    -6009692.698        4163.000          35.000  
G28  17796679.480     -511522.813         173.000          45.000  
G29  19400775.429     -485237.372        -396.000          41.000  
G31  17476497.063    -2266188.373         932.000          45.000  
G32  17167057.080      806713.242        -947.000          48.000  
> 2024 12 16  4  1 48.9860001  0 10                     
G 3  19624678.212    -4923167.905        1643.000          37.000  
G10  20446635.918     6411702.416       -2880.000          38.000  
G16  17596964.111    -7318285.702        2857.000          42.000  
G25  20747835.097     6521813.326       -2964.000          36.000  
G26  16355119.058    -2753062.642         686.000          47.000  
G27  20950012.686    -6013856.313        4163.000          35.000  
G28  17796646.421     -511696.650         173.000          45.000  
G29  19400850.982     -484840.466        -396.000          41.000  
G31  17476319.554    -2267121.051         932.000          45.000  
G32  17167237.417      807660.838        -947.000          48.000  
> 2024 12 16  4  1 49.9860001  0 10                     
G 3  19624365.575    -4924810.944        1643.000          37.000  
G10  20447184.039     6414582.784       -2880.000          38.000  
G16  17596420.390    -7321142.958        2857.000          43.000  
G25  20748398.163     6524777.780       -2964.000          37.000  
G26  16354988.494    -2753748.789         686.000          47.000  
G27  20949220.384    -6018019.924        4163.000          35.000  
G28  17796613.407     -511870.248         173.000          45.000  
G29  19400926.671     -484442.869        -397.000          41.000  
G31  17476142.082    -2268053.536         932.000          45.000  
G32  17167417.884      808609.106        -948.000          48.000  
> 2024 12 16  4  1 50.9860001  0 10                     
G 3  19624053.068    -4926453.236        1642.000          37.000  
G10  20447732.152     6417463.104       -2880.000          38.000  
G16  17595876.775    -7323999.698        2856.000          42.000  
G25  20748962.482     6527742.285       -2964.000          36.000  
G26  16354858.032    -2754434.396         685.000          47.000  
G27  20948428.058    -6022183.618        4163.000          35.000  
G28  17796580.403     -512043.767         173.000          45.000  
G29  19401002.483     -484044.651        -398.000          41.000  
G31  17475964.645    -2268985.850         932.000          45.000  
G32  17167598.463      809557.961        -948.000          48.000  
> 2024 12 16  4  1 51.9860001  0 10                     
G 3  19623740.619    -4928095.202        1641.000          37.000  
G10  20448280.206     6420343.139       -2880.000          37.000  
G16  17595333.222    -7326856.134        2856.000          42.000  
G25  20749527.729     6530706.552       -2964.000          37.000  
G26  16354727.632    -2755119.662         685.000          47.000  
G27  20947635.667    -6026347.641        4164.000          35.000  
G28  17796547.374     -512217.371         173.000          45.000  
G29  19401078.379     -483646.005        -398.000          41.000  
G31  17475787.194    -2269918.255         932.000          45.000  
G32  17167779.112      810507.181        -949.000          48.000  
> 2024 12 16  4  1 52.9860001  0 10                     
G 3  19623428.218    -4929736.912        1641.000          37.000  
G10  20448828.168     6423222.712       -2879.000          37.000  
G16  17594789.699    -7329712.438        2856.000          42.000  
G25  20750092.907     6533670.345       -2963.000          37.000  
G26  16354597.261    -2755804.791         685.000          47.000  
G27  20946843.202    -6030512.129        4164.000          35.000  
G28  17796514.281     -512391.286         173.000          44.000  
G29  19401154.307     -483247.166        -398.000          41.000  
G31  17475609.692    -2270850.935         932.000          45.000  
G32  17167959.791      811456.557        -949.000          48.000  
> 2024 12 16  4  1 53.9860001  0 10                     
G 3  19623115.867    -4931378.312        1641.000          37.000  
G10  20449376.056     6426101.904       -2879.000          38.000  
G16  17594246.211    -7332568.551        2856.000          42.000  
G25  20750657.225     6536633.820       -2963.000          37.000  
G26  16354466.931    -2756489.717         684.000          47.000  
G27  20946050.681    -6034677.052        4164.000          35.000  
G28  17796481.141     -512565.407         174.000          45.000  
G29  19401230.282     -482848.025        -399.000          41.000  
G31  17475432.152    -2271783.817         932.000          45.000  
G32  17168140.517      812406.202        -949.000          48.000  
> 2024 12 16  4  1 54.9860001  0 10                     
G 3  19622803.620    -4933019.187        1640.000          37.000  
G10  20449923.928     6428980.982       -2879.000          38.000  
G16  17593702.800    -7335424.225        2855.000          42.000  
G25  20751222.224     6539597.191       -2963.000          37.000  
G26  16354336.699    -2757174.158         684.000          47.000  
G27  20945258.149    -6038842.166        4165.000          35.000  
G28  17796448.013     -512739.465         174.000          45.000  
G29  19401306.348     -482448.344        -399.000          41.000  
G31  17475254.627    -2272716.608         932.000          45.000  
G32  17168321.340      813356.364        -950.000          48.000  
> 2024 12 16  4  1 55.9860001  0 10                     
G 3  19622491.512    -4934659.300        1640.000          37.000  
G10  20450471.814     6431860.097       -2879.000          38.000  
G16  17593159.512    -7338279.246        2855.000          42.000  
G25  20751786.114     6542560.686       -2963.000          37.000  
G26  16354206.600    -2757857.901         683.000          47.000  
G27  20944465.604    -6043007.237        4165.000          35.000  
G28  17796414.931     -512913.290         173.000          45.000  
G29  19401382.550     -482047.916        -400.000          41.000  
G31  17475077.147    -2273649.145         932.000          45.000  
G32  17168502.290      814307.221        -950.000          48.000  
> 2024 12 16  4  1 56.9860001  0 10                     
G 3  19622179.546    -4936298.607        1639.000          37.000  
G10  20451019.727     6434739.348       -2879.000          38.000  
G16  17592616.349    -7341133.549        2854.000          42.000  
G25  20752350.790     6545524.372       -2963.000          37.000  
G26  16354076.637    -2758540.929         683.000          47.000  
G27  20943673.068    -6047172.203        4164.000          35.000  
G28  17796381.913     -513086.800         173.000          45.000  
G29  19401458.908     -481646.678        -401.000          41.000  
G31  17474899.724    -2274581.379         932.000          45.000  
G32  17168683.383      815258.865        -951.000          48.000  
> 2024 12 16  4  1 57.9860001  0 10                     
G 3  19621867.652    -4937937.526        1638.000          37.000  
G10  20451567.580     6437618.296       -2878.000          38.000  
G16  17592073.225    -7343987.571        2854.000          42.000  
G25  20752913.678     6548487.771       -2963.000          37.000  
G26  16353946.724    -2759223.683         682.000          47.000  
G27  20942880.508    -6051337.526        4165.000          35.000  
G28  17796348.871     -513260.453         173.000          45.000  
G29  19401535.343     -481245.066        -401.000          41.000  
G31  17474722.291    -2275513.697         932.000          45.000  
G32  17168864.539      816210.840        -951.000          48.000  
> 2024 12 16  4  1 58.9860001  0 10                     
G 3  19621555.879    -4939575.810        1638.000          37.000  
G10  20452115.428     6440497.253       -2878.000          38.000  
G16  17591530.205    -7346841.050        2853.000          42.000  
G25  20753477.603     6551451.240       -2963.000          37.000  
G26  16353816.928    -2759905.819         682.000          47.000  
G27  20942087.952    -6055502.833        4165.000          35.000  
G28  17796315.861     -513433.941         173.000          45.000  
G29  19401611.912     -480842.789        -402.000          41.000  
G31  17474544.896    -2276445.850         932.000          45.000  
G32  17169045.817      817163.446        -952.000          48.000  
> 2024 12 16  4  1 59.9860001  0 10                     
G 3  19621244.224    -4941213.593        1637.000          37.000  
G10  20452663.225     6443375.979       -2878.000          38.000  
G16  17590987.263    -7349694.132        2853.000          42.000  
G25  20754041.743     6554414.524       -2963.000          37.000  
G26  16353687.203    -2760587.577         681.000          47.000  
G27  20941295.284    -6059668.427        4165.000          35.000  
G28  17796282.846     -513607.453         173.000          45.000  
G29  19401688.566     -480440.046        -402.000          41.000  
G31  17474367.507    -2277377.976         932.000          46.000  
G32  17169227.181      818116.481        -953.000          48.000  
> 2024 12 16  4  2  0.9860001  0 10                     
G 3  19620932.708    -4942850.646        1637.000          37.000  
G10  20453211.028     6446254.749       -2878.000          38.000  
G16  17590444.444    -7352546.585        2852.000          42.000  
G25  20754606.314     6557377.953       -2963.000          37.000  
G26  16353557.602    -2761268.662         681.000          47.000  
G27  20940502.621    -6063833.988        4165.000          35.000  
G28  17796249.871     -513780.758         173.000          45.000  
G29  19401765.358     -480036.573        -403.000          41.000  
G31  17474190.154    -2278309.893         931.000          45.000  
G32  17169408.679      819070.209        -953.000          48.000  
> 2024 12 16  4  2  1.9860001  0 10                     
G 3  19620621.334    -4944486.896        1636.000          37.000  
G10  20453758.863     6449133.652       -2878.000          38.000  
G16  17589901.759    -7355398.348        2851.000          42.000  
G25  20755168.665     6560341.464       -2963.000          37.000  
G26  16353428.133    -2761949.041         680.000          47.000  
G27  20939709.977    -6067999.464        4165.000          35.000  
G28  17796216.957     -513953.754         173.000          45.000  
G29  19401842.305     -479632.309        -404.000          41.000  
G31  17474012.856    -2279241.509         931.000          45.000  
G32  17169590.320      820024.683        -954.000          48.000  
> 2024 12 16  4  2  2.9860001  0 10                     
G 3  19620309.961    -4946123.107        1636.000          37.000  
G10  20454306.580     6452011.928       -2878.000          38.000  
G16  17589359.065    -7358250.137        2851.000          43.000  
G25  20755731.910     6563304.395       -2962.000          37.000  
G26  16353298.665    -2762629.421         680.000          47.000  
G27  20938917.201    -6072165.602        4166.000          35.000  
G28  17796183.957     -514127.208         173.000          45.000  
G29  19401919.267     -479227.968        -404.000          41.000  
G31  17473835.476    -2280173.529         932.000          45.000  
G32  17169771.970      820979.195        -954.000          48.000  
> 2024 12 16  4  2  3.9860001  0 10                     
G 3  19619998.738    -4947758.635        1635.000          37.000  
G10  20454854.289     6454890.143       -2878.000          38.000  
G16  17588816.475    -7361101.382        2851.000          42.000  
G25  20756294.941     6566267.370       -2962.000          37.000  
G26  16353169.306    -2763309.243         679.000          47.000  
G27  20938124.430    -6076331.791        4166.000          35.000  
G28  17796150.983     -514300.519         173.000          45.000  
G29  19401996.350     -478822.998        -404.000          41.000  
G31  17473658.120    -2281105.388         931.000          45.000  
G32  17169953.730      821934.291        -955.000          48.000  
> 2024 12 16  4  2  4.9860001  0 10                     
G 3  19619687.647    -4949393.566        1634.000          37.000  
G10  20455401.996     6457768.310       -2878.000          38.000  
G16  17588273.976    -7363952.135        2850.000          42.000  
G25  20756858.400     6569230.303       -2962.000          37.000  
G26  16353040.045    -2763988.569         679.000          47.000  
G27  20937331.610    -6080498.139        4166.000          35.000  
G28  17796118.036     -514473.712         173.000          45.000  
G29  19402073.557     -478417.414        -405.000          41.000  
G31  17473480.777    -2282037.140         931.000          45.000  
G32  17170135.599      822889.974        -955.000          48.000  
> 2024 12 16  4  2  5.9860001  0 10                     
G 3  19619376.670    -4951027.930        1634.000          37.000  
G10  20455949.681     6460646.349       -2878.000          37.000  
G16  17587731.567    -7366802.407        2850.000          43.000  
G25  20757422.504     6572193.188       -2962.000          37.000  
G26  16352910.889    -2764667.337         678.000          47.000  
G27  20936538.768    -6084664.583        4166.000          35.000  
G28  17796085.096     -514646.874         173.000          45.000  
G29  19402150.874     -478011.269        -406.000          41.000  
G31  17473303.450    -2282968.815         931.000          45.000  
G32  17170317.567      823846.188        -956.000          48.000  
> 2024 12 16  4  2  6.9860001  0 10                     
G 3  19619065.785    -4952661.776        1633.000          37.000  
G10  20456497.331     6463524.201       -2877.000          37.000  
G16  17587189.227    -7369652.299        2849.000          43.000  
G25  20757985.928     6575155.896       -2962.000          37.000  
G26  16352781.795    -2765345.759         678.000          47.000  
G27  20935745.869    -6088831.281        4166.000          35.000  
G28  17796052.155     -514820.031         173.000          45.000  
G29  19402228.286     -477604.646        -406.000          41.000  
G31  17473126.136    -2283900.459         931.000          45.000  
G32  17170499.612      824802.813        -956.000          48.000  
> 2024 12 16  4  2  7.9860001  0 10                     
G 3  19618755.003    -4954295.105        1633.000          37.000  
G10  20457044.951     6466401.929       -2877.000          37.000  
G16  17586646.986    -7372501.715        2849.000          43.000  
G25  20758549.247     6578118.527       -2962.000          37.000  
G26  16352652.796    -2766023.671         677.000          47.000  
G27  20934952.962    -6092998.123        4166.000          35.000  
G28  17796019.217     -514993.166         173.000          45.000  
G29  19402305.798     -477197.447        -407.000          41.000  
G31  17472948.834    -2284832.059         931.000          45.000  
G32  17170681.766      825759.989        -957.000          48.000  
> 2024 12 16  4  2  8.9860001  0 10                     
G 3  19618444.330    -4955927.854        1632.000          37.000  
G10  20457592.538     6469279.512       -2877.000          37.000  
G16  17586104.836    -7375350.675        2848.000          43.000  
G25  20759112.850     6581081.082       -2962.000          37.000  
G26  16352523.888    -2766701.100         677.000          47.000  
G27  20934160.045    -6097165.102        4166.000          35.000  
G28  17795986.294     -515166.221         173.000          45.000  
G29  19402383.407     -476789.721        -407.000          41.000  
G31  17472771.554    -2285763.567         931.000          45.000  
G32  17170864.020      826717.681        -957.000          48.000  
> 2024 12 16  4  2  9.9860001  0 10                     
G 3  19618133.704    -4957560.345        1632.000          37.000  
G10  20458140.046     6472156.689       -2877.000          37.000  
G16  17585562.723    -7378199.472        2848.000          43.000  
G25  20759677.382     6584043.271       -2962.000          37.000  
G26  16352395.014    -2767378.343         677.000          47.000  
G27  20933367.068    -6101332.536        4167.000          36.000  
G28  17795953.324     -515339.509         173.000          45.000  
G29  19402461.061     -476381.686        -408.000          40.000  
G31  17472594.231    -2286695.289         931.000          45.000  
G32  17171046.317      827675.586        -957.000          48.000  
> 2024 12 16  4  2 10.9860001  0 10                     
G 3  19617823.242    -4959191.944        1631.000          38.000  
G10  20458687.593     6475034.081       -2877.000          37.000  
G16  17585020.758    -7381047.505        2848.000          43.000  
G25  20760241.884     6587005.680       -2962.000          37.000  
G26  16352266.295    -2768054.784         676.000          47.000  
G27  20932574.073    -6105499.847        4167.000          35.000  
G28  17795920.423     -515512.421         172.000          45.000  
G29  19402538.867     -475972.815        -408.000          41.000  
G31  17472416.978    -2287626.639         931.000          45.000  
G32  17171228.773      828634.335        -958.000          48.000  
> 2024 12 16  4  2 11.9860001  0 10                     
G 3  19617512.928    -4960822.802        1630.000          37.000  
G10  20459235.146     6477911.505       -2877.000          37.000  
G16  17584478.918    -7383894.891        2847.000          43.000  
G25  20760806.416     6589968.264       -2962.000          37.000  
G26  16352137.693    -2768730.599         675.000          47.000  
G27  20931781.068    -6109667.096        4167.000          35.000  
G28  17795887.560     -515685.134         172.000          45.000  
G29  19402616.822     -475563.168        -409.000          41.000  
G31  17472239.768    -2288557.757         931.000          45.000  
G32  17171411.357      829593.764        -959.000          48.000  
> 2024 12 16  4  2 12.9860001  0 10                     
G 3  19617202.714    -4962453.104        1630.000          37.000  
G10  20459782.677     6480788.803       -2877.000          37.000  
G16  17583937.170    -7386741.801        2846.000          43.000  
G25  20761370.232     6592930.719       -2962.000          37.000  
G26  16352009.193    -2769405.871         675.000          47.000  
G27  20930988.059    -6113834.482        4167.000          35.000  
G28  17795854.711     -515857.768         172.000          45.000  
G29  19402694.888     -475152.983        -410.000          41.000  
G31  17472062.585    -2289488.755         931.000          45.000  
G32  17171594.047      830553.764        -959.000          48.000  
> 2024 12 16  4  2 13.9860001  0 10                     
G 3  19616892.573    -4964082.982        1629.000          37.000  
G10  20460330.151     6483665.811       -2877.000          37.000  
G16  17583395.478    -7389588.405        2846.000          43.000  
G25  20761933.477     6595892.889       -2962.000          37.000  
G26  16351880.751    -2770080.853         674.000          47.000  
G27  20930194.936    -6118002.200        4167.000          35.000  
G28  17795821.842     -516030.499         172.000          45.000  
G29  19402773.043     -474742.373        -410.000          41.000  
G31  17471885.392    -2290419.836         931.000          45.000  
G32  17171776.795      831514.096        -960.000          48.000  
> 2024 12 16  4  2 14.9860001  0 10                     
G 3  19616582.508    -4965712.455        1629.000          37.000  
G10  20460877.596     6486542.627       -2876.000          37.000  
G16  17582853.844    -7392434.681        2846.000          43.000  
G25  20762489.712     6598854.956       -2962.000          37.000  
G26  16351752.381    -2770755.461         674.000          47.000  
G27  20929401.759    -6122170.174        4167.000          35.000  
G28  17795788.961     -516203.297         172.000          45.000  
G29  19402851.280     -474331.349        -411.000          41.000  
G31  17471708.200    -2291350.954         931.000          46.000  
G32  17171959.619      832474.838        -960.000          48.000  
> 2024 12 16  4  2 15.9860001  0 10                     
G 3  19616272.604    -4967341.191        1628.000          37.000  
G10  20461425.031     6489419.372       -2876.000          37.000  
G16  17582312.323    -7395280.382        2845.000          42.000  
G25  20763058.859     6601817.010       -2962.000          36.000  
G26  16351624.121    -2771429.502         674.000          47.000  
G27  20928608.559    -6126338.208        4168.000          35.000  
G28  17795756.104     -516375.964         172.000          45.000  
G29  19402929.636     -473919.663        -411.000          41.000  
G31  17471531.034    -2292281.946         930.000          46.000  
G32  17172142.554      833436.171        -961.000          48.000  
> 2024 12 16  4  2 16.9860001  0 10                     
G 3  19615962.779    -4968969.484        1628.000          37.000  
G10  20461972.452     6492295.970       -2876.000          37.000  
G16  17581770.878    -7398125.688        2845.000          43.000  
G25  20763622.715     6604778.908       -2961.000          36.000  
G26  16351495.948    -2772103.092         673.000          47.000  
G27  20927815.298    -6130506.445        4168.000          35.000  
G28  17795723.249     -516548.614         172.000          45.000  
G29  19403008.081     -473507.490        -412.000          41.000  
G31  17471353.881    -2293212.881         930.000          45.000  
G32  17172325.586      834398.002        -961.000          48.000  
> 2024 12 16  4  2 17.9860001  0 10                     
G 3  19615653.011    -4970597.429        1627.000          37.000  
G10  20462519.801     6495172.201       -2876.000          37.000  
G16  17581229.488    -7400970.719        2845.000          43.000  
G25  20764186.462     6607740.555       -2961.000          36.000  
G26  16351367.825    -2772776.411         673.000          46.000  
G27  20927021.973    -6134675.043        4168.000          35.000  
G28  17795690.366     -516721.397         172.000          45.000  
G29  19403086.590     -473094.947        -412.000          41.000  
G31  17471176.705    -2294143.944         931.000          46.000  
G32  17172508.682      835360.149        -962.000          48.000  
> 2024 12 16  4  2 18.9860001  0 10                     
G 3  19615343.373    -4972224.684        1627.000          37.000  
G10  20463067.141     6498048.405       -2876.000          37.000  
G16  17580688.194    -7403815.256        2844.000          43.000  
G25  20764748.778     6610702.171       -2961.000          36.000  
G26  16351239.804    -2773449.193         672.000          46.000  
G27  20926228.622    -6138843.733        4168.000          35.000  
G28  17795657.500     -516894.075         172.000          45.000  
G29  19403165.213     -472681.810        -413.000          41.000  
G31  17470999.551    -2295074.887         930.000          45.000  
G32  17172691.890      836322.854        -962.000          48.000  
> 2024 12 16  4  2 19.9860001  0 10                     
G 3  19615033.805    -4973851.537        1626.000          37.000  
G10  20463614.433     6500924.379       -2875.000          37.000  
G16  17580146.977    -7406659.408        2844.000          43.000  
G25  20765312.987     6613663.620       -2961.000          36.000  
G26  16351111.853    -2774121.599         672.000          46.000  
G27  20925435.252    -6143012.698        4168.000          35.000  
G28  17795624.618     -517066.844         172.000          45.000  
G29  19403243.931     -472268.199        -413.000          41.000  
G31  17470822.394    -2296005.860         930.000          46.000  
G32  17172875.178      837285.973        -963.000          48.000  
> 2024 12 16  4  2 20.9860001  0 10                     
G 3  19614724.368    -4975477.669        1626.000          37.000  
G10  20464161.734     6503800.383       -2875.000          37.000  
G16  17579605.873    -7409502.963        2843.000          43.000  
G25  20765876.699     6616625.130       -2961.000          36.000  
G26  16350984.023    -2774793.387         671.000          46.000  
G27  20924641.892    -6147181.642        4168.000          35.000  
G28  17795591.786     -517239.382         172.000          45.000  
G29  19403322.782     -471853.886        -414.000          41.000  
G31  17470645.285    -2296936.603         930.000          46.000  
G32  17173058.594      838249.775        -963.000          48.000  
> 2024 12 16  4  2 21.9860001  0 10                     
G 3  19614415.016    -4977103.357        1625.000          37.000  
G10  20464708.968     6506676.114       -2875.000          37.000  
G16  17579064.839    -7412346.172        2843.000          43.000  
G25  20766438.979     6619586.442       -2961.000          36.000  
G26  16350856.268    -2775464.784         671.000          46.000  
G27  20923848.464    -6151350.867        4169.000          36.000  
G28  17795558.954     -517411.938         172.000          45.000  
G29  19403401.712     -471439.129        -414.000          41.000  
G31  17470468.172    -2297867.377         930.000          46.000  
G32  17173242.085      839214.008        -964.000          48.000  
> 2024 12 16  4  2 22.9860001  0 10                     
G 3  19614105.761    -4978728.573        1625.000          37.000  
G10  20465256.164     6509551.646       -2875.000          37.000  
G16  17578523.876    -7415189.012        2842.000          43.000  
G25  20767002.652     6622547.563       -2961.000          36.000  
G26  16350728.588    -2776135.801         671.000          47.000  
G27  20923055.034    -6155520.319        4169.000          35.000  
G28  17795526.112     -517584.568         172.000          45.000  
G29  19403480.727     -471023.929        -415.000          41.000  
G31  17470291.059    -2298798.155         930.000          46.000  
G32  17173425.648      840178.646        -964.000          48.000  
> 2024 12 16  4  2 23.9860001  0 10                     
G 3  19613796.600    -4980353.281        1624.000          37.000  
G10  20465803.323     6512427.015       -2875.000          37.000  
G16  17577982.983    -7418031.460        2842.000          43.000  
G25  20767565.683     6625508.518       -2960.000          36.000  
G26  16350600.986    -2776806.407         670.000          47.000  
G27  20922261.579    -6159689.987        4169.000          36.000  
G28  17795493.262     -517757.218         172.000          45.000  
G29  19403559.835     -470608.201        -415.000          41.000  
G31  17470113.941    -2299728.956         930.000          45.000  
G32  17173609.288      841143.722        -965.000          48.000  
> 2024 12 16  4  2 24.9860001  0 10                     
G 3  19613487.558    -4981977.389        1624.000          37.000  
G10  20466350.458     6515302.276       -2875.000          37.000  
G16  17577442.179    -7420873.414        2841.000          43.000  
G25  20768120.024     6628469.458       -2960.000          36.000  
G26  16350473.482    -2777476.494         670.000          46.000  
G27  20921468.106    -6163859.783        4169.000          36.000  
G28  17795460.428     -517929.751         172.000          45.000  
G29  19403639.047     -470191.918        -416.000          41.000  
G31  17469936.843    -2300659.627         930.000          46.000  
G32  17173793.031      842109.358        -965.000          48.000  
> 2024 12 16  4  2 25.9860001  0 10                     
G 3  19613178.612    -4983600.938        1623.000          37.000  
G10  20466897.563     6518177.413       -2875.000          37.000  
G16  17576901.462    -7423714.883        2841.000          43.000  
G25  20768692.391     6631430.374       -2960.000          36.000  
G26  16350346.071    -2778146.085         669.000          46.000  
G27  20920674.623    -6168029.703        4169.000          36.000  
G28  17795427.601     -518102.239         172.000          45.000  
G29  19403718.375     -469775.041        -416.000          41.000  
G31  17469759.755    -2301590.236         930.000          46.000  
G32  17173976.875      843075.524        -966.000          48.000  
> 2024 12 16  4  2 26.9860001  0 10                     
G 3  19612869.820    -4985223.686        1622.000          37.000  
G10  20467444.704     6521052.702       -2875.000          37.000  
G16  17576360.881    -7426555.620        2840.000          43.000  
G25  20769257.818     6634391.447       -2961.000          36.000  
G26  16350218.796    -2778814.943         668.000          46.000  
G27  20919881.162    -6172199.526        4169.000          36.000  
G28  17795394.829     -518274.411         172.000          45.000  
G29  19403797.865     -469357.343        -417.000          41.000  
G31  17469582.740    -2302520.462         930.000          46.000  
G32  17174160.873      844042.489        -966.000          48.000  
> 2024 12 16  4  2 27.9860001  0 10                     
G 3  19612561.156    -4986845.764        1622.000          37.000  
G10  20467991.813     6523927.852       -2875.000          37.000  
G16  17575820.394    -7429395.860        2840.000          43.000  
G25  20769821.351     6637352.479       -2961.000          37.000  
G26  16350091.616    -2779483.277         668.000          46.000  
G27  20919087.632    -6176369.471        4169.000          36.000  
G28  17795362.074     -518446.494         172.000          45.000  
G29  19403877.477     -468939.063        -418.000          41.000  
G31  17469405.735    -2303450.633         930.000          46.000  
G32  17174344.973      845009.986        -967.000          48.000  
> 2024 12 16  4  2 28.9860001  0 10                     
G 3  19612252.618    -4988467.229        1621.000          37.000  
G10  20468538.931     6526803.008       -2875.000          37.000  
G16  17575280.005    -7432235.579        2839.000          43.000  
G25  20770385.953     6640313.481       -2960.000          36.000  
G26  16349964.533    -2780151.071         667.000          46.000  
G27  20918294.096    -6180539.510        4170.000          35.000  
G28  17795329.338     -518618.452         171.000          45.000  
G29  19403957.214     -468520.135        -418.000          41.000  
G31  17469228.757    -2304380.631         930.000          46.000  
G32  17174529.185      845978.070        -968.000          48.000  
> 2024 12 16  4  2 29.9860001  0 10                     
G 3  19611944.198    -4990088.012        1620.000          37.000  
G10  20469086.058     6529678.167       -2875.000          37.000  
G16  17574739.723    -7435074.689        2839.000          43.000  
G25  20770945.228     6643274.597       -2961.000          36.000  
G26  16349837.575    -2780818.195         667.000          46.000  
G27  20917500.581    -6184709.556        4170.000          35.000  
G28  17795296.645     -518790.180         171.000          45.000  
G29  19404037.079     -468100.487        -419.000          40.000  
G31  17469051.827    -2305310.379         929.000          46.000  
G32  17174713.534      846946.859        -968.000          48.000  
> 2024 12 16  4  2 30.9860001  0 10                     
G 3  19611635.846    -4991708.396        1620.000          37.000  
G10  20469633.126     6532553.033       -2874.000          37.000  
G16  17574199.496    -7437913.480        2838.000          42.000  
G25  20771513.769     6646235.427       -2960.000          36.000  
G26  16349710.671    -2781485.032         666.000          46.000  
G27  20916706.967    -6188879.879        4170.000          35.000  
G28  17795263.927     -518962.034         171.000          45.000  
G29  19404117.007     -467680.468        -420.000          41.000  
G31  17468874.871    -2306240.231         929.000          46.000  
G32  17174897.948      847915.980        -969.000          48.000  
> 2024 12 16  4  2 31.9860001  0 10                     
G 3  19611327.646    -4993328.034        1619.000          37.000  
G10  20470180.209     6535427.959       -2874.000          37.000  
G16  17573659.389    -7440751.629        2838.000          42.000  
G25  20772077.228     6649196.393       -2960.000          36.000  
G26  16349583.896    -2782151.192         666.000          46.000  
G27  20915913.368    -6193050.188        4170.000          36.000  
G28  17795231.260     -519133.651         171.000          45.000  
G29  19404197.070     -467259.715        -420.000          41.000  
G31  17468697.953    -2307169.852         929.000          46.000  
G32  17175082.504      848885.818        -969.000          48.000  
> 2024 12 16  4  2 32.9860001  0 10                     
G 3  19611019.534    -4994947.299        1619.000          37.000  
G10  20470727.225     6538302.530       -2874.000          37.000  
G16  17573119.327    -7443589.539        2837.000          43.000  
G25  20772639.797     6652157.035       -2960.000          36.000  
G26  16349457.163    -2782817.115         665.000          46.000  
G27  20915119.673    -6197220.835        4170.000          35.000  
G28  17795198.561     -519305.456         171.000          45.000  
G29  19404277.202     -466838.591        -421.000          41.000  
G31  17468521.003    -2308099.623         929.000          46.000  
G32  17175267.120      849855.936        -970.000          48.000  
> 2024 12 16  4  2 33.9860001  0 10                     
G 3  19610711.553    -4996565.833        1618.000          37.000  
G10  20471274.266     6541177.209       -2874.000          37.000  
G16  17572579.400    -7446426.771        2837.000          43.000  
G25  20773201.358     6655117.804       -2960.000          36.000  
G26  16349330.564    -2783482.328         665.000          46.000  
G27  20914326.002    -6201391.471        4170.000          35.000  
G28  17795165.917     -519476.979         171.000          45.000  
G29  19404357.470     -466416.747        -421.000          41.000  
G31  17468344.111    -2309029.095         929.000          46.000  
G32  17175451.878      850826.779        -970.000          48.000  
> 2024 12 16  4  2 34.9860001  0 10                     
G 3  19610403.717    -4998183.529        1617.000          36.000  
G10  20471821.330     6544051.979       -2874.000          38.000  
G16  17572039.619    -7449263.295        2836.000          43.000  
G25  20773765.104     6658078.721       -2960.000          36.000  
G26  16349204.102    -2784146.797         664.000          46.000  
G27  20913532.305    -6205562.007        4170.000          35.000  
G28  17795133.334     -519648.177         171.000          45.000  
G29  19404437.903     -465994.024        -422.000          41.000  
G31  17468167.294    -2309958.189         929.000          45.000  
G32  17175636.792      851798.432        -971.000          48.000  
> 2024 12 16  4  2 35.9860001  0 10                     
G 3  19610096.109    -4999800.025        1616.000          36.000  
G10  20472368.488     6546927.265       -2875.000          38.000  
G16  17571500.048    -7452098.745        2835.000          43.000  
G25  20774330.282     6661040.225       -2961.000          37.000  
G26  16349077.845    -2784810.172         663.000          46.000  
G27  20912738.753    -6209732.041        4170.000          36.000  
G28  17795100.881     -519818.711         170.000          45.000  
G29  19404518.550     -465570.176        -423.000          41.000  
G31  17467990.602    -2310886.661         928.000          46.000  
G32  17175821.919      852771.193        -972.000          48.000  
> 2024 12 16  4  2 36.9860001  0 10                     
G 3  19609788.529    -5001416.389        1616.000          37.000  
G10  20472915.545     6549802.033       -2874.000          38.000  
G16  17570960.496    -7454934.107        2835.000          43.000  
G25  20774893.566     6664001.266       -2961.000          36.000  
G26  16348951.602    -2785473.482         663.000          46.000  
G27  20911945.084    -6213902.638        4170.000          35.000  
G28  17795068.361     -519989.599         170.000          45.000  
G29  19404599.236     -465146.163        -424.000          41.000  
G31  17467813.849    -2311815.445         928.000          45.000  
G32  17176007.070      853744.085        -972.000          48.000  
> 2024 12 16  4  2 37.9860001  0 10                     
G 3  19609480.993    -5003032.494        1616.000          36.000  
G10  20473462.509     6552676.352       -2874.000          38.000  
G16  17570420.963    -7457769.344        2835.000          43.000  
G25  20775458.600     6666961.938       -2960.000          36.000  
G26  16348825.391    -2786136.632         663.000          46.000  
G27  20911151.346    -6218073.711        4171.000          35.000  
G28  17795035.791     -520160.744         171.000          45.000  
G29  19404679.967     -464721.897        -424.000          41.000  
G31  17467637.051    -2312744.462         929.000          45.000  
G32  17176192.261      854717.172        -973.000          48.000  
> 2024 12 16  4  2 38.9860001  0 10                     
G 3  19609173.576    -5004647.987        1615.000          37.000  
G10  20474009.441     6555550.600       -2874.000          38.000  
G16  17569881.527    -7460604.072        2834.000          43.000  
G25  20776018.992     6669922.477       -2960.000          37.000  
G26  16348699.292    -2786799.197         662.000          46.000  
G27  20910357.624    -6222244.866        4171.000          36.000  
G28  17795003.244     -520331.768         171.000          45.000  
G29  19404760.814     -464297.025        -424.000          41.000  
G31  17467460.279    -2313673.329         928.000          45.000  
G32  17176377.565      855690.841        -973.000          48.000  
> 2024 12 16  4  2 39.9860001  0 10                     
G 3  19608866.355    -5006262.503        1614.000          37.000  
G10  20474556.419     6558425.106       -2874.000          38.000  
G16  17569342.263    -7463437.910        2833.000          43.000  
G25  20776582.479     6672883.407       -2960.000          36.000  
G26  16348573.362    -2787460.914         661.000          46.000  
G27  20909563.956    -6226415.781        4170.000          36.000  
G28  17794970.788     -520502.337         170.000          45.000  
G29  19404841.841     -463871.185        -425.000          40.000  
G31  17467283.592    -2314601.748         928.000          46.000  
G32  17176563.043      856665.430        -974.000          48.000  
> 2024 12 16  4  2 40.9860001  0 10                     
G 3  19608559.298    -5007876.174        1613.000          37.000  
G10  20475103.444     6561299.798       -2874.000          38.000  
G16  17568803.144    -7466271.021        2833.000          42.000  
G25  20777145.956     6675844.512       -2961.000          36.000  
G26  16348447.583    -2788121.867         660.000          46.000  
G27  20908770.303    -6230586.533        4170.000          36.000  
G28  17794938.398     -520672.582         170.000          45.000  
G29  19404923.020     -463444.514        -426.000          40.000  
G31  17467106.981    -2315529.774         928.000          46.000  
G32  17176748.675      857640.823        -975.000          48.000  
> 2024 12 16  4  2 41.9860001  0 10                     
G 3  19608252.305    -5009489.391        1613.000          36.000  
G10  20475650.434     6564174.263       -2874.000          38.000  
G16  17568264.099    -7469103.763        2832.000          43.000  
G25  20777709.440     6678805.473       -2960.000          36.000  
G26  16348321.881    -2788782.430         660.000          46.000  
G27  20907976.649    -6234757.560        4171.000          36.000  
G28  17794906.003     -520842.841         170.000          45.000  
G29  19405004.289     -463017.366        -427.000          40.000  
G31  17466930.364    -2316457.847         928.000          45.000  
G32  17176934.391      858616.650        -975.000          48.000  
> 2024 12 16  4  2 42.9860001  0 10                     
G 3  19607945.439    -5011101.868        1612.000          36.000  
G10  20476197.426     6567048.701       -2874.000          38.000  
G16  17567725.168    -7471935.931        2832.000          43.000  
G25  20778272.920     6681766.463       -2960.000          36.000  
G26  16348196.298    -2789442.395         659.000          46.000  
G27  20907182.957    -6238928.576        4171.000          36.000  
G28  17794873.636     -521012.954         170.000          45.000  
G29  19405085.690     -462589.552        -427.000          41.000  
G31  17466753.784    -2317385.729         927.000          46.000  
G32  17177120.223      859593.102        -976.000          48.000  
> 2024 12 16  4  2 43.9860001  0 10                     
G 3  19607638.673    -5012713.797        1611.000          36.000  
G10  20476744.405     6569923.102       -2874.000          38.000  
G16  17567186.336    -7474767.576        2831.000          43.000  
G25  20778836.396     6684727.422       -2960.000          36.000  
G26  16348070.817    -2790101.822         659.000          46.000  
G27  20906389.215    -6243099.784        4171.000          36.000  
G28  17794841.288     -521182.952         170.000          45.000  
G29  19405167.210     -462161.123        -428.000          41.000  
G31  17466577.233    -2318313.476         927.000          46.000  
G32  17177306.159      860570.126        -977.000          48.000  
> 2024 12 16  4  2 44.9860001  0 10                     
G 3  19607331.971    -5014325.271        1611.000          36.000  
G10  20477291.324     6572797.212       -2874.000          38.000  
G16  17566647.563    -7477598.915        2831.000          42.000  
G25  20779399.750     6687688.165       -2960.000          36.000  
G26  16347945.392    -2790760.908         659.000          46.000  
G27  20905595.437    -6247271.202        4171.000          36.000  
G28  17794808.921     -521353.024         170.000          45.000  
G29  19405248.817     -461732.273        -428.000          41.000  
G31  17466400.674    -2319241.269         927.000          46.000  
G32  17177492.163      861547.553        -977.000          48.000  
> 2024 12 16  4  2 45.9860001  0 10                     
G 3  19607025.343    -5015936.413        1611.000          36.000  
G10  20477838.171     6575670.973       -2873.000          37.000  
G16  17566108.839    -7480429.979        2831.000          42.000  
G25  20779963.063     6690648.628       -2960.000          35.000  
G26  16347820.010    -2791419.755         658.000          46.000  
G27  20904801.582    -6251443.013        4171.000          36.000  
G28  17794776.517     -521523.271         170.000          45.000  
G29  19405330.498     -461303.079        -429.000          41.000  
G31  17466224.082    -2320169.237         927.000          46.000  
G32  17177678.208      862525.234        -977.000          48.000  
> 2024 12 16  4  2 46.9860001  0 10                     
G 3  19606718.797    -5017547.180        1610.000          36.000  
G10  20478384.974     6578544.468       -2873.000          38.000  
G16  17565570.166    -7483260.757        2830.000          42.000  
G25  20780526.364     6693608.844       -2960.000          35.000  
G26  16347694.696    -2792078.237         658.000          46.000  
G27  20904007.679    -6255615.104        4172.000          36.000  
G28  17794744.086     -521693.637         170.000          45.000  
G29  19405412.256     -460873.514        -429.000          41.000  
G31  17466047.474    -2321097.280         928.000          46.000  
G32  17177864.318      863503.289        -978.000          48.000  
> 2024 12 16  4  2 47.9860001  0 10                     
G 3  19606412.440    -5019156.995        1609.000          36.000  
G10  20478931.820     6581418.128       -2873.000          38.000  
G16  17565031.631    -7486090.759        2830.000          42.000  
G25  20781089.703     6696569.306       -2960.000          35.000  
G26  16347569.531    -2792735.951         657.000          46.000  
G27  20903213.798    -6259787.076        4171.000          36.000  
G28  17794711.735     -521863.601         169.000          45.000  
G29  19405494.183     -460443.066        -430.000          41.000  
G31  17465870.942    -2322024.934         927.000          46.000  
G32  17178050.593      864482.219        -978.000          48.000  
> 2024 12 16  4  2 48.9860001  0 10                     
G 3  19606106.161    -5020766.404        1609.000          36.000  
G10  20479478.629     6584291.577       -2873.000          38.000  
G16  17564493.164    -7488920.416        2829.000          42.000  
G25  20781653.022     6699529.578       -2960.000          36.000  
G26  16347444.443    -2793393.285         657.000          46.000  
G27  20902419.876    -6263959.257        4172.000          36.000  
G28  17794679.375     -522033.625         170.000          45.000  
G29  19405576.199     -460012.127        -430.000          41.000  
G31  17465694.399    -2322952.626         927.000          46.000  
G32  17178236.940      865461.517        -979.000          48.000  
> 2024 12 16  4  2 49.9860001  0 10                     
G 3  19605799.985    -5022375.259        1608.000          36.000  
G10  20480025.412     6587164.857       -2873.000          38.000  
G16  17563954.789    -7491749.613        2829.000          42.000  
G25  20782216.340     6702489.721       -2960.000          36.000  
G26  16347319.434    -2794050.186         656.000          46.000  
G27  20901625.926    -6268131.645        4172.000          37.000  
G28  17794647.022     -522203.639         170.000          45.000  
G29  19405658.303     -459580.715        -431.000          41.000  
G31  17465517.866    -2323880.267         927.000          46.000  
G32  17178423.380      866441.302        -979.000          48.000  
> 2024 12 16  4  2 50.9860001  0 10                     
G 3  19605493.857    -5023983.886        1608.000          36.000  
G10  20480572.120     6590037.687       -2872.000          38.000  
G16  17563416.436    -7494578.658        2829.000          42.000  
G25  20782779.579     6705449.512       -2959.000          36.000  
G26  16347194.463    -2794706.880         656.000          46.000  
G27  20900831.892    -6272304.489        4172.000          36.000  
G28  17794614.626     -522373.872         170.000          45.000  
G29  19405740.453     -459149.034        -431.000          41.000  
G31  17465341.297    -2324808.109         927.000          46.000  
G32  17178609.871      867421.354        -980.000          48.000  
> 2024 12 16  4  2 51.9860001  0 10                     
G 3  19605187.838    -5025591.936        1608.000          36.000  
G10  20481118.793     6592910.396       -2872.000          37.000  
G16  17562878.158    -7497407.278        2828.000          42.000  
G25  20783342.788     6708409.124       -2959.000          36.000  
G26  16347069.577    -2795363.113         656.000          46.000  
G27  20900037.832    -6276477.476        4172.000          36.000  
G28  17794582.235     -522544.081         170.000          45.000  
G29  19405822.708     -458716.809        -432.000          41.000  
G31  17465164.737    -2325735.917         927.000          46.000  
G32  17178796.451      868401.873        -980.000          48.000  
> 2024 12 16  4  2 52.9860001  0 10                     
G 3  19604881.983    -5027199.225        1607.000          36.000  
G10  20481665.480     6595783.200       -2872.000          38.000  
G16  17562340.010    -7500235.215        2827.000          42.000  
G25  20783906.041     6711368.897       -2959.000          36.000  
G26  16346944.819    -2796018.662         655.000          46.000  
G27  20899243.782    -6280650.438        4172.000          36.000  
G28  17794549.898     -522714.043         169.000          45.000  
G29  19405905.105     -458283.824        -432.000          40.000  
G31  17464988.234    -2326663.426         927.000          45.000  
G32  17178983.174      869383.125        -981.000          48.000  
> 2024 12 16  4  2 53.9860001  0 10                     
G 3  19604576.221    -5028805.903        1606.000          36.000  
G10  20482212.147     6598655.861       -2872.000          38.000  
G16  17561801.955    -7503062.650        2827.000          42.000  
G25  20784469.303     6714328.684       -2959.000          36.000  
G26  16346820.158    -2796673.706         655.000          46.000  
G27  20898449.702    -6284823.505        4173.000          36.000  
G28  17794517.580     -522883.902         169.000          45.000  
G29  19405987.611     -457850.227        -433.000          41.000  
G31  17464811.740    -2327590.862         927.000          46.000  
G32  17179169.997      870364.917        -981.000          48.000  
> 2024 12 16  4  2 54.9860001  0 10                     
G 3  19604270.488    -5030412.351        1606.000          36.000  
G10  20482758.734     6601528.111       -2872.000          37.000  
G16  17561263.928    -7505889.923        2827.000          42.000  
G25  20785032.487     6717288.048       -2959.000          36.000  
G26  16346695.536    -2797328.565         654.000          46.000  
G27  20897655.535    -6288996.990        4173.000          36.000  
G28  17794485.222     -523053.998         170.000          45.000  
G29  19406070.165     -457416.402        -433.000          41.000  
G31  17464635.208    -2328518.497         927.000          45.000  
G32  17179356.873      871346.963        -982.000          48.000  
> 2024 12 16  4  2 55.9860001  0 10                     
G 3  19603964.840    -5032018.368        1606.000          36.000  
G10  20483305.267     6604400.128       -2872.000          38.000  
G16  17560725.972    -7508716.842        2826.000          42.000  
G25  20785595.617     6720247.194       -2959.000          36.000  
G26  16346570.982    -2797983.058         654.000          46.000  
G27  20896861.287    -6293170.789        4173.000          36.000  
G28  17794452.853     -523224.160         170.000          45.000  
G29  19406152.807     -456982.113        -434.000          41.000  
G31  17464458.665    -2329446.192         927.000          45.000  
G32  17179543.821      872329.374        -982.000          48.000  
> 2024 12 16  4  2 56.9860001  0 10                     
G 3  19603659.329    -5033623.720        1605.000          36.000  
G10  20483851.780     6607272.072       -2871.000          37.000  
G16  17560188.102    -7511543.296        2826.000          42.000  
G25  20786158.735     6723206.326       -2959.000          36.000  
G26  16346446.523    -2798637.031         653.000          46.000  
G27  20896066.989    -6297344.693        4173.000          36.000  
G28  17794420.508     -523394.231         170.000          45.000  
G29  19406235.555     -456547.270        -434.000          41.000  
G31  17464282.146    -2330373.764         927.000          45.000  
G32  17179730.879      873312.357        -982.000          48.000  
> 2024 12 16  4  2 57.9860001  0 10                     
G 3  19603353.969    -5035228.280        1604.000          36.000  
G10  20484398.316     6610144.141       -2872.000          37.000  
G16  17559650.375    -7514368.988        2825.000          42.000  
G25  20786721.882     6726165.638       -2959.000          36.000  
G26  16346322.198    -2799290.308         653.000          46.000  
G27  20895272.741    -6301518.474        4173.000          36.000  
G28  17794388.220     -523564.000         169.000          45.000  
G29  19406318.474     -456111.542        -435.000          41.000  
G31  17464105.687    -2331301.018         927.000          46.000  
G32  17179918.078      874296.102        -983.000          48.000  
> 2024 12 16  4  2 58.9860001  0 10                     
G 3  19603048.675    -5036832.465        1604.000          36.000  
G10  20484944.790     6613015.924       -2871.000          37.000  
G16  17559112.707    -7517194.373        2825.000          42.000  
G25  20787284.994     6729124.693       -2959.000          36.000  
G26  16346197.944    -2799943.207         652.000          46.000  
G27  20894478.431    -6305692.555        4174.000          36.000  
G28  17794355.911     -523733.868         169.000          45.000  
G29  19406401.468     -455675.469        -436.000          41.000  
G31  17463929.217    -2332228.338         927.000          46.000  
G32  17180105.348      875280.238        -984.000          48.000  
> 2024 12 16  4  2 59.9860001  0 10                     
G 3  19602743.484    -5038436.168        1603.000          36.000  
G10  20485491.205     6615887.459       -2871.000          37.000  
G16  17558575.105    -7520019.411        2825.000          42.000  
G25  20787848.068     6732083.543       -2958.000          36.000  
G26  16346073.759    -2800595.758         652.000          47.000  
G27  20893684.067    -6309866.926        4174.000          36.000  
G28  17794323.590     -523903.784         169.000          45.000  
G29  19406484.540     -455238.975        -436.000          41.000  
G31  17463752.738    -2333155.702         927.000          46.000  
G32  17180292.687      876264.746        -984.000          48.000  
> 2024 12 16  4  3  0.9860001  0 10                     
G 3  19602438.486    -5040038.942        1602.000          36.000  
G10  20486037.661     6618759.186       -2871.000          37.000  
G16  17558037.652    -7522843.681        2824.000          42.000  
G25  20788411.188     6735042.654       -2959.000          36.000  
G26  16345949.730    -2801247.505         651.000          47.000  
G27  20892889.761    -6314041.034        4174.000          36.000  
G28  17794291.337     -524073.323         169.000          45.000  
G29  19406567.788     -454801.559        -437.000          41.000  
G31  17463576.335    -2334082.667         926.000          45.000  
G32  17180480.192      877250.136        -985.000          48.000  
> 2024 12 16  4  3  1.9860001  0 10                     
G 3  19602133.537    -5041641.477        1602.000          36.000  
G10  20486584.060     6621630.530       -2871.000          37.000  
G16  17557500.244    -7525667.723        2824.000          42.000  
G25  20788974.247     6738001.426       -2958.000          36.000  
G26  16345825.752    -2801899.023         651.000          47.000  
G27  20892095.295    -6318215.638        4174.000          36.000  
G28  17794259.048     -524243.070         169.000          45.000  
G29  19406651.083     -454363.833        -437.000          41.000  
G31  17463399.894    -2335009.807         927.000          45.000  
G32  17180667.742      878235.768        -985.000          48.000  
> 2024 12 16  4  3  2.9860001  0 10                     
G 3  19601828.697    -5043243.449        1601.000          36.000  
G10  20487130.436     6624501.709       -2871.000          38.000  
G16  17556962.911    -7528491.344        2823.000          42.000  
G25  20789537.281     6740960.103       -2958.000          37.000  
G26  16345701.859    -2802550.108         651.000          47.000  
G27  20891300.878    -6322390.388        4174.000          36.000  
G28  17794226.769     -524412.765         169.000          45.000  
G29  19406734.479     -453925.577        -438.000          41.000  
G31  17463223.462    -2335936.904         927.000          46.000  
G32  17180855.389      879221.903        -986.000          48.000  
> 2024 12 16  4  3  3.9860001  0 10                     
G 3  19601523.904    -5044845.099        1601.000          36.000  
G10  20487676.752     6627372.555       -2870.000          38.000  
G16  17556425.621    -7531314.711        2823.000          42.000  
G25  20790100.254     6743918.483       -2958.000          37.000  
G26  16345578.018    -2803200.924         650.000          47.000  
G27  20890506.397    -6326565.545        4175.000          37.000  
G28  17794194.449     -524582.674         169.000          45.000  
G29  19406817.931     -453487.007        -438.000          41.000  
G31  17463047.001    -2336864.158         927.000          46.000  
G32  17181043.091      880208.315        -986.000          48.000  
> 2024 12 16  4  3  4.9860001  0 10                     
G 3  19601219.216    -5046446.167        1601.000          36.000  
G10  20488223.036     6630243.243       -2870.000          38.000  
G16  17555888.418    -7534137.645        2822.000          42.000  
G25  20790663.205     6746876.727       -2958.000          36.000  
G26  16345454.268    -2803851.267         650.000          47.000  
G27  20889711.897    -6330740.828        4175.000          37.000  
G28  17794162.141     -524752.508         169.000          45.000  
G29  19406901.490     -453047.899        -439.000          41.000  
G31  17462870.555    -2337791.358         927.000          46.000  
G32  17181230.887      881195.240        -986.000          48.000  
> 2024 12 16  4  3  5.9860001  0 10                     
G 3  19600914.616    -5048046.740        1600.000          36.000  
G10  20488769.286     6633113.745       -2870.000          38.000  
G16  17555351.301    -7536960.137        2822.000          42.000  
G25  20791226.137     6749834.849       -2958.000          37.000  
G26  16345330.602    -2804501.179         649.000          47.000  
G27  20888917.378    -6334916.270        4175.000          37.000  
G28  17794129.826     -524922.349         169.000          45.000  
G29  19406985.151     -452608.259        -439.000          40.000  
G31  17462694.124    -2338718.489         927.000          46.000  
G32  17181418.773      882182.623        -987.000          48.000  
> 2024 12 16  4  3  6.9860001  0 10                     
G 3  19600610.151    -5049646.581        1599.000          36.000  
G10  20489315.548     6635984.315       -2870.000          38.000  
G16  17554814.309    -7539781.996        2821.000          42.000  
G25  20791789.093     6752793.084       -2958.000          36.000  
G26  16345207.060    -2805150.452         649.000          47.000  
G27  20888122.865    -6339091.725        4175.000          36.000  
G28  17794097.553     -525091.970         169.000          45.000  
G29  19407068.952     -452167.889        -440.000          40.000  
G31  17462517.729    -2339645.424         926.000          45.000  
G32  17181606.793      883170.712        -988.000          48.000  
> 2024 12 16  4  3  7.9860001  0 10                     
G 3  19600305.805    -5051245.780        1599.000          36.000  
G10  20489861.807     6638854.799       -2870.000          38.000  
G16  17554277.418    -7542603.339        2821.000          42.000  
G25  20792352.045     6755751.321       -2958.000          36.000  
G26  16345083.627    -2805799.158         648.000          47.000  
G27  20887328.333    -6343267.219        4175.000          36.000  
G28  17794065.307     -525261.438         169.000          45.000  
G29  19407152.854     -451726.951        -440.000          40.000  
G31  17462341.362    -2340572.198         926.000          45.000  
G32  17181794.924      884159.381        -988.000          48.000  
> 2024 12 16  4  3  8.9860001  0 10                     
G 3  19600001.476    -5052844.559        1598.000          36.000  
G10  20490408.027     6641725.082       -2870.000          38.000  
G16  17553740.602    -7545424.330        2820.000          42.000  
G25  20792914.949     6758709.314       -2957.000          36.000  
G26  16344960.258    -2806447.525         648.000          47.000  
G27  20886533.736    -6347443.038        4175.000          36.000  
G28  17794033.052     -525430.970         169.000          45.000  
G29  19407236.855     -451285.503        -441.000          41.000  
G31  17462164.985    -2341498.998         926.000          45.000  
G32  17181983.128      885148.459        -989.000          48.000  
> 2024 12 16  4  3  9.9860001  0 10                     
G 3  19599697.325    -5054442.509        1597.000          36.000  
G10  20490954.262     6644595.457       -2870.000          38.000  
G16  17553203.922    -7548244.604        2820.000          42.000  
G25  20793477.903     6761667.511       -2958.000          36.000  
G26  16344837.029    -2807095.156         647.000          47.000  
G27  20885739.148    -6351618.768        4175.000          36.000  
G28  17794000.852     -525600.221         169.000          45.000  
G29  19407321.008     -450843.302        -442.000          41.000  
G31  17461988.670    -2342425.475         926.000          46.000  
G32  17182171.479      886138.320        -989.000          48.000  
> 2024 12 16  4  3 10.9860001  0 10                     
G 3  19599393.285    -5056039.969        1597.000          36.000  
G10  20491500.452     6647465.599       -2870.000          38.000  
G16  17552667.313    -7551064.516        2819.000          42.000  
G25  20794040.810     6764625.514       -2957.000          36.000  
G26  16344713.872    -2807742.406         647.000          47.000  
G27  20884944.515    -6355794.699        4175.000          36.000  
G28  17793968.647     -525769.492         169.000          45.000  
G29  19407405.265     -450400.604        -442.000          41.000  
G31  17461812.350    -2343351.983         926.000          45.000  
G32  17182359.907      887128.574        -990.000          48.000  
> 2024 12 16  4  3 11.9860001  0 10                     
G 3  19599089.373    -5057636.829        1596.000          37.000  
G10  20492046.623     6650335.664       -2870.000          38.000  
G16  17552130.803    -7553883.916        2819.000          42.000  
G25  20794603.711     6767583.481       -2957.000          36.000  
G26  16344590.820    -2808389.104         646.000          47.000  
G27  20884149.847    -6359970.737        4176.000          36.000  
G28  17793936.455     -525938.672         169.000          45.000  
G29  19407489.645     -449957.339        -443.000          41.000  
G31  17461636.050    -2344278.363         926.000          45.000  
G32  17182548.449      888119.410        -990.000          48.000  
> 2024 12 16  4  3 12.9860001  0 10                     
G 3  19598785.528    -5059233.333        1596.000          37.000  
G10  20492592.724     6653205.399       -2869.000          38.000  
G16  17551594.339    -7556703.063        2819.000          42.000  
G25  20795166.569     6770541.216       -2957.000          36.000  
G26  16344467.818    -2809035.532         646.000          47.000  
G27  20883355.096    -6364147.110        4176.000          36.000  
G28  17793904.238     -526107.979         169.000          45.000  
G29  19407574.106     -449513.671        -443.000          41.000  
G31  17461459.728    -2345204.853         926.000          45.000  
G32  17182737.061      889110.601        -991.000          48.000  
> 2024 12 16  4  3 13.9860001  0 10                     
G 3  19598481.803    -5060829.280        1595.000          37.000  
G10  20493138.797     6656074.965       -2869.000          38.000  
G16  17551057.954    -7559521.771        2818.000          42.000  
G25  20795729.393     6773498.808       -2957.000          36.000  
G26  16344344.895    -2809681.526         645.000          47.000  
G27  20882560.311    -6368323.666        4176.000          36.000  
G28  17793872.027     -526277.274         169.000          45.000  
G29  19407658.661     -449069.492        -444.000          41.000  
G31  17461283.412    -2346131.330         926.000          46.000  
G32  17182925.761      890102.236        -991.000          48.000  
> 2024 12 16  4  3 14.9860001  0 10                     
G 3  19598178.232    -5062424.531        1595.000          37.000  
G10  20493684.876     6658944.576       -2869.000          38.000  
G16  17550521.700    -7562339.822        2818.000          42.000  
G25  20796292.225     6776456.468       -2957.000          36.000  
G26  16344222.097    -2810326.855         645.000          47.000  
G27  20881765.523    -6372500.219        4176.000          36.000  
G28  17793839.862     -526446.342         169.000          45.000  
G29  19407743.349     -448624.626        -444.000          41.000  
G31  17461107.150    -2347057.555         926.000          45.000  
G32  17183114.593      891094.561        -992.000          48.000  
> 2024 12 16  4  3 15.9860001  0 10                     
G 3  19597874.754    -5064019.321        1594.000          37.000  
G10  20494230.919     6661813.973       -2869.000          38.000  
G16  17549985.511    -7565157.555        2817.000          42.000  
G25  20796855.025     6779413.896       -2957.000          36.000  
G26  16344099.362    -2810971.841         644.000          47.000  
G27  20880970.666    -6376677.042        4176.000          36.000  
G28  17793807.684     -526615.486         169.000          45.000  
G29  19407828.113     -448179.287        -445.000          41.000  
G31  17460930.886    -2347983.814         926.000          46.000  
G32  17183303.500      892087.286        -992.000          48.000  
> 2024 12 16  4  3 16.9860001  0 10                     
G 3  19597571.380    -5065613.561        1594.000          37.000  
G10  20494776.932     6664683.179       -2869.000          39.000  
G16  17549449.406    -7567974.848        2817.000          42.000  
G25  20797417.831     6782371.306       -2957.000          37.000  
G26  16343976.717    -2811616.349         644.000          47.000  
G27  20880175.779    -6380854.014        4176.000          36.000  
G28  17793775.516     -526784.572         169.000          45.000  
G29  19407912.962     -447733.439        -445.000          41.000  
G31  17460754.630    -2348910.028         926.000          45.000  
G32  17183492.499      893080.525        -993.000          48.000  
> 2024 12 16  4  3 17.9860001  0 10                     
G 3  19597268.091    -5067207.320        1593.000          37.000  
G10  20495322.907     6667552.179       -2868.000          38.000  
G16  17548913.375    -7570791.739        2816.000          42.000  
G25  20797980.617     6785328.549       -2957.000          37.000  
G26  16343854.152    -2812260.455         644.000          47.000  
G27  20879380.861    -6385031.192        4177.000          36.000  
G28  17793743.340     -526953.688         169.000          45.000  
G29  19407997.906     -447287.082        -446.000          41.000  
G31  17460578.370    -2349836.242         926.000          45.000  
G32  17183681.587      894074.224        -993.000          48.000  
> 2024 12 16  4  3 18.9860001  0 10                     
G 3  19596965.053    -5068799.813        1592.000          37.000  
G10  20495868.989     6670421.746       -2869.000          38.000  
G16  17548377.562    -7573607.487        2815.000          42.000  
G25  20798543.509     6788286.329       -2957.000          37.000  
G26  16343731.803    -2812903.425         642.000          47.000  
G27  20878586.042    -6389207.851        4176.000          36.000  
G28  17793711.300     -527122.075         168.000          45.000  
G29  19408083.073     -446839.497        -447.000          41.000  
G31  17460402.254    -2350761.710         925.000          45.000  
G32  17183870.900      895069.088        -994.000          48.000  
> 2024 12 16  4  3 19.9860001  0 10                     
G 3  19596662.131    -5070391.657        1591.000          37.000  
G10  20496415.070     6673291.292       -2869.000          38.000  
G16  17547841.859    -7576422.657        2815.000          42.000  
G25  20799106.414     6791244.139       -2957.000          38.000  
G26  16343609.570    -2813545.784         642.000          47.000  
G27  20877791.227    -6393384.564        4176.000          37.000  
G28  17793679.286     -527290.293         168.000          44.000  
G29  19408168.359     -446391.240        -448.000          41.000  
G31  17460226.174    -2351686.992         925.000          45.000  
G32  17184060.337      896064.583        -995.000          48.000  
> 2024 12 16  4  3 20.9860001  0 10                     
G 3  19596359.202    -5071983.491        1591.000          37.000  
G10  20496961.023     6676160.151       -2868.000          38.000  
G16  17547306.129    -7579237.947        2815.000          42.000  
G25  20799669.204     6794201.331       -2957.000          37.000  
G26  16343487.322    -2814188.225         642.000          47.000  
G27  20876996.284    -6397561.963        4177.000          36.000  
G28  17793647.170     -527459.009         168.000          44.000  
G29  19408253.636     -445942.984        -448.000          40.000  
G31  17460050.006    -2352612.761         925.000          45.000  
G32  17184249.772      897060.045        -995.000          48.000  
> 2024 12 16  4  3 21.9860001  0 10                     
G 3  19596056.429    -5073574.530        1591.000          37.000  
G10  20497506.996     6679029.134       -2868.000          38.000  
G16  17546770.538    -7582052.483        2814.000          42.000  
G25  20800232.025     6797158.717       -2957.000          37.000  
G26  16343365.217    -2814829.904         641.000          46.000  
G27  20876201.365    -6401739.261        4177.000          37.000  
G28  17793615.114     -527627.406         168.000          44.000  
G29  19408339.059     -445493.912        -449.000          40.000  
G31  17459873.909    -2353538.172         925.000          45.000  
G32  17184439.360      898056.295        -996.000          48.000  
> 2024 12 16  4  3 22.9860001  0 10                     
G 3  19595753.813    -5075164.836        1590.000          37.000  
G10  20498052.965     6681898.109       -2868.000          38.000  
G16  17546235.048    -7584866.442        2813.000          42.000  
G25  20800794.848     6800116.137       -2957.000          37.000  
G26  16343243.217    -2815471.008         641.000          47.000  
G27  20875406.463    -6405916.542        4177.000          37.000  
G28  17793583.099     -527795.604         168.000          44.000  
G29  19408424.608     -445044.170        -449.000          40.000  
G31  17459697.855    -2354463.386         925.000          46.000  
G32  17184629.071      899053.194        -996.000          48.000  
> 2024 12 16  4  3 23.9860001  0 10                     
G 3  19595451.314    -5076754.573        1589.000          37.000  
G10  20498598.918     6684766.998       -2868.000          38.000  
G16  17545699.650    -7587679.896        2813.000          42.000  
G25  20801357.656     6803073.516       -2957.000          37.000  
G26  16343121.314    -2816111.608         640.000          46.000  
G27  20874611.525    -6410094.015        4177.000          37.000  
G28  17793551.091     -527963.742         168.000          45.000  
G29  19408510.277     -444593.830        -450.000          40.000  
G31  17459521.819    -2355388.517         925.000          46.000  
G32  17184818.881      900050.617        -997.000          48.000  
> 2024 12 16  4  3 24.9860001  0 10                     
G 3  19595148.906    -5078343.771        1589.000          37.000  
G10  20499144.823     6687635.702       -2868.000          38.000  
G16  17545164.323    -7590492.944        2813.000          42.000  
G25  20801920.441     6806030.771       -2957.000          37.000  
G26  16342999.499    -2816751.745         640.000          47.000  
G27  20873816.573    -6414271.606        4177.000          36.000  
G28  17793519.085     -528131.882         168.000          45.000  
G29  19408596.036     -444142.984        -450.000          40.000  
G31  17459345.795    -2356313.589         925.000          46.000  
G32  17185008.785      901048.543        -997.000          48.000  
> 2024 12 16  4  3 25.9860001  0 10                     
G 3  19594846.586    -5079932.505        1588.000          37.000  
G10  20499690.677     6690504.150       -2868.000          38.000  
G16  17544629.058    -7593305.643        2812.000          42.000  
G25  20802483.170     6808987.784       -2957.000          37.000  
G26  16342877.750    -2817391.531         639.000          47.000  
G27  20873021.583    -6418449.470        4177.000          37.000  
G28  17793487.080     -528300.060         168.000          45.000  
G29  19408681.892     -443691.670        -451.000          40.000  
G31  17459169.759    -2357238.729         925.000          46.000  
G32  17185198.758      902046.859        -998.000          48.000  
> 2024 12 16  4  3 26.9860001  0 10                     
G 3  19594544.393    -5081520.579        1588.000          37.000  
G10  20500236.530     6693372.633       -2868.000          38.000  
G16  17544093.913    -7596117.729        2812.000          42.000  
G25  20803045.896     6811944.891       -2957.000          36.000  
G26  16342756.121    -2818030.707         639.000          47.000  
G27  20872226.585    -6422627.379        4177.000          36.000  
G28  17793455.116     -528468.025         167.000          45.000  
G29  19408767.891     -443239.676        -451.000          41.000  
G31  17458993.773    -2358163.637         924.000          46.000  
G32  17185388.855      903045.845        -998.000          48.000  
> 2024 12 16  4  3 27.9860001  0 10                     
G 3  19594242.296    -5083108.197        1587.000          37.000  
G10  20500782.330     6696240.812       -2868.000          38.000  
G16  17543558.823    -7598929.520        2811.000          42.000  
G25  20803608.577     6814901.756       -2956.000          36.000  
G26  16342634.554    -2818669.580         638.000          46.000  
G27  20871431.538    -6426805.557        4178.000          36.000  
G28  17793423.120     -528636.143         168.000          45.000  
G29  19408853.979     -442787.305        -452.000          41.000  
G31  17458817.764    -2359088.654         925.000          46.000  
G32  17185579.009      904045.147        -999.000          48.000  
> 2024 12 16  4  3 28.9860001  0 10                     
G 3  19593940.275    -5084695.429        1587.000          37.000  
G10  20501328.080     6699108.730       -2867.000          38.000  
G16  17543023.799    -7601740.934        2811.000          42.000  
G25  20804171.221     6817858.384       -2956.000          36.000  
G26  16342513.061    -2819308.048         638.000          47.000  
G27  20870636.439    -6430984.021        4178.000          36.000  
G28  17793391.121     -528804.276         168.000          45.000  
G29  19408940.162     -442334.472        -452.000          41.000  
G31  17458641.751    -2360013.709         925.000          46.000  
G32  17185769.247      905044.904        -999.000          48.000  
> 2024 12 16  4  3 29.9860001  0 10                     
G 3  19593638.366    -5086282.008        1586.000          37.000  
G10  20501873.819     6701976.599       -2867.000          38.000  
G16  17542488.869    -7604551.858        2810.000          42.000  
G25  20804733.872     6820815.046       -2956.000          37.000  
G26  16342391.664    -2819946.008         637.000          47.000  
G27  20869841.321    -6435162.557        4178.000          36.000  
G28  17793359.138     -528972.327         168.000          44.000  
G29  19409026.465     -441881.038        -453.000          41.000  
G31  17458465.762    -2360938.623         924.000          46.000  
G32  17185959.591      906045.226       -1000.000          48.000  
> 2024 12 16  4  3 30.9860001  0 10                     
G 3  19593336.574    -5087867.971        1585.000          37.000  
G10  20502419.540     6704844.403       -2867.000          38.000  
G16  17541954.047    -7607362.211        2810.000          42.000  
G25  20805296.531     6823771.668       -2956.000          37.000  
G26  16342270.375    -2820583.412         637.000          46.000  
G27  20869046.172    -6439341.197        4178.000          36.000  
G28  17793327.187     -529140.213         167.000          44.000  
G29  19409112.889     -441426.971        -454.000          41.000  
G31  17458289.802    -2361863.374         924.000          46.000  
G32  17186150.045      907046.130       -1000.000          48.000  
> 2024 12 16  4  3 31.9860001  0 10                     
G 3  19593034.979    -5089452.954        1584.000          37.000  
G10  20502965.306     6707712.465       -2868.000          38.000  
G16  17541419.387    -7610171.741        2809.000          42.000  
G25  20805859.262     6826728.638       -2956.000          36.000  
G26  16342149.255    -2821219.944         636.000          46.000  
G27  20868251.086    -6443519.498        4178.000          36.000  
G28  17793295.321     -529307.658         167.000          45.000  
G29  19409199.491     -440971.925        -455.000          41.000  
G31  17458113.922    -2362787.689         924.000          45.000  
G32  17186340.675      908047.941       -1001.000          48.000  
> 2024 12 16  4  3 32.9860001  0 10                     
G 3  19592733.511    -5091037.331        1584.000          37.000  
G10  20503511.056     6710580.478       -2868.000          38.000  
G16  17540884.838    -7612980.727        2808.000          42.000  
G25  20806421.975     6829685.504       -2956.000          36.000  
G26  16342028.246    -2821855.930         635.000          46.000  
G27  20867455.969    -6447698.001        4178.000          37.000  
G28  17793263.474     -529475.001         167.000          45.000  
G29  19409286.196     -440516.274        -455.000          41.000  
G31  17457938.070    -2363711.836         924.000          45.000  
G32  17186531.418      909050.353       -1002.000          48.000  
> 2024 12 16  4  3 33.9860001  0 10                     
G 3  19592432.128    -5092621.214        1583.000          37.000  
G10  20504056.755     6713448.199       -2867.000          38.000  
G16  17540350.357    -7615789.381        2808.000          42.000  
G25  20806984.651     6832642.220       -2956.000          36.000  
G26  16341907.309    -2822491.560         635.000          46.000  
G27  20866660.813    -6451876.695        4178.000          37.000  
G28  17793231.614     -529642.428         167.000          45.000  
G29  19409372.981     -440060.201        -456.000          41.000  
G31  17457762.200    -2364636.063         924.000          45.000  
G32  17186722.230      910053.134       -1002.000          48.000  
> 2024 12 16  4  3 34.9860001  0 10                     
G 3  19592130.768    -5094204.903        1583.000          38.000  
G10  20504602.375     6716315.488       -2867.000          38.000  
G16  17539815.910    -7618597.881        2808.000          43.000  
G25  20807547.247     6835598.500       -2956.000          36.000  
G26  16341786.394    -2823127.045         635.000          46.000  
G27  20865865.555    -6456055.879        4179.000          37.000  
G28  17793199.708     -529810.093         167.000          44.000  
G29  19409459.804     -439603.890        -456.000          40.000  
G31  17457586.281    -2365560.536         924.000          45.000  
G32  17186913.077      911056.117       -1002.000          48.000  
> 2024 12 16  4  3 35.9860001  0 10                     
G 3  19591829.590    -5095787.645        1582.000          38.000  
G10  20505148.045     6719183.026       -2867.000          38.000  
G16  17539281.626    -7621405.545        2807.000          43.000  
G25  20808109.894     6838555.122       -2956.000          36.000  
G26  16341665.642    -2823761.634         634.000          46.000  
G27  20865070.328    -6460234.841        4178.000          37.000  
G28  17793167.875     -529977.336         167.000          45.000  
G29  19409546.800     -439146.630        -457.000          40.000  
G31  17457410.453    -2366484.540         924.000          45.000  
G32  17187104.098      912060.022       -1003.000          48.000  
> 2024 12 16  4  3 36.9860001  0 10                     
G 3  19591528.528    -5097369.817        1582.000          38.000  
G10  20505693.693     6722050.456       -2867.000          38.000  
G16  17538747.438    -7624212.730        2807.000          43.000  
G25  20808672.525     6841511.650       -2956.000          36.000  
G26  16341544.970    -2824395.773         634.000          46.000  
G27  20864275.079    -6464413.922        4179.000          36.000  
G28  17793136.053     -530144.493         167.000          44.000  
G29  19409633.904     -438688.781        -457.000          40.000  
G31  17457234.644    -2367408.456         923.000          45.000  
G32  17187295.222      913064.438       -1004.000          48.000  
> 2024 12 16  4  3 37.9860001  0 10                     
G 3  19591227.527    -5098951.650        1581.000          38.000  
G10  20506239.267     6724917.477       -2867.000          38.000  
G16  17538213.293    -7627019.712        2806.000          43.000  
G25  20809235.094     6844467.869       -2956.000          36.000  
G26  16341424.338    -2825029.671         633.000          46.000  
G27  20863479.751    -6468593.429        4179.000          37.000  
G28  17793104.192     -530311.857         167.000          44.000  
G29  19409721.056     -438230.652        -458.000          40.000  
G31  17457058.801    -2368332.547         924.000          45.000  
G32  17187486.400      914069.127       -1004.000          48.000  
> 2024 12 16  4  3 38.9860001  0 10                     
G 3  19590926.611    -5100532.993        1581.000          37.000  
G10  20506784.813     6727784.316       -2866.000          38.000  
G16  17537679.224    -7629826.297        2806.000          43.000  
G25  20809797.623     6847423.901       -2956.000          36.000  
G26  16341303.776    -2825663.170         633.000          46.000  
G27  20862684.389    -6472773.115        4179.000          37.000  
G28  17793072.325     -530479.247         167.000          45.000  
G29  19409808.301     -437772.043        -458.000          40.000  
G31  17456882.953    -2369256.638         924.000          45.000  
G32  17187677.669      915074.271       -1005.000          48.000  
> 2024 12 16  4  3 39.9860001  0 10                     
G 3  19590625.828    -5102113.696        1580.000          38.000  
G10  20507330.345     6730651.114       -2866.000          38.000  
G16  17537145.264    -7632632.302        2806.000          43.000  
G25  20810360.165     6850379.956       -2956.000          36.000  
G26  16341183.319    -2826296.095         632.000          46.000  
G27  20861889.026    -6476952.828        4179.000          37.000  
G28  17793040.494     -530646.454         167.000          45.000  
G29  19409895.683     -437312.756        -459.000          40.000  
G31  17456707.137    -2370180.544         923.000          45.000  
G32  17187869.060      916080.016       -1005.000          48.000  
> 2024 12 16  4  3 40.9860001  0 10                     
G 3  19590325.137    -5103693.950        1580.000          38.000  
G10  20507875.822     6733517.598       -2866.000          38.000  
G16  17536611.357    -7635438.010        2805.000          43.000  
G25  20810922.681     6853335.816       -2955.000          36.000  
G26  16341062.925    -2826928.686         632.000          46.000  
G27  20861093.600    -6481132.903        4180.000          37.000  
G28  17793008.636     -530813.810         167.000          44.000  
G29  19409983.147     -436853.106        -459.000          41.000  
G31  17456531.293    -2371104.548         924.000          45.000  
G32  17188060.530      917086.133       -1006.000          48.000  
> 2024 12 16  4  3 41.9860001  0 10                     
G 3  19590024.590    -5105273.550        1579.000          38.000  
G10  20508421.308     6736384.145       -2866.000          38.000  
G16  17536077.567    -7638243.092        2805.000          43.000  
G25  20811485.201     6856291.699       -2955.000          36.000  
G26  16340942.651    -2827560.635         631.000          46.000  
G27  20860298.198    -6485312.896        4179.000          37.000  
G28  17792976.828     -530980.900         167.000          45.000  
G29  19410070.764     -436392.698        -460.000          41.000  
G31  17456355.491    -2372028.305         923.000          45.000  
G32  17188252.131      918092.928       -1006.000          48.000  
> 2024 12 16  4  3 42.9860001  0 10                     
G 3  19589724.179    -5106852.389        1578.000          38.000  
G10  20508966.790     6739250.695       -2866.000          39.000  
G16  17535543.891    -7641047.562        2804.000          43.000  
G25  20812047.620     6859247.639       -2955.000          36.000  
G26  16340822.493    -2828191.960         631.000          46.000  
G27  20859502.793    -6489492.938        4180.000          37.000  
G28  17792945.053     -531147.804         166.000          45.000  
G29  19410158.504     -435931.607        -461.000          41.000  
G31  17456179.729    -2372951.852         923.000          45.000  
G32  17188443.861      919100.398       -1007.000          48.000  
> 2024 12 16  4  3 43.9860001  0 10                     
G 3  19589423.873    -5108430.676        1578.000          38.000  
G10  20509512.245     6742117.105       -2866.000          38.000  
G16  17535010.301    -7643851.562        2804.000          43.000  
G25  20812610.080     6862203.516       -2955.000          36.000  
G26  16340702.421    -2828822.838         630.000          46.000  
G27  20858707.359    -6493673.112        4180.000          37.000  
G28  17792913.296     -531314.650         166.000          45.000  
G29  19410246.346     -435469.967        -461.000          41.000  
G31  17456003.984    -2373875.320         923.000          45.000  
G32  17188635.682      920108.357       -1007.000          48.000  
> 2024 12 16  4  3 44.9860001  0 10                     
G 3  19589123.603    -5110008.763        1578.000          38.000  
G10  20510057.593     6744983.013       -2865.000          38.000  
G16  17534476.722    -7646655.488        2803.000          43.000  
G25  20813172.486     6865158.954       -2955.000          36.000  
G26  16340582.378    -2829453.584         630.000          46.000  
G27  20857911.841    -6497853.787        4180.000          37.000  
G28  17792881.483     -531481.821         167.000          45.000  
G29  19410334.234     -435008.133        -461.000          41.000  
G31  17455828.187    -2374799.095         923.000          45.000  
G32  17188827.534      921116.484       -1008.000          48.000  
> 2024 12 16  4  3 45.9860001  0 10                     
G 3  19588823.520    -5111585.784        1577.000          38.000  
G10  20510603.010     6747849.302       -2866.000          38.000  
G16  17533943.328    -7649458.422        2802.000          43.000  
G25  20813734.981     6868114.764       -2955.000          36.000  
G26  16340462.530    -2830083.331         629.000          46.000  
G27  20857116.385    -6502034.116        4180.000          37.000  
G28  17792849.786     -531648.416         166.000          45.000  
G29  19410422.331     -434545.219        -462.000          41.000  
G31  17455652.511    -2375722.263         923.000          45.000  
G32  17189019.579      922125.644       -1009.000          48.000  
> 2024 12 16  4  3 46.9860001  0 10                     
G 3  19588523.559    -5113162.142        1576.000          38.000  
G10  20511148.426     6750715.571       -2866.000          38.000  
G16  17533410.040    -7652260.770        2802.000          43.000  
G25  20814297.503     6871070.654       -2955.000          36.000  
G26  16340342.795    -2830712.498         629.000          46.000  
G27  20856320.933    -6506214.453        4180.000          37.000  
G28  17792818.130     -531814.846         166.000          45.000  
G29  19410510.553     -434081.655        -463.000          41.000  
G31  17455476.870    -2376645.255         922.000          45.000  
G32  17189211.739      923135.421       -1009.000          48.000  
> 2024 12 16  4  3 47.9860001  0 10                     
G 3  19588223.755    -5114737.689        1575.000          38.000  
G10  20511693.864     6753581.925       -2866.000          39.000  
G16  17532876.871    -7655062.453        2801.000          43.000  
G25  20814860.054     6874026.652       -2955.000          36.000  
G26  16340223.189    -2831340.977         628.000          46.000  
G27  20855525.507    -6510394.712        4180.000          37.000  
G28  17792786.534     -531980.980         166.000          45.000  
G29  19410598.918     -433617.318        -464.000          41.000  
G31  17455301.281    -2377567.971         922.000          45.000  
G32  17189404.037      924145.940       -1010.000          48.000  
> 2024 12 16  4  3 48.9860001  0 10                     
G 3  19587924.098    -5116312.532        1574.000          38.000  
G10  20512239.317     6756448.335       -2866.000          39.000  
G16  17532343.821    -7657863.506        2801.000          43.000  
G25  20815422.619     6876982.735       -2956.000          36.000  
G26  16340103.699    -2831968.824         627.000          46.000  
G27  20854730.090    -6514574.972        4180.000          37.000  
G28  17792754.963     -532146.941         165.000          45.000  
G29  19410687.419     -433152.236        -465.000          40.000  
G31  17455125.738    -2378490.436         922.000          45.000  
G32  17189596.463      925157.135       -1011.000          48.000  
> 2024 12 16  4  3 49.9860001  0 10                     
G 3  19587624.566    -5117886.686        1574.000          38.000  
G10  20512784.756     6759314.674       -2866.000          39.000  
G16  17531810.880    -7660663.997        2800.000          43.000  
G25  20815985.186     6879938.855       -2956.000          37.000  
G26  16339984.321    -2832596.057         627.000          46.000  
G27  20853934.670    -6518755.281        4180.000          37.000  
G28  17792723.425     -532312.719         165.000          45.000  
G29  19410776.037     -432686.515        -465.000          40.000  
G31  17454950.226    -2379412.729         922.000          45.000  
G32  17189789.008      926168.965       -1011.000          48.000  
> 2024 12 16  4  3 50.9860001  0 10                     
G 3  19587325.104    -5119460.454        1573.000          38.000  
G10  20513330.144     6762180.764       -2866.000          39.000  
G16  17531278.004    -7663464.156        2800.000          43.000  
G25  20816547.713     6882894.744       -2955.000          37.000  
G26  16339865.001    -2833222.978         626.000          46.000  
G27  20853139.200    -6522935.868        4180.000          37.000  
G28  17792691.865     -532478.586         165.000          45.000  
G29  19410864.733     -432220.382        -466.000          41.000  
G31  17454774.700    -2380335.082         922.000          45.000  
G32  17189981.622      927181.145       -1012.000          48.000  
> 2024 12 16  4  3 51.9860001  0 10                     
G 3  19587025.729    -5121033.745        1573.000          38.000  
G10  20513875.486     6765046.587       -2865.000          39.000  
G16  17530745.207    -7666263.941        2799.000          43.000  
G25  20817110.201     6885850.410       -2955.000          37.000  
G26  16339745.754    -2833849.521         626.000          46.000  
G27  20852343.678    -6527116.726        4180.000          37.000  
G28  17792660.303     -532644.456         165.000          45.000  
G29  19410953.521     -431753.771        -466.000          40.000  
G31  17454599.170    -2381257.460         922.000          45.000  
G32  17190174.324      928193.787       -1012.000          48.000  
> 2024 12 16  4  3 52.9860001  0 10                     
G 3  19586726.456    -5122606.524        1572.000          38.000  
G10  20514420.786     6767912.190       -2865.000          39.000  
G16  17530212.488    -7669063.362        2799.000          43.000  
G25  20817672.664     6888805.933       -2955.000          37.000  
G26  16339626.585    -2834475.687         626.000          46.000  
G27  20851548.103    -6531297.789        4181.000          37.000  
G28  17792628.719     -532810.427         165.000          45.000  
G29  19411042.393     -431286.729        -467.000          40.000  
G31  17454423.628    -2382179.884         922.000          45.000  
G32  17190367.097      929206.790       -1012.000          48.000  
> 2024 12 16  4  3 53.9860001  0 10                     
G 3  19586427.229    -5124179.088        1572.000          37.000  
G10  20514966.028     6770777.421       -2865.000          39.000  
G16  17529679.808    -7671862.596        2799.000          43.000  
G25  20818235.052     6891761.086       -2955.000          37.000  
G26  16339507.462    -2835101.630         625.000          46.000  
G27  20850752.448    -6535479.265        4181.000          37.000  
G28  17792597.098     -532976.582         166.000          45.000  
G29  19411131.328     -430819.380        -467.000          40.000  
G31  17454248.054    -2383102.464         922.000          45.000  
G32  17190559.926      930220.094       -1013.000          48.000  
> 2024 12 16  4  3 54.9860001  0 10                     
G 3  19586128.200    -5125750.561        1571.000          38.000  
G10  20515511.328     6773642.931       -2865.000          39.000  
G16  17529147.312    -7674660.910        2798.000          43.000  
G25  20818797.506     6894716.630       -2955.000          37.000  
G26  16339388.514    -2835726.649         625.000          46.000  
G27  20849956.845    -6539660.395        4181.000          37.000  
G28  17792565.576     -533142.227         165.000          45.000  
G29  19411220.458     -430351.011        -468.000          40.000  
G31  17454072.582    -2384024.508         922.000          45.000  
G32  17190752.938      931234.366       -1014.000          48.000  
> 2024 12 16  4  3 55.9860001  0 10                     
G 3  19585829.291    -5127321.421        1570.000          38.000  
G10  20516056.616     6776508.408       -2865.000          39.000  
G16  17528614.921    -7677458.648        2797.000          43.000  
G25  20819359.959     6897672.141       -2955.000          37.000  
G26  16339269.672    -2836351.104         624.000          46.000  
G27  20849161.213    -6543841.646        4181.000          37.000  
G28  17792534.082     -533307.733         165.000          45.000  
G29  19411309.703     -429882.033        -468.000          40.000  
G31  17453897.130    -2384946.434         921.000          45.000  
G32  17190946.066      932249.229       -1014.000          48.000  
> 2024 12 16  4  3 56.9860001  0 10                     
G 3  19585530.507    -5128891.691        1570.000          38.000  
G10  20516601.875     6779373.762       -2865.000          39.000  
G16  17528082.614    -7680255.956        2797.000          43.000  
G25  20819922.388     6900627.606       -2955.000          37.000  
G26  16339150.920    -2836975.104         624.000          46.000  
G27  20848365.540    -6548023.049        4181.000          37.000  
G28  17792502.594     -533473.202         165.000          45.000  
G29  19411399.056     -429412.473        -469.000          40.000  
G31  17453721.691    -2385868.280         921.000          45.000  
G32  17191139.290      933264.583       -1015.000          48.000  
> 2024 12 16  4  3 57.9860001  0 10                     
G 3  19585231.900    -5130461.081        1569.000          38.000  
G10  20517147.162     6782239.304       -2865.000          39.000  
G16  17527550.464    -7683052.426        2796.000          43.000  
G25  20820484.858     6903583.267       -2955.000          37.000  
G26  16339032.327    -2837598.283         623.000          46.000  
G27  20847569.905    -6552204.235        4181.000          37.000  
G28  17792471.177     -533638.275         165.000          45.000  
G29  19411488.566     -428942.088        -470.000          41.000  
G31  17453546.333    -2386789.696         921.000          45.000  
G32  17191332.682      934280.810       -1016.000          48.000  
> 2024 12 16  4  3 58.9860001  0 10                     
G 3  19584933.406    -5132029.761        1568.000          38.000  
G10  20517692.450     6785104.859       -2865.000          39.000  
G16  17527018.431    -7685848.307        2795.000          43.000  
G25  20821047.354     6906539.017       -2955.000          37.000  
G26  16338913.858    -2838220.826         622.000          46.000  
G27  20846774.271    -6556385.423        4181.000          37.000  
G28  17792439.800     -533803.152         164.000          45.000  
G29  19411578.216     -428470.918        -471.000          41.000  
G31  17453371.018    -2387710.901         921.000          45.000  
G32  17191526.205      935297.723       -1016.000          48.000  
> 2024 12 16  4  3 59.9860001  0 10                     
G 3  19584634.976    -5133598.059        1568.000          38.000  
G10  20518237.689     6787970.118       -2865.000          38.000  
G16  17526486.458    -7688643.896        2795.000          43.000  
G25  20821609.810     6909494.539       -2955.000          37.000  
G26  16338795.448    -2838843.061         622.000          46.000  
G27  20845978.581    -6560566.930        4181.000          37.000  
G28  17792408.406     -533968.106         164.000          45.000  
G29  19411667.942     -427999.386        -471.000          41.000  
G31  17453195.688    -2388632.223         921.000          45.000  
G32  17191719.791      936314.956       -1017.000          48.000  
> 2024 12 16  4  4  0.9860001  0 10                     
G 3  19584336.592    -5135166.101        1568.000          38.000  
G10  20518782.853     6790834.906       -2864.000          39.000  
G16  17525954.524    -7691439.322        2795.000          43.000  
G25  20822172.179     6912449.604       -2955.000          37.000  
G26  16338677.059    -2839465.162         622.000          46.000  
G27  20845182.809    -6564748.876        4181.000          36.000  
G28  17792376.965     -534133.326         165.000          45.000  
G29  19411757.708     -427527.622        -471.000          41.000  
G31  17453020.325    -2389553.748         921.000          45.000  
G32  17191913.421      937332.413       -1017.000          48.000  
> 2024 12 16  4  4  1.9860001  0 10                     
G 3  19584038.360    -5136733.335        1567.000          38.000  
G10  20519328.042     6793699.808       -2864.000          39.000  
G16  17525422.720    -7694234.084        2794.000          43.000  
G25  20822734.592     6915404.886       -2955.000          37.000  
G26  16338558.805    -2840086.540         621.000          46.000  
G27  20844387.055    -6568930.740        4181.000          36.000  
G28  17792345.571     -534298.301         164.000          45.000  
G29  19411847.636     -427055.052        -472.000          41.000  
G31  17452845.020    -2390475.008         921.000          45.000  
G32  17192107.186      938350.583       -1018.000          48.000  
> 2024 12 16  4  4  2.9860001  0 10                     
G 3  19583740.265    -5138299.834        1566.000          38.000  
G10  20519873.247     6796564.793       -2864.000          38.000  
G16  17524891.041    -7697028.163        2794.000          43.000  
G25  20823297.028     6918360.209       -2955.000          37.000  
G26  16338440.681    -2840707.226         620.000          47.000  
G27  20843591.314    -6573112.567        4181.000          36.000  
G28  17792314.229     -534462.986         164.000          45.000  
G29  19411937.695     -426581.748        -473.000          40.000  
G31  17452669.773    -2391395.974         920.000          45.000  
G32  17192301.096      939369.500       -1018.000          48.000  
> 2024 12 16  4  4  3.9860001  0 10                     
G 3  19583442.266    -5139865.871        1566.000          38.000  
G10  20520418.386     6799429.481       -2864.000          38.000  
G16  17524359.414    -7699821.916        2793.000          43.000  
G25  20823859.432     6921315.349       -2955.000          37.000  
G26  16338322.620    -2841327.578         620.000          47.000  
G27  20842795.518    -6577294.672        4182.000          37.000  
G28  17792282.875     -534627.759         164.000          45.000  
G29  19412027.835     -426108.025        -473.000          40.000  
G31  17452494.517    -2392316.995         921.000          45.000  
G32  17192495.077      940388.777       -1019.000          48.000  
> 2024 12 16  4  4  4.9860001  0 10                     
G 3  19583144.383    -5141431.360        1565.000          38.000  
G10  20520963.500     6802294.055       -2864.000          38.000  
G16  17523827.871    -7702615.171        2793.000          43.000  
G25  20824421.823     6924270.402       -2955.000          37.000  
G26  16338204.658    -2841947.433         619.000          47.000  
G27  20841999.710    -6581476.887        4182.000          36.000  
G28  17792251.538     -534792.465         164.000          45.000  
G29  19412118.082     -425633.730        -474.000          40.000  
G31  17452319.271    -2393237.940         920.000          45.000  
G32  17192689.166      941408.614       -1019.000          48.000  
> 2024 12 16  4  4  5.9860001  0 10                     
G 3  19582846.692    -5142995.931        1564.000          38.000  
G10  20521508.657     6805158.836       -2864.000          38.000  
G16  17523296.470    -7705407.632        2792.000          43.000  
G25  20824984.254     6927225.726       -2955.000          37.000  
G26  16338086.856    -2842566.475         619.000          47.000  
G27  20841203.941    -6585658.889        4182.000          37.000  
G28  17792220.273     -534956.782         164.000          45.000  
G29  19412208.503     -425158.526        -475.000          40.000  
G31  17452144.103    -2394158.449         920.000          45.000  
G32  17192883.415      942429.293       -1020.000          48.000  
> 2024 12 16  4  4  6.9860001  0 10                     
G 3  19582553.618    -5144559.9571       1564.000          38.000  
G10  20522053.781     6808023.413       -2864.000          38.000  
G16  17522765.142    -7708199.680        2792.000          43.000  
G25  20825546.650     6930180.900       -2955.000          37.000  
G26  16337969.135    -2843185.106         618.000          47.000  
G27  20840408.141    -6589841.120        4182.000          37.000  
G28  17792189.008     -535121.075         164.000          45.000  
G29  19412299.022     -424682.799        -475.000          40.000  
G31  17451968.936    -2395078.964         920.000          45.000  
G32  17193077.752      943450.440       -1021.000          48.000  
> 2024 12 16  4  4  7.9860001  0 10                     
G 3  19582254.735    -5146123.5171       1563.000          38.000  
G10  20522598.886     6810887.838       -2864.000          38.000  
G16  17522233.886    -7710991.300        2791.000          43.000  
G25  20826109.027     6933135.964       -2955.000          37.000  
G26  16337851.503    -2843803.276         618.000          47.000  
G27  20839612.308    -6594023.524        4182.000          37.000  
G28  17792157.747     -535285.352         164.000          45.000  
G29  19412389.625     -424206.585        -476.000          40.000  
G31  17451793.780    -2395999.414         920.000          45.000  
G32  17193272.182      944472.085       -1021.000          48.000  
> 2024 12 16  4  4  8.9860001  0 10                     
G 3  19581957.502    -5147686.8251       1563.000          38.000  
G10  20523143.889     6813751.758       -2863.000          38.000  
G16  17521702.649    -7713782.808        2791.000          43.000  
G25  20826671.314     6936090.579       -2954.000          37.000  
G26  16337733.895    -2844421.326         618.000          47.000  
G27  20838816.370    -6598206.433        4182.000          37.000  
G28  17792126.423     -535449.941         164.000          45.000  
G29  19412480.261     -423730.193        -476.000          40.000  
G31  17451618.567    -2396920.176         920.000          45.000  
G32  17193466.636      945493.865       -1021.000          48.000  
> 2024 12 16  4  4  9.9860001  0 10                     
G 3  19581659.260    -5149249.2611       1562.000          38.000  
G10  20523688.932     6816615.927       -2864.000          38.000  
G16  17521171.572    -7716573.503        2790.000          43.000  
G25  20827233.640     6939045.438       -2954.000          36.000  
G26  16337616.439    -2845038.580         617.000          47.000  
G27  20838020.472    -6602389.104        4182.000          37.000  
G28  17792095.176     -535614.143         164.000          45.000  
G29  19412571.083     -423252.843        -477.000          40.000  
G31  17451443.431    -2397840.519         920.000          45.000  
G32  17193661.252      946516.512       -1022.000          48.000  
> 2024 12 16  4  4 10.9860001  0 10                     
G 3  19581361.699    -5150811.0211       1561.000          38.000  
G10  20524233.941     6819479.972       -2864.000          38.000  
G16  17520640.600    -7719363.671        2790.000          43.000  
G25  20827795.955     6942000.291       -2954.000          36.000  
G26  16337499.096    -2845655.255         616.000          47.000  
G27  20837224.547    -6606571.890        4182.000          37.000  
G28  17792063.965     -535778.186         164.000          45.000  
G29  19412662.021     -422774.909        -477.000          40.000  
G31  17451268.322    -2398760.694         920.000          45.000  
G32  17193855.980      947539.765       -1023.000          48.000  
> 2024 12 16  4  4 11.9860001  0 10                     
G 3  19581063.854    -5152372.4881       1561.000          38.000  
G10  20524778.887     6822343.699       -2863.000          38.000  
G16  17520109.681    -7722153.579        2789.000          43.000  
G25  20828358.227     6944954.880       -2954.000          37.000  
G26  16337381.801    -2846271.698         616.000          47.000  
G27  20836428.555    -6610755.009        4183.000          36.000  
G28  17792032.721     -535942.408         164.000          45.000  
G29  19412753.032     -422296.628        -478.000          40.000  
G31  17451093.186    -2399681.002         920.000          45.000  
G32  17194050.759      948563.295       -1023.000          48.000  
> 2024 12 16  4  4 12.9860001  0 10                     
G 3  19580767.048    -5153933.364        1560.000          38.000  
G10  20525323.804     6825207.245       -2863.000          38.000  
G16  17519578.854    -7724943.031        2789.000          44.000  
G25  20828920.482     6947909.298       -2954.000          37.000  
G26  16337264.605    -2846887.660         615.000          48.000  
G27  20835632.530    -6614938.285        4183.000          36.000  
G28  17792001.488     -536106.575         164.000          45.000  
G29  19412844.145     -421817.812        -478.000          40.000  
G31  17450918.050    -2400601.287         920.000          45.000  
G32  17194245.635      949587.344       -1024.000          48.000  
> 2024 12 16  4  4 13.9860001  0 10                     
G 3  19580470.917    -5155493.332        1559.000          38.000  
G10  20525868.781     6828071.035       -2863.000          38.000  
G16  17519048.186    -7727731.678        2788.000          43.000  
G25  20829482.795     6950864.021       -2954.000          37.000  
G26  16337147.573    -2847502.801         615.000          48.000  
G27  20834836.526    -6619121.376        4183.000          36.000  
G28  17791970.332     -536270.348         163.000          45.000  
G29  19412935.438     -421338.036        -479.000          40.000  
G31  17450742.995    -2401521.119         919.000          45.000  
G32  17194440.670      950612.250       -1024.000          48.000  
> 2024 12 16  4  4 14.9860001  0 10                     
G 3  19580173.535    -5157052.783        1559.000          38.000  
G10  20526413.735     6830934.649       -2863.000          38.000  
G16  17518517.605    -7730519.890        2788.000          43.000  
G25  20830045.087     6953818.637       -2954.000          37.000  
G26  16337030.627    -2848117.517         614.000          48.000  
G27  20834040.479    -6623304.635        4183.000          36.000  
G28  17791939.180     -536434.084         163.000          45.000  
G29  19413026.808     -420857.840        -480.000          40.000  
G31  17450567.943    -2402440.936         919.000          45.000  
G32  17194635.800      951637.650       -1025.000          48.000  
> 2024 12 16  4  4 15.9860001  0 10                     
G 3  19579876.764    -5158611.225        1558.000          38.000  
G10  20526958.745     6833798.563       -2863.000          38.000  
G16  17517987.198    -7733307.222        2787.000          44.000  
G25  20830607.446     6956773.584       -2954.000          37.000  
G26  16336913.855    -2848731.334         613.000          48.000  
G27  20833244.490    -6627487.601        4182.000          36.000  
G28  17791908.109     -536597.379         163.000          45.000  
G29  19413118.375     -420376.604        -481.000          40.000  
G31  17450392.988    -2403360.245         919.000          45.000  
G32  17194831.109      952663.992       -1026.000          48.000  
> 2024 12 16  4  4 16.9860001  0 10                     
G 3  19579580.777    -5160168.956        1557.000          38.000  
G10  20527503.746     6836662.479       -2863.000          38.000  
G16  17517456.915    -7736093.937        2786.000          44.000  
G25  20831169.804     6959728.572       -2954.000          37.000  
G26  16336797.211    -2849344.470         613.000          48.000  
G27  20832448.504    -6631670.574        4182.000          36.000  
G28  17791877.094     -536760.413         163.000          45.000  
G29  19413210.079     -419894.633        -481.000          40.000  
G31  17450218.080    -2404279.304         919.000          45.000  
G32  17195026.549      953691.011       -1027.000          48.000  
> 2024 12 16  4  4 17.9860001  0 10                     
G 3  19579285.009    -5161726.460        1557.000          38.000  
G10  20528048.645     6839525.940       -2863.000          38.000  
G16  17516926.671    -7738880.468        2786.000          44.000  
G25  20831732.094     6962683.199       -2954.000          36.000  
G26  16336680.586    -2849957.492         613.000          48.000  
G27  20831652.460    -6635853.955        4183.000          36.000  
G28  17791846.023     -536923.728         163.000          45.000  
G29  19413301.815     -419412.456        -482.000          40.000  
G31  17450043.117    -2405198.644         919.000          45.000  
G32  17195222.028      954718.228       -1027.000          48.000  
> 2024 12 16  4  4 18.9860001  0 10                     
G 3  19578988.556    -5163283.593        1557.000          38.000  
G10  20528593.469     6842389.020       -2863.000          38.000  
G16  17516396.465    -7741666.821        2786.000          44.000  
G25  20832294.304     6965637.434       -2954.000          36.000  
G26  16336564.002    -2850570.278         612.000          48.000  
G27  20830856.328    -6640037.762        4183.000          36.000  
G28  17791814.914     -537087.251         163.000          45.000  
G29  19413393.610     -418929.985        -482.000          40.000  
G31  17449868.116    -2406118.158         919.000          45.000  
G32  17195417.551      955745.665       -1027.000          48.000  
> 2024 12 16  4  4 19.9860001  0 10                     
G 3  19578691.750    -5164840.212        1556.000          38.000  
G10  20529138.276     6845251.992       -2862.000          38.000  
G16  17515866.353    -7744452.676        2785.000          44.000  
G25  20832856.497     6968591.643       -2954.000          36.000  
G26  16336447.512    -2851182.577         612.000          48.000  
G27  20830060.175    -6644221.696        4183.000          36.000  
G28  17791783.818     -537250.677         163.000          45.000  
G29  19413485.521     -418446.907        -483.000          40.000  
G31  17449693.133    -2407037.568         919.000          45.000  
G32  17195613.192      956773.688       -1028.000          48.000  
> 2024 12 16  4  4 20.9860001  0 10                     
G 3  19578395.118    -5166396.942        1556.000          38.000  
G10  20529682.926     6848114.091       -2862.000          38.000  
G16  17515336.194    -7747238.794        2786.000          44.000  
G25  20833418.512     6971545.019       -2953.000          36.000  
G26  16336330.972    -2851795.132         612.000          48.000  
G27  20829263.855    -6648406.475        4184.000          36.000  
G28  17791752.587     -537414.800         164.000          45.000  
G29  19413577.403     -417964.005        -482.000          41.000  
G31  17449518.032    -2407957.621         920.000          45.000  
G32  17195808.791      957801.494       -1027.000          48.000  
> 2024 12 16  4  4 21.9860001  0 10                     
G 3  19578098.312    -5167953.056        1556.000          38.000  
G10  20530227.571     6850976.128       -2862.000          38.000  
G16  17514806.141    -7750024.370        2785.000          44.000  
G25  20833980.542     6974498.421       -2953.000          36.000  
G26  16336214.542    -2852407.115         611.000          48.000  
G27  20828467.521    -6652591.343        4184.000          36.000  
G28  17791721.388     -537578.747         163.000          45.000  
G29  19413669.427     -417480.441        -483.000          40.000  
G31  17449342.966    -2408877.515         919.000          45.000  
G32  17196004.505      958829.897       -1028.000          48.000  
> 2024 12 16  4  4 22.9860001  0 10                     
G 3  19577802.648    -5169508.416        1555.000          38.000  
G10  20530772.216     6853838.207       -2862.000          38.000  
G16  17514276.206    -7752809.279        2784.000          44.000  
G25  20834542.587     6977451.882       -2953.000          36.000  
G26  16336098.240    -2853018.435         611.000          48.000  
G27  20827671.185    -6656776.178        4184.000          36.000  
G28  17791690.233     -537742.477         163.000          45.000  
G29  19413761.587     -416996.172        -484.000          40.000  
G31  17449167.947    -2409797.171         919.000          45.000  
G32  17196200.354      959859.005       -1029.000          48.000  
> 2024 12 16  4  4 23.9860001  0 10                     
G 3  19577507.343    -5171062.957        1554.000          38.000  
G10  20531316.885     6856700.427       -2862.000          38.000  
G16  17513746.403    -7755593.473        2784.000          44.000  
G25  20835104.679     6980405.526       -2953.000          36.000  
G26  16335982.078    -2853629.025         610.000          48.000  
G27  20826874.870    -6660960.871        4184.000          36.000  
G28  17791659.138     -537905.896         163.000          45.000  
G29  19413853.893     -416511.091        -485.000          40.000  
G31  17448992.996    -2410716.483         919.000          45.000  
G32  17196396.344      960888.874       -1029.000          48.000  
> 2024 12 16  4  4 24.9860001  0 10                     
G 3  19577212.569    -5172617.197        1554.000          38.000  
G10  20531861.471     6859562.224       -2861.000          38.000  
G16  17513216.637    -7758377.458        2783.000          44.000  
G25  20835666.716     6983358.851       -2953.000          36.000  
G26  16335865.960    -2854239.399         610.000          48.000  
G27  20826078.479    -6665145.968        4185.000          36.000  
G28  17791628.014     -538069.494         163.000          45.000  
G29  19413946.247     -416025.710        -485.000          40.000  
G31  17448818.014    -2411635.984         919.000          45.000  
G32  17196592.387      961919.013       -1030.000          48.000  
> 2024 12 16  4  4 25.9860001  0 10                     
G 3  19576915.728    -5174170.974        1553.000          38.000  
G10  20532406.019     6862423.827       -2861.000          38.000  
G16  17512686.940    -7761161.059        2783.000          44.000  
G25  20836228.707     6986311.965       -2953.000          36.000  
G26  16335749.914    -2854849.385         609.000          48.000  
G27  20825282.040    -6669331.326        4185.000          36.000  
G28  17791596.882     -538233.133         163.000          45.000  
G29  19414038.702     -415539.802        -485.000          40.000  
G31  17448643.033    -2412555.480         919.000          45.000  
G32  17196788.515      962949.589       -1030.000          48.000  
> 2024 12 16  4  4 26.9860001  0 10                     
G 3  19576618.917    -5175724.170        1553.000          38.000  
G10  20532950.538     6865285.261       -2861.000          39.000  
G16  17512157.317    -7763944.244        2783.000          44.000  
G25  20836790.679     6989265.030       -2953.000          36.000  
G26  16335633.957    -2855458.893         609.000          48.000  
G27  20824485.578    -6673516.783        4185.000          36.000  
G28  17791565.755     -538396.760         163.000          45.000  
G29  19414131.242     -415053.445        -486.000          40.000  
G31  17448468.052    -2413474.940         919.000          45.000  
G32  17196984.732      963980.657       -1031.000          48.000  
> 2024 12 16  4  4 27.9860001  0 10                     
G 3  19576323.934    -5177276.930        1552.000          38.000  
G10  20533495.009     6868146.413       -2861.000          38.000  
G16  17511627.762    -7766727.055        2782.000          44.000  
G25  20837352.591     6992217.846       -2952.000          36.000  
G26  16335518.057    -2856068.082         609.000          48.000  
G27  20823689.069    -6677702.552        4185.000          36.000  
G28  17791534.617     -538560.432         163.000          45.000  
G29  19414223.871     -414566.597        -486.000          40.000  
G31  17448293.068    -2414394.415         919.000          45.000  
G32  17197181.024      965012.112       -1031.000          48.000  
> 2024 12 16  4  4 28.9860001  0 10                     
G 3  19576029.772    -5178829.661        1552.000          38.000  
G10  20534039.356     6871006.917       -2860.000          39.000  
G16  17511098.194    -7769509.918        2782.000          43.000  
G25  20837914.389     6995170.008       -2952.000          36.000  
G26  16335402.149    -2856677.303         609.000          48.000  
G27  20822892.440    -6681888.970        4186.000          36.000  
G28  17791503.388     -538724.580         164.000          45.000  
G29  19414316.497     -414079.752        -486.000          40.000  
G31  17448117.990    -2415314.399         919.000          45.000  
G32  17197377.317      966043.547       -1031.000          48.000  
> 2024 12 16  4  4 29.9860001  0 10                     
G 3  19575733.716    -5180381.853        1552.000          37.000  
G10  20534583.664     6873867.248       -2860.000          39.000  
G16  17510568.705    -7772292.368        2782.000          44.000  
G25  20838476.187     6998122.101       -2952.000          36.000  
G26  16335286.324    -2857286.096         608.000          48.000  
G27  20822095.777    -6686075.527        4186.000          36.000  
G28  17791472.162     -538888.688         164.000          45.000  
G29  19414409.225     -413592.389        -487.000          40.000  
G31  17447942.931    -2416234.311         919.000          45.000  
G32  17197573.708      967075.498       -1031.000          48.000  
> 2024 12 16  4  4 30.9860001  0 10                     
G 3  19575437.088    -5181933.702        1551.000          37.000  
G10  20535127.910     6876727.287       -2860.000          39.000  
G16  17510039.266    -7775074.532        2782.000          44.000  
G25  20839037.925     7001073.906       -2951.000          35.000  
G26  16335170.555    -2857894.584         608.000          48.000  
G27  20821298.937    -6690262.470        4186.000          36.000  
G28  17791440.901     -539052.952         164.000          45.000  
G29  19414502.040     -413104.600        -487.000          40.000  
G31  17447767.849    -2417154.332         920.000          45.000  
G32  17197770.157      968107.750       -1032.000          48.000  
> 2024 12 16  4  4 31.9860001  0 10                     
G 3  19575142.210    -5183484.985        1551.000          37.000  
G10  20535672.115     6879587.077       -2859.000          39.000  
G16  17509509.907    -7777856.283        2781.000          44.000  
G25  20839599.621     7004025.570       -2951.000          35.000  
G26  16335054.863    -2858502.669         608.000          48.000  
G27  20820502.098    -6694449.586        4187.000          35.000  
G28  17791409.646     -539217.205         164.000          45.000  
G29  19414594.939     -412616.399        -488.000          40.000  
G31  17447592.765    -2418074.354         920.000          45.000  
G32  17197966.696      969140.479       -1032.000          48.000  
> 2024 12 16  4  4 32.9860001  0 10                     
G 3  19574847.476    -5185035.902        1550.000          37.000  
G10  20536216.283     6882446.664       -2859.000          39.000  
G16  17508980.613    -7780637.689        2781.000          44.000  
G25  20840161.270     7006977.043       -2951.000          35.000  
G26  16334939.244    -2859110.380         607.000          48.000  
G27  20819705.246    -6698637.007        4187.000          35.000  
G28  17791378.389     -539381.485         164.000          45.000  
G29  19414687.933     -412127.692        -488.000          40.000  
G31  17447417.677    -2418994.401         920.000          45.000  
G32  17198163.312      970173.637       -1033.000          48.000  
> 2024 12 16  4  4 33.9860001  0 10                     
G 3  19574553.099    -5186585.933        1550.000          38.000  
G10  20536760.472     6885306.333       -2859.000          39.000  
G16  17508451.457    -7783418.388        2780.000          44.000  
G25  20840722.914     7009928.665       -2951.000          35.000  
G26  16334823.763    -2859717.369         606.000          48.000  
G27  20818908.440    -6702824.243        4187.000          36.000  
G28  17791347.186     -539545.493         164.000          45.000  
G29  19414781.075     -411638.199        -489.000          40.000  
G31  17447242.653    -2419914.114         919.000          45.000  
G32  17198360.068      971207.525       -1033.000          48.000  
> 2024 12 16  4  4 34.9860001  0 10                     
G 3  19574257.366    -5188135.252        1549.000          38.000  
G10  20537304.669     6888166.040       -2859.000          39.000  
G16  17507922.425    -7786198.443        2780.000          44.000  
G25  20841284.586     7012880.366       -2951.000          35.000  
G26  16334708.402    -2860323.720         606.000          48.000  
G27  20818111.627    -6707011.476        4187.000          36.000  
G28  17791316.031     -539709.272         163.000          45.000  
G29  19414874.357     -411147.978        -490.000          40.000  
G31  17447067.671    -2420833.607         919.000          45.000  
G32  17198556.955      972242.096       -1034.000          48.000  
> 2024 12 16  4  4 35.9860001  0 10                     
G 3  19573962.309    -5189683.467        1548.000          37.000  
G10  20537848.937     6891026.153       -2860.000          39.000  
G16  17507393.586    -7788977.489        2779.000          44.000  
G25  20841846.331     7015832.527       -2952.000          35.000  
G26  16334593.235    -2860929.053         605.000          48.000  
G27  20817314.909    -6711198.274        4186.000          36.000  
G28  17791284.984     -539872.480         163.000          45.000  
G29  19414967.845     -410656.660        -491.000          40.000  
G31  17446892.806    -2421752.472         918.000          45.000  
G32  17198754.044      973277.724       -1035.000          48.000  
> 2024 12 16  4  4 36.9860001  0 10                     
G 3  19573668.077    -5191231.346        1547.000          37.000  
G10  20538393.120     6893885.879       -2859.000          39.000  
G16  17506864.797    -7791756.288        2778.000          44.000  
G25  20842408.019     7018784.379       -2951.000          35.000  
G26  16334478.114    -2861534.132         605.000          47.000  
G27  20816518.112    -6715385.499        4187.000          36.000  
G28  17791253.915     -540035.810         163.000          45.000  
G29  19415061.402     -410165.033        -491.000          40.000  
G31  17446717.905    -2422671.494         919.000          45.000  
G32  17198951.191      974313.664       -1035.000          48.000  
> 2024 12 16  4  4 37.9860001  0 10                     
G 3  19573373.988    -5192778.734        1547.000          38.000  
G10  20538937.266     6896745.380       -2859.000          39.000  
G16  17506336.074    -7794534.724        2778.000          44.000  
G25  20842969.675     7021736.020       -2951.000          35.000  
G26  16334363.062    -2862138.840         604.000          47.000  
G27  20815721.272    -6719572.922        4187.000          36.000  
G28  17791222.832     -540199.212         163.000          45.000  
G29  19415155.054     -409672.903        -492.000          40.000  
G31  17446542.994    -2423590.547         919.000          45.000  
G32  17199148.416      975350.015       -1036.000          48.000  
> 2024 12 16  4  4 38.9860001  0 10                     
G 3  19573080.039    -5194325.214        1546.000          38.000  
G10  20539481.472     6899605.134       -2859.000          39.000  
G16  17505807.519    -7797312.302        2777.000          44.000  
G25  20843531.389     7024687.985       -2951.000          35.000  
G26  16334248.171    -2862742.705         603.000          47.000  
G27  20814924.469    -6723760.133        4187.000          36.000  
G28  17791191.835     -540362.172         162.000          45.000  
G29  19415248.883     -409179.881        -493.000          40.000  
G31  17446368.173    -2424509.134         918.000          45.000  
G32  17199345.809      976387.250       -1037.000          48.000  
> 2024 12 16  4  4 39.9860001  0 10                     
G 3  19572785.235    -5195870.972        1545.000          38.000  
G10  20540025.680     6902464.855       -2859.000          39.000  
G16  17505279.065    -7800089.341        2777.000          44.000  
G25  20844093.090     7027639.961       -2951.000          35.000  
G26  16334133.382    -2863346.002         603.000          47.000  
G27  20814127.647    -6727947.397        4187.000          36.000  
G28  17791160.869     -540524.983         162.000          45.000  
G29  19415342.849     -408686.157        -493.000          40.000  
G31  17446193.378    -2425427.570         918.000          45.000  
G32  17199543.316      977425.089       -1037.000          48.000  
> 2024 12 16  4  4 40.9860001  0 10                     
G 3  19572490.396    -5197416.371        1545.000          38.000  
G10  20540569.836     6905324.287       -2859.000          38.000  
G16  17504750.675    -7802866.033        2776.000          44.000  
G25  20844654.797     7030591.686       -2951.000          36.000  
G26  16334018.660    -2863948.923         602.000          47.000  
G27  20813330.781    -6732134.902        4187.000          36.000  
G28  17791129.890     -540687.869         162.000          45.000  
G29  19415436.883     -408192.042        -494.000          40.000  
G31  17446018.577    -2426346.046         918.000          45.000  
G32  17199740.900      978463.346       -1038.000          48.000  
> 2024 12 16  4  4 41.9860001  0 10                     
G 3  19572196.055    -5198961.134        1544.000          37.000  
G10  20541113.971     6908183.641       -2859.000          38.000  
G16  17504222.383    -7805642.208        2776.000          44.000  
G25  20845216.506     7033543.416       -2951.000          36.000  
G26  16333904.029    -2864551.331         602.000          47.000  
G27  20812533.886    -6736322.530        4187.000          36.000  
G28  17791098.936     -540850.614         162.000          45.000  
G29  19415531.015     -407697.364        -494.000          40.000  
G31  17445843.792    -2427264.397         918.000          45.000  
G32  17199938.584      979502.145       -1038.000          48.000  
> 2024 12 16  4  4 42.9860001  0 10                     
G 3  19571902.110    -5200505.479        1544.000          37.000  
G10  20541658.044     6911042.725       -2859.000          38.000  
G16  17503694.155    -7808418.027        2775.000          44.000  
G25  20845778.175     7036494.867       -2951.000          36.000  
G26  16333789.458    -2865153.390         602.000          47.000  
G27  20811736.951    -6740510.379        4187.000          36.000  
G28  17791067.967     -541013.445         162.000          45.000  
G29  19415625.231     -407202.191        -495.000          40.000  
G31  17445668.997    -2428182.808         918.000          44.000  
G32  17200136.349      980541.371       -1039.000          48.000  
> 2024 12 16  4  4 43.9860001  0 10                     
G 3  19571608.698    -5202048.951        1543.000          37.000  
G10  20542202.129     6913901.918       -2859.000          38.000  
G16  17503166.059    -7811193.136        2775.000          44.000  
G25  20846339.885     7039446.531       -2951.000          37.000  
G26  16333675.023    -2865754.720         601.000          46.000  
G27  20810940.038    -6744698.126        4187.000          36.000  
G28  17791037.056     -541175.965         162.000          45.000  
G29  19415719.598     -406706.212        -495.000          40.000  
G31  17445494.266    -2429100.878         918.000          45.000  
G32  17200334.260      981581.343       -1039.000          48.000  
> 2024 12 16  4  4 44.9860001  0 10                     
G 3  19571316.577    -5203592.034        1543.000          37.000  
G10  20542746.167     6916760.840       -2858.000          38.000  
G16  17502638.025    -7813967.911        2774.000          44.000  
G25  20846901.559     7042397.948       -2951.000          37.000  
G26  16333560.653    -2866355.718         601.000          46.000  
G27  20810143.064    -6748886.166        4188.000          36.000  
G28  17791006.116     -541338.602         162.000          45.000  
G29  19415814.039     -406209.853        -496.000          40.000  
G31  17445319.515    -2430019.031         918.000          45.000  
G32  17200532.241      982621.678       -1040.000          48.000  
> 2024 12 16  4  4 45.9860001  0 10                     
G 3  19571024.417    -5205133.870        1541.000          38.000  
G10  20543290.319     6919620.298       -2859.000          38.000  
G16  17502110.212    -7816741.569        2773.000          44.000  
G25  20847463.360     7045349.972       -2952.000          37.000  
G26  16333446.505    -2866955.568         599.000          46.000  
G27  20809346.203    -6753073.651        4187.000          36.000  
G28  17790975.316     -541500.473         161.000          45.000  
G29  19415908.720     -405712.248        -497.000          40.000  
G31  17445144.902    -2430936.443         917.000          45.000  
G32  17200730.458      983663.250       -1041.000          48.000  
> 2024 12 16  4  4 46.9860001  0 10                     
G 3  19570731.615    -5206674.632        1540.000          38.000  
G10  20543834.543     6922480.116       -2859.000          38.000  
G16  17501582.590    -7819514.251        2772.000          44.000  
G25  20848025.240     7048302.398       -2952.000          37.000  
G26  16333332.549    -2867554.436         598.000          46.000  
G27  20808549.415    -6757260.773        4187.000          36.000  
G28  17790944.622     -541661.799         161.000          45.000  
G29  19416003.601     -405213.576        -498.000          40.000  
G31  17444970.407    -2431853.256         916.000          45.000  
G32  17200928.862      984705.803       -1042.000          48.000  
> 2024 12 16  4  4 47.9860001  0 10                     
G 3  19570439.564    -5208214.802        1540.000          38.000  
G10  20544378.736     6925339.830       -2859.000          38.000  
G16  17501055.073    -7822286.383        2772.000          44.000  
G25  20848587.114     7051254.786       -2952.000          37.000  
G26  16333218.685    -2868152.808         598.000          46.000  
G27  20807752.594    -6761448.046        4187.000          36.000  
G28  17790913.947     -541823.018         161.000          45.000  
G29  19416098.594     -404714.342        -499.000          40.000  
G31  17444795.935    -2432769.969         916.000          45.000  
G32  17201127.373      985748.915       -1043.000          48.000  
> 2024 12 16  4  4 48.9860001  0 10                     
G 3  19570146.548    -5209754.496        1539.000          38.000  
G10  20544922.887     6928199.353       -2859.000          38.000  
G16  17500527.613    -7825058.200        2771.000          44.000  
G25  20849148.952     7054206.995       -2952.000          37.000  
G26  16333104.894    -2868750.773         597.000          46.000  
G27  20806955.750    -6765635.494        4187.000          36.000  
G28  17790883.259     -541984.290         161.000          45.000  
G29  19416193.686     -404214.607        -499.000          40.000  
G31  17444621.469    -2433686.666         916.000          45.000  
G32  17201325.971      986792.470       -1043.000          48.000  
> 2024 12 16  4  4 49.9860001  0 10                     
G 3  19569852.887    -5211293.808        1539.000          38.000  
G10  20545466.955     6931058.501       -2859.000          38.000  
G16  17500000.212    -7827829.702        2771.000          44.000  
G25  20849710.732     7057158.929       -2951.000          36.000  
G26  16332991.141    -2869348.470         597.000          46.000  
G27  20806158.832    -6769823.311        4187.000          36.000  
G28  17790852.551     -542145.683         161.000          45.000  
G29  19416288.839     -403714.526        -500.000          40.000  
G31  17444446.980    -2434603.526         916.000          45.000  
G32  17201524.627      987836.337       -1043.000          48.000  
> 2024 12 16  4  4 50.9860001  0 10                     
G 3  19569559.336    -5212832.345        1538.000          38.000  
G10  20546011.037     6933917.738       -2859.000          38.000  
G16  17499472.930    -7830600.571        2770.000          44.000  
G25  20850272.515     7060110.927       -2951.000          37.000  
G26  16332877.510    -2869945.498         597.000          45.000  
G27  20805361.937    -6774011.013        4187.000          36.000  
G28  17790821.892     -542306.798         161.000          45.000  
G29  19416384.127     -403213.721        -500.000          40.000  
G31  17444272.556    -2435520.069         916.000          45.000  
G32  17201723.414      988880.916       -1044.000          48.000  
> 2024 12 16  4  4 51.9860001  0 10                     
G 3  19569266.032    -5214370.476        1538.000          38.000  
G10  20546555.079     6936776.713       -2858.000          38.000  
G16  17498945.724    -7833371.048        2770.000          44.000  
G25  20850834.257     7063062.776       -2951.000          36.000  
G26  16332763.953    -2870542.122         596.000          45.000  
G27  20804564.975    -6778199.002        4187.000          35.000  
G28  17790791.217     -542467.986         161.000          45.000  
G29  19416479.509     -402712.441        -501.000          40.000  
G31  17444098.125    -2436436.686         916.000          45.000  
G32  17201922.280      989925.931       -1045.000          48.000  
> 2024 12 16  4  4 52.9860001  0 10                     
G 3  19568972.838    -5215908.128        1537.000          37.000  
G10  20547099.064     6939635.403       -2858.000          38.000  
G16  17498418.570    -7836141.229        2770.000          44.000  
G25  20851395.945     7066014.398       -2951.000          36.000  
G26  16332650.448    -2871138.450         596.000          45.000  
G27  20803767.877    -6782387.267        4188.000          35.000  
G28  17790760.514     -542629.282         161.000          45.000  
G29  19416574.980     -402210.697        -501.000          40.000  
G31  17443923.682    -2437353.359         916.000          45.000  
G32  17202121.208      990971.294       -1045.000          48.000  
> 2024 12 16  4  4 53.9860001  0 10                     
G 3  19568680.464    -5217445.529        1537.000          38.000  
G10  20547642.964     6942493.661       -2858.000          38.000  
G16  17497891.452    -7838911.226        2770.000          44.000  
G25  20851957.551     7068965.580       -2951.000          36.000  
G26  16332536.972    -2871734.607         596.000          45.000  
G27  20802970.705    -6786575.986        4188.000          35.000  
G28  17790729.770     -542790.784         161.000          45.000  
G29  19416670.492     -401708.764        -501.000          40.000  
G31  17443749.198    -2438270.252         916.000          45.000  
G32  17202320.176      992016.883       -1045.000          48.000  
> 2024 12 16  4  4 54.9860001  0 10                     
G 3  19568387.737    -5218982.447        1536.000          37.000  
G10  20548186.817     6945351.715       -2858.000          38.000  
G16  17497364.416    -7841680.804        2769.000          44.000  
G25  20852519.140     7071916.720       -2951.000          36.000  
G26  16332423.571    -2872330.344         595.000          45.000  
G27  20802173.512    -6790764.892        4188.000          35.000  
G28  17790699.023     -542952.302         161.000          45.000  
G29  19416766.101     -401206.344        -502.000          40.000  
G31  17443574.724    -2439187.107         916.000          45.000  
G32  17202519.231      993062.938       -1046.000          48.000  
> 2024 12 16  4  4 55.9860001  0 10                     
G 3  19568094.752    -5220518.732        1536.000          38.000  
G10  20548730.644     6948209.640       -2857.000          38.000  
G16  17496837.463    -7844449.915        2769.000          44.000  
G25  20853080.705     7074867.721       -2950.000          36.000  
G26  16332310.267    -2872925.570         595.000          45.000  
G27  20801376.334    -6794953.875        4188.000          35.000  
G28  17790668.295     -543113.728         161.000          45.000  
G29  19416861.827     -400703.331        -503.000          41.000  
G31  17443400.270    -2440103.876         916.000          45.000  
G32  17202718.386      994109.524       -1046.000          48.000  
> 2024 12 16  4  4 56.9860001  0 10                     
G 3  19567804.921    -5222054.192        1535.000          38.000  
G10  20549274.508     6951067.744       -2858.000          38.000  
G16  17496310.661    -7847218.233        2768.000          44.000  
G25  20853642.298     7077818.914       -2951.000          36.000  
G26  16332197.103    -2873520.051         594.000          45.000  
G27  20800579.172    -6799142.742        4188.000          35.000  
G28  17790637.635     -543274.823         161.000          45.000  
G29  19416957.714     -400199.463        -503.000          40.000  
G31  17443225.885    -2441020.282         916.000          45.000  
G32  17202917.691      995156.906       -1047.000          48.000  
> 2024 12 16  4  4 57.9860001  0 10                     
G 3  19567512.050    -5223589.070        1534.000          37.000  
G10  20549818.361     6953925.736       -2857.000          38.000  
G16  17495783.950    -7849986.063        2767.000          44.000  
G25  20854203.891     7080770.082       -2951.000          37.000  
G26  16332084.038    -2874113.981         593.000          44.000  
G27  20799781.993    -6803331.694        4188.000          35.000  
G28  17790607.002     -543435.767         160.000          45.000  
G29  19417053.706     -399694.990        -504.000          40.000  
G31  17443051.514    -2441936.596         916.000          45.000  
G32  17203117.106      996204.860       -1047.000          48.000  
> 2024 12 16  4  4 58.9860001  0 10                     
G 3  19567220.461    -5225123.477        1534.000          38.000  
G10  20550362.165     6956783.441       -2857.000          38.000  
G16  17495257.305    -7852753.549        2767.000          44.000  
G25  20854765.457     7083720.995       -2950.000          37.000  
G26  16331971.023    -2874707.609         593.000          44.000  
G27  20798984.787    -6807520.923        4189.000          35.000  
G28  17790576.341     -543596.866         161.000          45.000  
G29  19417149.771     -399190.116        -504.000          40.000  
G31  17442877.131    -2442852.956         916.000          45.000  
G32  17203316.594      997253.212       -1048.000          48.000  
> 2024 12 16  4  4 59.9860001  0 10                     
G 3  19566928.270    -5226657.364        1533.000          38.000  
G10  20550905.938     6959640.991       -2857.000          38.000  
G16  17494730.734    -7855520.652        2767.000          44.000  
G25  20855327.001     7086671.836       -2950.000          37.000  
G26  16331858.092    -2875300.790         593.000          44.000  
G27  20798187.549    -6811710.333        4189.000          35.000  
G28  17790545.692     -543757.904         161.000          45.000  
G29  19417245.926     -398684.701        -505.000          40.000  
G31  17442702.754    -2443769.275         916.000          45.000  
G32  17203516.164      998302.018       -1048.000          48.000  
> 2024 12 16  4  5  0.9860001  0 10                     
G 3  19566635.002    -5228190.729        1533.000          37.000  
G10  20551449.673     6962498.356       -2857.000          38.000  
G16  17494204.254    -7858287.261        2766.000          44.000  
G25  20855888.514     7089622.499       -2950.000          37.000  
G26  16331745.244    -2875893.498         592.000          44.000  
G27  20797390.303    -6815899.906        4189.000          36.000  
G28  17790515.049     -543918.917         161.000          45.000  
G29  19417342.171     -398178.750        -505.000          40.000  
G31  17442528.378    -2444685.563         916.000          45.000  
G32  17203715.830      999351.321       -1049.000          48.000  
> 2024 12 16  4  5  1.9860001  0 10                     
G 3  19566343.452    -5229723.161        1532.000          37.000  
G10  20551993.446     6965355.947       -2857.000          38.000  
G16  17493677.929    -7861053.051        2765.000          44.000  
G25  20856450.081     7092573.458       -2950.000          37.000  
G26  16331632.550    -2876485.405         591.000          44.000  
G27  20796593.088    -6820089.264        4189.000          35.000  
G28  17790484.487     -544079.516         160.000          45.000  
G29  19417438.581     -397671.936        -506.000          40.000  
G31  17442354.079    -2445601.421         915.000          45.000  
G32  17203915.668     1000401.506       -1050.000          48.000  
