     3.02           OBSERVATION DATA    G: GPS              RINEX VERSION / TYPE
convert_skytraq_raw Skytraq Corp.       20241216 141554 UTC PGM / RUN BY / DATE 
Test version 0.1                                            COMMENT             
                                                            MARKER NAME         
                                                            MARKER NUMBER       
                                                            MARKER TYPE         
Skytraq Corp.                                               OBSERVER / AGENCY   
                                                            REC # / TYPE / VERS 
                                                            ANT # / TYPE        
 -2956586.7129  5075886.9059  2476661.7715                  APPROX POSITION XYZ 
        0.0000        0.0000        0.0000                  ANTENNA: DELTA H/E/N
G    4 C1C L1C D1C S1C                                      SYS / # / OBS TYPES 
  2024    12    16     7    16   34.4619999     GPS         TIME OF FIRST OBS   
  2024    12    16     7    34   24.4619999     GPS         TIME OF LAST OBS    
                                                            END OF HEADER       
> 2024 12 16  7 16 34.4619999  0 10                     
G 4 160090304.642        4370.878        -151.000          42.000  
G 7 164086977.491      -57283.5781       3583.000          26.000  
G 8 159246902.751      -51536.103        1719.000          46.000  
G 9 161215980.208      -37067.151        1335.000          37.000  
G16 160728522.265       28714.127        -986.000          40.000  
G21 162241292.426      -72519.224        4077.000          38.000  
G26 162281578.561       23214.390       -1302.000          34.000  
G27 159048187.816       15875.747        -543.000          40.000  
G28 163823980.979       40646.9171      -2420.000          25.000  
G31 161615656.910       49146.357       -1666.000          41.000  
> 2024 12 16  7 16 35.4619999  0 10                     
G 4 160090332.937        4523.595        -152.000          43.000  
G 7 164086293.228      -60868.7241       3585.000          26.000  
G 8 159246575.642      -53255.029        1718.000          45.000  
G 9 161215726.468      -38401.472        1334.000          37.000  
G16 160728709.786       29701.224        -987.000          39.000  
G21 162240515.865      -76596.295        4077.000          38.000  
G26 162281828.256       24517.036       -1302.000          34.000  
G27 159048289.983       16419.766        -544.000          40.000  
G28 163824450.251       43067.8571      -2420.000          25.000  
G31 161615972.711       50813.077       -1666.000          41.000  
> 2024 12 16  7 16 36.4619999  0 10                     
G 4 160090362.559        4677.250        -153.000          43.000  
G 7 164085614.755      -64453.7211       3585.000          25.000  
G 8 159246248.215      -54973.045        1718.000          45.000  
G 9 161215472.302      -39734.900        1333.000          39.000  
G16 160728898.204       30688.598        -987.000          38.000  
G21 162239740.307      -80673.123        4076.000          37.000  
G26 162282077.306       25819.972       -1302.000          33.000  
G27 159048392.328       16964.732        -544.000          40.000  
G28 163824914.797       45489.4781      -2421.000          25.000  
G31 161616289.734       52480.434       -1667.000          40.000  
> 2024 12 16  7 16 37.4619999  0 10                     
G 4 160090392.643        4831.079        -153.000          42.000  
G 7 164084920.546      -68039.4541       3585.000          24.000  
G 8 159245920.962      -56690.845        1717.000          44.000  
G 9 161215218.458      -41067.996        1333.000          42.000  
G16 160729085.511       31675.792        -987.000          36.000  
G21 162238965.858      -84750.266        4077.000          37.000  
G26 162282331.795       27122.6251      -1302.000          29.000  
G27 159048494.678       17509.889        -545.000          42.000  
G28 163825379.060       47910.5641      -2421.000          25.000  
G31 161616606.394       54147.739       -1667.000          40.000  
> 2024 12 16  7 16 38.4619999  0 10                     
G 4 160090422.583        4985.637        -154.000          43.000  
G 7 164084223.044      -71624.9921       3585.000          25.000  
G 8 159245594.107      -58408.041        1717.000          44.000  
G 9 161214965.150      -42400.438        1332.000          42.000  
G16 160729273.209       32663.041        -987.000          39.000  
G21 162238189.943      -88827.338        4077.000          37.000  
G26 162282570.759       28425.3111      -1302.000          31.000  
G27 159048597.918       18055.676        -545.000          42.000  
G28 163825834.376       50332.3241      -2421.000          26.000  
G31 161616923.735       55815.441       -1667.000          40.000  
> 2024 12 16  7 16 39.4619999  0 10                     
G 4 160090453.025        5141.467        -155.000          43.000  
G 7 164083516.528      -75209.9631       3584.000          27.000  
G 8 159245266.745      -60123.938        1715.000          44.000  
G 9 161214712.340      -43731.637        1331.000          43.000  
G16 160729460.446       33650.986        -987.000          39.000  
G21 162237413.238      -92903.746        4076.000          37.000  
G26 162282818.953       29728.5501      -1303.000          31.000  
G27 159048701.982       18602.739        -547.000          42.000  
G28 163826297.352       52755.1601      -2422.000          26.000  
G31 161617240.688       57484.156       -1668.000          41.000  
> 2024 12 16  7 16 40.4619999  0 10                     
G 4 160090483.506        5297.808        -156.000          43.000  
G 7 164082826.036      -78795.0921       3585.000          26.000  
G 8 159244939.065      -61839.372        1715.000          44.000  
G 9 161214459.644      -45062.308        1330.000          43.000  
G16 160729648.040       34638.846        -987.000          38.000  
G21 162236630.238      -96980.195        4076.000          35.000  
G26 162283065.642       31031.7781      -1303.000          30.000  
G27 159048805.366       19150.213        -547.000          42.000  
G28 163826750.809       55177.7771      -2422.000          26.000  
G31 161617557.994       59153.081       -1668.000          41.000  
> 2024 12 16  7 16 41.4619999  0 10                     
G 4 160090513.839        5454.425        -156.000          43.000  
G 7 164082158.011      -82380.6651       3585.000          24.000  
G 8 159244611.633      -63554.572        1715.000          43.000  
G 9 161214206.655      -46392.745        1330.000          43.000  
G16 160729834.989       35626.419        -987.000          38.000  
G21 162235851.461     -101056.972        4076.000          36.000  
G26 162283314.622       32334.5891      -1302.000          29.000  
G27 159048909.178       19698.010        -547.000          41.000  
G28 163827233.028       57600.4001      -2422.000          26.000  
G31 161617875.012       60822.024       -1668.000          41.000  
> 2024 12 16  7 16 42.4619999  0 10                     
G 4 160090544.534        5611.448        -157.000          43.000  
G 7 164081475.180      -85967.5441       3586.000          24.000  
G 8 159244285.065      -65269.318        1714.000          43.000  
G 9 161213954.028      -47722.738        1329.000          43.000  
G16 160730023.050       36613.908        -987.000          38.000  
G21 162235077.871     -105133.933        4076.000          36.000  
G26 162283552.944       33637.2831      -1302.000          29.000  
G27 159049013.491       20246.192        -548.000          41.000  
G28 163827688.562       60023.1391      -2422.000          27.000  
G31 161618191.747       62491.060       -1669.000          41.000  
> 2024 12 16  7 16 43.4619999  0 10                     
G 4 160090575.264        5768.760        -157.000          43.000  
G 7 164080791.698      -89553.9211       3586.000          23.000  
G 8 159243958.563      -66983.843        1714.000          44.000  
G 9 161213700.681      -49052.456        1329.000          42.000  
G16 160730209.427       37601.067        -987.000          37.000  
G21 162234301.310     -109211.198        4077.000          36.000  
G26 162283799.489       34939.654       -1302.000          28.000  
G27 159049118.449       20794.631        -548.000          42.000  
G28 163828146.242       62445.6881      -2422.000          25.000  
G31 161618509.803       64160.141       -1669.000          42.000  
> 2024 12 16  7 16 44.4619999  0 10                     
G 4 160090606.491        5926.979        -158.000          43.000  
G 7 164080092.769      -93140.2431       3586.000          24.000  
G 8 159243632.637      -68697.528        1713.000          43.000  
G 9 161213447.121      -50381.285        1328.000          43.000  
G16 160730397.304       38588.607        -987.000          38.000  
G21 162233524.928     -113288.154        4076.000          37.000  
G26 162284057.626       36242.250       -1302.000          30.000  
G27 159049223.766       21343.933        -549.000          42.000  
G28 163828605.780       64868.9561      -2423.000          25.000  
G31 161618828.614       65829.844       -1669.000          41.000  
> 2024 12 16  7 16 45.4619999  0 10                     
G 4 160090637.077        6085.660        -158.000          43.000  
G 7 164079422.737      -96726.5471       3586.000          23.000  
G 8 159243306.815      -70410.750        1713.000          43.000  
G 9 161213193.992      -51709.645        1328.000          43.000  
G16 160730583.721       39575.992        -987.000          37.000  
G21 162232749.157     -117365.241        4077.000          36.000  
G26 162284304.460       37544.723       -1302.000          30.000  
G27 159049329.545       21893.680        -549.000          42.000  
G28 163829064.250       67292.0811      -2423.000          25.000  
G31 161619148.101       67499.707       -1669.000          41.000  
> 2024 12 16  7 16 46.4619999  0 10                     
G 4 160090667.772        6244.866        -159.000          43.000  
G 7 164078737.829     -100313.3771       3586.000          22.000  
G 8 159242981.674      -72123.515        1712.000          43.000  
G 9 161212939.935      -53037.503        1327.000          43.000  
G16 160730771.171       40563.326        -987.000          38.000  
G21 162231972.059     -121442.403        4077.000          36.000  
G26 162284555.730       38847.065       -1302.000          30.000  
G27 159049435.114       22443.893        -550.000          42.000  
G28 163829515.272       69715.3931      -2423.000          25.000  
G31 161619467.445       69169.805       -1670.000          42.000  
> 2024 12 16  7 16 47.4619999  0 10                     
G 4 160090698.681        6405.046        -160.000          43.000  
G 7 164078028.740     -103899.2461       3585.000          22.000  
G 8 159242656.463      -73835.268        1711.000          43.000  
G 9 161212686.339      -54364.373        1326.000          42.000  
G16 160730958.621       41551.118        -987.000          37.000  
G21 162231195.394     -125519.152        4076.000          36.000  
G26 162284797.127       40149.853       -1302.000          30.000  
G27 159049541.499       22995.077        -551.000          43.000  
G28 163829988.623       72139.3651      -2423.000          25.000  
G31 161619786.683       70840.603       -1670.000          42.000  
> 2024 12 16  7 16 48.4619999  0 10                     
G 4 160090729.267        6565.764        -160.000          43.000  
G 7 164077344.617     -107485.8471       3586.000          25.000  
G 8 159242331.143      -75546.547        1711.000          43.000  
G 9 161212433.102      -55690.720        1326.000          42.000  
G16 160731146.569       42538.838        -987.000          37.000  
G21 162230418.475     -129596.002        4076.000          36.000  
G26 162285052.904       41452.465       -1302.000          30.000  
G27 159049647.248       23546.751        -551.000          43.000  
G28 163830468.765       74563.4321      -2424.000          26.000  
G31 161620104.635       72511.670       -1671.000          41.000  
> 2024 12 16  7 16 49.4619999  0 10                     
G 4 160090759.922        6726.820        -161.000          43.000  
G 7 164076653.196     -111073.3261       3586.000          25.000  
G 8 159242006.682      -77257.477        1710.000          43.000  
G 9 161212179.258      -57016.764        1326.000          42.000  
G16 160731335.201       43526.359        -987.000          37.000  
G21 162229642.525     -133673.084        4077.000          36.000  
G26 162285305.818       42754.820       -1302.000          30.000  
G27 159049753.672       24098.766        -552.000          43.000  
G28 163830916.573       76987.6051      -2424.000          24.000  
G31 161620423.084       74182.812       -1671.000          41.000  
> 2024 12 16  7 16 50.4619999  0 10                     
G 4 160090789.937        6887.933        -161.000          43.000  
G 7 164075981.236     -114660.5571       3587.000          22.000  
G 8 159241681.541      -78968.438        1710.000          43.000  
G 9 161211925.911      -58342.701        1325.000          42.000  
G16 160731523.834       44513.378        -987.000          37.000  
G21 162228853.622     -137750.695        4077.000          36.000  
G26 162285550.793       44056.682       -1301.000          30.000  
G27 159049859.809       24650.821        -552.000          43.000  
G28 163831369.960       79411.2091      -2423.000          24.000  
G31 161620741.071       75853.692       -1670.000          41.000  
> 2024 12 16  7 16 51.4619999  0 10                     
G 4 160090820.736        7050.099        -162.000          43.000  
G 7 164075299.905     -118247.8381       3587.000          23.000  
G 8 159241356.976      -80678.345        1709.000          44.000  
G 9 161211672.460      -59667.650        1324.000          41.000  
G16 160731713.217       45500.817        -987.000          38.000  
G21 162228084.430     -141827.871        4077.000          36.000  
G26 162285799.629       45358.896       -1302.000          29.000  
G27 159049965.448       25203.832        -553.000          43.000  
G28 163831841.875       81835.6041      -2424.000          24.000  
G31 161621060.562       77525.353       -1671.000          41.000  
> 2024 12 16  7 16 52.4619999  0 10                     
G 4 160090851.754        7213.260        -163.000          43.000  
G 7 164074621.432     -121834.4521       3586.000          23.000  
G 8 159241032.476      -82387.258        1708.000          44.000  
G 9 161211419.188      -60991.557        1323.000          42.000  
G16 160731903.311       46488.750        -987.000          38.000  
G21 162227312.489     -145904.579        4076.000          36.000  
G26 162286041.742       46661.562       -1302.000          29.000  
G27 159050071.013       25757.905        -554.000          43.000  
G28 163832293.260       84260.5371      -2424.000          25.000  
G31 161621379.548       79197.777       -1672.000          42.000  
> 2024 12 16  7 16 53.4619999  0 10                     
G 4 160090882.266        7377.689        -164.000          43.000  
G 7 164073943.321     -125420.9411       3586.000          23.000  
G 8 159240708.268      -84094.959        1707.000          43.000  
G 9 161211167.062      -62314.202        1322.000          42.000  
G16 160732085.504       47477.499        -988.000          37.000  
G21 162226539.113     -149980.643        4076.000          36.000  
G26 162286293.366       47964.8611      -1303.000          30.000  
G27 159050176.543       26313.153        -555.000          43.000  
G28 163832744.431       86686.4531      -2425.000          25.000  
G31 161621699.214       80871.135       -1673.000          41.000  
> 2024 12 16  7 16 54.4619999  0 10                     
G 4 160090912.747        7543.412        -165.000          43.000  
G 7 164073243.170     -129007.1481       3586.000          25.000  
G 8 159240384.021      -85801.401        1706.000          43.000  
G 9 161210915.326      -63635.602        1321.000          42.000  
G16 160732279.751       48466.822        -989.000          34.000  
G21 162225758.761     -154056.056        4075.000          37.000  
G26 162286545.565       49268.7281      -1303.000          35.000  
G27 159050282.575       26869.682        -556.000          43.000  
G28 163833212.411       89113.2431      -2426.000          25.000  
G31 161622018.989       82545.526       -1674.000          42.000  
> 2024 12 16  7 16 55.4619999  0 10                     
G 4 160090943.830        7710.452        -167.000          43.000  
G 7 164072566.346     -132593.0501       3585.000          23.000  
G 8 159240059.561      -87506.556        1705.000          44.000  
G 9 161210664.806      -64955.683        1320.000          42.000  
G16 160732470.207       49456.868        -990.000          33.000  
G21 162224985.847     -158130.699        4074.000          34.000  
G26 162286797.053       50573.350       -1304.000          33.000  
G27 159050388.712       27427.493        -557.000          43.000  
G28 163833676.888       91540.986       -2427.000          25.000  
G31 161622338.442       84220.935       -1675.000          42.000  
> 2024 12 16  7 16 56.4619999  0 10                     
G 4 160090974.669        7878.484        -168.000          43.000  
G 7 164071888.449     -136178.1161       3585.000          24.000  
G 8 159239734.310      -89210.746        1704.000          44.000  
G 9 161210414.648      -66274.765        1319.000          42.000  
G16 160732660.375       50447.426        -990.000          35.000  
G21 162224214.617     -162204.964        4074.000          36.000  
G26 162287045.387       51878.381       -1305.000          35.000  
G27 159050494.316       27986.288        -558.000          44.000  
G28 163834142.224       93969.1681      -2428.000          26.000  
G31 161622658.038       85897.088       -1676.000          42.000  
> 2024 12 16  7 16 57.4619999  0 10                     
G 4 160091006.865        8046.932        -168.000          43.000  
G 7 164071227.077     -139763.6361       3585.000          25.000  
G 8 159239409.885      -90914.524        1703.000          43.000  
G 9 161210165.132      -67593.417        1318.000          42.000  
G16 160732853.087       51437.742        -990.000          36.000  
G21 162223441.171     -166279.344        4074.000          37.000  
G26 162287289.428       53183.248       -1304.000          32.000  
G27 159050600.597       28545.467        -559.000          43.000  
G28 163834600.903       96397.5441      -2428.000          24.000  
G31 161622976.417       87573.307       -1676.000          41.000  
> 2024 12 16  7 16 58.4619999  0 10                     
G 4 160091038.772        8215.840        -168.000          43.000  
G 7 164070549.825     -143349.2321       3585.000          25.000  
G 8 159239085.175      -92617.897        1703.000          43.000  
G 9 161209914.970      -68911.686        1318.000          42.000  
G16 160733042.360       52428.021        -990.000          38.000  
G21 162222669.370     -170353.892        4074.000          37.000  
G26 162287541.558       54487.872       -1304.000          34.000  
G27 159050706.127       29105.074        -559.000          43.000  
G28 163835048.780       98826.0251      -2428.000          24.000  
G31 161623295.586       89249.771       -1676.000          42.000  
> 2024 12 16  7 16 59.4619999  0 10                     
G 4 160091070.397        8385.156        -169.000          43.000  
G 7 164069863.700     -146934.7761       3585.000          24.000  
G 8 159238760.322      -94320.886        1702.000          43.000  
G 9 161209665.345      -70229.481        1317.000          42.000  
G16 160733230.596       53418.132        -990.000          38.000  
G21 162221895.920     -174428.637        4074.000          37.000  
G26 162287790.036       55792.368       -1304.000          34.000  
G27 159050811.478       29665.077        -559.000          43.000  
G28 163835521.341      101254.4941      -2428.000          24.000  
G31 161623614.607       90926.331       -1676.000          42.000  
> 2024 12 16  7 17  0.4619999  0 10                     
G 4 160091101.986        8555.612        -170.000          43.000  
G 7 164069191.954     -150520.5001       3585.000          24.000  
G 8 159238435.643      -96022.742        1701.000          43.000  
G 9 161209415.724      -71546.197        1316.000          42.000  
G16 160733420.873       54408.782        -990.000          38.000  
G21 162221121.793     -178502.808        4074.000          37.000  
G26 162288040.734       57097.394       -1305.000          34.000  
G27 159050917.152       30226.152        -561.000          43.000  
G28 163835981.381      103683.5781      -2429.000          24.000  
G31 161623933.488       92603.746       -1677.000          42.000  
> 2024 12 16  7 17  1.4619999  0 10                     
G 4 160091134.574        8726.668        -171.000          43.000  
G 7 164068501.606     -154106.209        3585.000          25.000  
G 8 159238111.183      -97724.047        1701.000          43.000  
G 9 161209165.775      -72862.269        1316.000          42.000  
G16 160733610.007       55399.492        -990.000          38.000  
G21 162220348.740     -182577.042        4074.000          37.000  
G26 162288286.782       58402.313       -1304.000          34.000  
G27 159051023.005       30787.785        -561.000          42.000  
G28 163836437.848      106112.9741      -2429.000          23.000  
G31 161624252.726       94281.509       -1677.000          42.000  
> 2024 12 16  7 17  2.4619999  0 10                     
G 4 160091166.591        8898.250        -171.000          42.000  
G 7 164067807.899     -157692.2561       3586.000          23.000  
G 8 159237786.543      -99424.805        1700.000          43.000  
G 9 161208916.115      -74177.815        1315.000          43.000  
G16 160733798.566       56390.180        -990.000          38.000  
G21 162219574.002     -186651.241        4074.000          37.000  
G26 162288537.978       59707.211       -1304.000          35.000  
G27 159051129.107       31350.016        -562.000          43.000  
G28 163836892.164      108542.6381      -2429.000          24.000  
G31 161624571.677       95959.531       -1678.000          41.000  
> 2024 12 16  7 17  3.4619999  0 10                     
G 4 160091199.646        9070.063        -171.000          43.000  
G 7 164067110.182     -161278.6641       3586.000          24.000  
G 8 159237461.441     -101125.443        1700.000          43.000  
G 9 161208666.922      -75493.187        1315.000          43.000  
G16 160733987.447       57380.546        -990.000          38.000  
G21 162218797.729     -190725.893        4074.000          37.000  
G26 162288781.950       61011.676       -1304.000          34.000  
G27 159051235.353       31912.346        -562.000          43.000  
G28 163837364.223      110971.9981      -2429.000          23.000  
G31 161624889.808       97637.454       -1677.000          41.000  
> 2024 12 16  7 17  4.4619999  0 10                     
G 4 160091233.272        9242.244        -172.000          43.000  
G 7 164066442.157     -164864.5521       3585.000          23.000  
G 8 159237137.085     -102825.635        1700.000          43.000  
G 9 161208416.943      -76808.104        1314.000          42.000  
G16 160734177.078       58370.742        -990.000          36.000  
G21 162218022.063     -194800.682        4074.000          37.000  
G26 162289031.859       62316.096       -1304.000          33.000  
G27 159051342.493       32475.104        -562.000          43.000  
G28 163837822.047      113401.5551      -2429.000          23.000  
G31 161625208.366       99315.546       -1678.000          42.000  
> 2024 12 16  7 17  5.4619999  0 10                     
G 4 160091266.864        9415.106        -172.000          43.000  
G 7 164065733.133     -168451.4161       3586.000          22.000  
G 8 159236812.123     -104525.270        1699.000          43.000  
G 9 161208168.247      -78122.426        1314.000          43.000  
G16 160734367.604       59360.945        -990.000          36.000  
G21 162217247.186     -198875.451        4074.000          37.000  
G26 162289277.261       63620.302       -1304.000          33.000  
G27 159051449.737       33038.440        -563.000          43.000  
G28 163838284.735      115832.6391      -2431.000          22.000  
G31 161625527.853      100993.963       -1678.000          41.000  
> 2024 12 16  7 17  6.4619999  0 10                     
G 4 160091300.704        9588.544        -173.000          43.000  
G 7 164065056.811     -172036.9661       3585.000          22.000  
G 8 159236487.697     -106224.291        1699.000          43.000  
G 9 161207918.408      -79436.131        1313.000          43.000  
G16 160734555.094       60351.201        -990.000          35.000  
G21 162216470.590     -202950.200        4074.000          37.000  
G26 162289527.244       64924.583       -1304.000          33.000  
G27 159051557.737       33602.394        -563.000          43.000  
G28 163838753.858      118262.4321      -2429.000          21.000  
G31 161625847.201      102672.711       -1678.000          41.000  
> 2024 12 16  7 17  7.4619999  0 10                     
G 4 160091334.580        9762.299        -173.000          43.000  
G 7 164064375.192     -175623.7251       3587.000          23.000  
G 8 159236164.310     -107923.075        1698.000          43.000  
G 9 161207668.713      -80749.581        1313.000          43.000  
G16 160734724.260       61341.212        -990.000          36.000  
G21 162215684.157     -207025.154        4074.000          37.000  
G26 162289774.435       66228.539       -1303.000          33.000  
G27 159051665.095       34166.590        -564.000          43.000  
G28 163839187.431      120692.7251      -2429.000          20.000  
G31 161626166.544      104351.482       -1678.000          41.000  
> 2024 12 16  7 17  8.4619999  0 10                     
G 4 160091369.066        9936.146        -173.000          44.000  
G 7 164063676.904     -179211.4961       3587.000          23.000  
G 8 159235841.389     -109621.730        1698.000          43.000  
G 9 161207418.769      -82062.920        1313.000          42.000  
G16 160734924.877       62330.776        -989.000          35.000  
G21 162214918.581     -211100.649        4075.000          38.000  
G26 162290023.057       67531.913       -1303.000          32.000  
G27 159051773.129       34730.821        -564.000          43.000  
G28 163839650.546      123122.2331      -2429.000          23.000  
G31 161626485.962      106030.055       -1678.000          41.000  
> 2024 12 16  7 17  9.4619999  0 10                     
G 4 160091403.338       10110.729        -174.000          43.000  
G 7 164063004.587     -182799.5011       3588.000          23.000  
G 8 159235518.002     -111319.724        1697.000          43.000  
G 9 161207168.323      -83375.512        1312.000          43.000  
G16 160735116.978       63320.416        -989.000          37.000  
G21 162214143.058     -215176.029        4075.000          37.000  
G26 162290271.893       68835.551       -1303.000          33.000  
G27 159051881.342       35295.824        -564.000          43.000  
G28 163840109.583      125551.5441      -2429.000          22.000  
G31 161626804.664      107709.116       -1679.000          41.000  
> 2024 12 16  7 17 10.4619999  0 10                     
G 4 160091437.606       10286.170        -175.000          43.000  
G 7 164062312.166     -186387.4021       3587.000          21.000  
G 8 159235194.898     -113016.874        1697.000          43.000  
G 9 161206918.087      -84687.246        1311.000          43.000  
G16 160735302.425       64310.447        -990.000          39.000  
G21 162213368.177     -219251.100        4075.000          37.000  
G26 162290517.797       70139.383       -1303.000          35.000  
G27 159051989.590       35861.621        -565.000          43.000  
G28 163840578.069      127981.8591      -2430.000          21.000  
G31 161627123.867      109388.725       -1679.000          41.000  
> 2024 12 16  7 17 11.4619999  0 10                     
G 4 160091471.948       10462.269        -176.000          43.000  
G 7 164061613.089     -189974.9281       3587.000          23.000  
G 8 159234872.121     -114713.404        1696.000          43.000  
G 9 161206667.964      -85998.353        1311.000          43.000  
G16 160735488.872       65300.554        -990.000          39.000  
G21 162212592.336     -223326.137        4075.000          37.000  
G26 162290766.777       71443.257       -1303.000          36.000  
G27 159052098.445       36428.066        -566.000          43.000  
G28 163841034.890      130412.4871      -2430.000          19.000  
G31 161627443.677      111068.718       -1679.000          41.000  
> 2024 12 16  7 17 12.4619999  0 10                     
G 4 160091505.932       10638.670        -176.000          43.000  
G 7 164060924.673     -193563.3061       3588.000          23.000  
G 8 159234550.304     -116409.666        1696.000          43.000  
G 9 161206418.125      -87309.135        1310.000          43.000  
G16 160735676.610       66290.377        -989.000          39.000  
G21 162211816.600     -227401.484        4075.000          37.000  
G26 162291013.684       72746.773       -1303.000          36.000  
G27 159052206.946       36994.771        -566.000          43.000  
G28 163841507.594      132845.0681      -2432.000          22.000  
G31 161627763.523      112748.751       -1680.000          41.000  
> 2024 12 16  7 17 13.4619999  0 10                     
G 4 160091539.559       10815.923        -177.000          43.000  
G 7 164060222.450     -197151.6451       3588.000          21.000  
G 8 159234228.278     -118105.084        1695.000          43.000  
G 9 161206168.465      -88619.067        1309.000          43.000  
G16 160735864.274       67280.545        -990.000          39.000  
G21 162211042.290     -231476.518        4075.000          36.000  
G26 162291261.805       74050.539       -1303.000          35.000  
G27 159052315.944       37562.344        -567.000          43.000  
G28 163841977.079      135275.5321      -2430.000          22.000  
G31 161628083.621      114429.354       -1680.000          41.000  
> 2024 12 16  7 17 14.4619999  0 10                     
G 4 160091572.400       10994.043        -178.000          42.000  
G 7 164059519.512     -200739.7001       3588.000          20.000  
G 8 159233906.287     -119799.635        1694.000          43.000  
G 9 161205918.805      -89928.134        1309.000          43.000  
G16 160736052.549       68270.980        -990.000          39.000  
G21 162210267.413     -235551.298        4074.000          37.000  
G26 162291511.286       75354.575       -1304.000          35.000  
G27 159052424.589       38130.713        -568.000          43.000  
G28 163842436.330      137706.9911      -2431.000          21.000  
G31 161628403.823      116110.547       -1681.000          41.000  
> 2024 12 16  7 17 15.4619999  0 10                     
G 4 160091605.490       11172.682        -178.000          42.000  
G 7 164058825.517     -204320.8171       3581.000          18.000  
G 8 159233585.150     -121493.754        1694.000          43.000  
G 9 161205669.363      -91236.758        1308.000          43.000  
G16 160736241.142       69261.333        -990.000          39.000  
G21 162209493.430     -239626.188        4074.000          38.000  
G26 162291759.838       76658.487       -1303.000          35.000  
G27 159052533.125       38699.528        -568.000          43.000  
G28 163842894.442      140138.5071      -2431.000          24.000  
G31 161628724.528      117791.919       -1681.000          42.000  
> 2024 12 16  7 17 16.4619999  0  9                     
G 4 160091638.506       11351.637        -178.000          42.000  
G 8 159233263.621     -123187.547        1693.000          43.000  
G 9 161205420.239      -92544.995        1308.000          43.000  
G16 160736430.024       70251.514        -990.000          39.000  
G21 162208719.160     -243701.302        4075.000          38.000  
G26 162292007.169       77962.195       -1303.000          35.000  
G27 159052641.801       39268.693        -569.000          43.000  
G28 163843354.765      142570.6011      -2432.000          22.000  
G31 161629045.197      119473.408       -1681.000          42.000  
> 2024 12 16  7 17 17.4619999  0 10                     
G 4 160091671.849       11531.192        -179.000          42.000  
G 7 164057451.260     -211478.8241       3574.000          20.000  
G 8 159232942.276     -124880.771        1693.000          43.000  
G 9 161205171.115      -93852.653        1307.000          42.000  
G16 160736618.800       71241.672        -990.000          39.000  
G21 162207942.743     -247776.436        4075.000          38.000  
G26 162292253.649       79265.758       -1303.000          35.000  
G27 159052750.014       39838.449        -569.000          43.000  
G28 163843834.197      145002.2901      -2431.000          24.000  
G31 161629365.758      121155.170       -1681.000          42.000  
> 2024 12 16  7 17 18.4619999  0 10                     
G 4 160091705.118       11711.190        -179.000          42.000  
G 7 164056763.132     -215065.4991       3586.000          20.000  
G 8 159232621.213     -126573.560        1692.000          43.000  
G 9 161204922.066      -95159.895        1307.000          42.000  
G16 160736807.214       72231.705        -990.000          39.000  
G21 162207167.936     -251851.702        4075.000          38.000  
G26 162292500.338       80569.212       -1303.000          35.000  
G27 159052858.803       40408.546        -570.000          43.000  
G28 163844311.910      147434.0661      -2431.000          23.000  
G31 161629686.000      122837.116       -1681.000          41.000  
> 2024 12 16  7 17 19.4619999  0 10                     
G 4 160091737.920       11891.764        -180.000          42.000  
G 7 164056094.178     -218656.2331       3590.000          20.000  
G 8 159232299.719     -128265.818        1692.000          44.000  
G 9 161204673.226      -96466.550        1306.000          42.000  
G16 160736995.524       73221.764        -990.000          40.000  
G21 162206393.377     -255926.973        4075.000          38.000  
G26 162292749.318       81872.635       -1303.000          34.000  
G27 159052967.156       40979.252        -570.000          43.000  
G28 163844759.857      149866.6731      -2432.000          25.000  
G31 161630007.564      124519.353       -1682.000          42.000  
> 2024 12 16  7 17 20.4619999  0 10                     
G 4 160091770.726       12072.642        -180.000          42.000  
G 7 164055433.378     -222246.2441       3590.000          21.000  
G 8 159231979.015     -129957.831        1692.000          44.000  
G 9 161204424.604      -97772.955        1306.000          42.000  
G16 160737184.514       74211.520        -989.000          39.000  
G21 162205619.107     -260002.532        4075.000          38.000  
G26 162292995.004       83175.711       -1303.000          34.000  
G27 159053075.443       41550.171        -570.000          43.000  
G28 163845226.052      152298.5051      -2431.000          25.000  
G31 161630328.875      126201.571       -1682.000          42.000  
> 2024 12 16  7 17 21.4619999  0 10                     
G 4 160091804.065       12254.230        -181.000          41.000  
G 7 164054763.420     -225833.5931       3587.000          22.000  
G 8 159231658.022     -131649.105        1691.000          44.000  
G 9 161204175.838      -99078.565        1305.000          43.000  
G16 160737373.395       75201.469        -989.000          40.000  
G21 162204843.872     -264077.938        4075.000          38.000  
G26 162293243.129       84478.907       -1303.000          34.000  
G27 159053183.979       42121.837        -571.000          43.000  
G28 163845694.032      154730.7891      -2432.000          25.000  
G31 161630649.544      127884.273       -1682.000          42.000  
> 2024 12 16  7 17 22.4619999  0 10                     
G 4 160091838.442       12437.047        -182.000          42.000  
G 7 164054106.201     -229419.2631       3585.000          23.000  
G 8 159231336.712     -133339.207        1690.000          44.000  
G 9 161203927.255     -100383.000        1304.000          43.000  
G16 160737562.421       76192.049        -990.000          39.000  
G21 162204068.529     -268152.745        4074.000          38.000  
G26 162293494.111       85782.723       -1303.000          34.000  
G27 159053292.192       42694.675        -572.000          43.000  
G28 163846155.434      157165.4191      -2434.000          24.000  
G31 161630970.070      129567.886       -1683.000          42.000  
> 2024 12 16  7 17 23.4619999  0 10                     
G 4 160091873.464       12620.458        -183.000          42.000  
G 7 164053397.609     -233009.1041       3589.000          23.000  
G 8 159231015.471     -135028.732        1689.000          44.000  
G 9 161203679.706     -101686.820        1303.000          43.000  
G16 160737750.944       77182.700        -990.000          40.000  
G21 162203293.220     -272227.527        4074.000          38.000  
G26 162293743.234       87086.481       -1303.000          35.000  
G27 159053400.227       43268.122        -573.000          43.000  
G28 163846619.836      159598.6651      -2433.000          25.000  
G31 161631291.560      131251.848       -1683.000          41.000  
> 2024 12 16  7 17 24.4619999  0 10                     
G 4 160091907.985       12804.816        -184.000          41.000  
G 7 164052688.589     -236597.2631       3588.000          22.000  
G 8 159230693.872     -136717.344        1688.000          44.000  
G 9 161203431.870     -102989.710        1302.000          43.000  
G16 160737939.433       78173.672        -990.000          40.000  
G21 162202518.055     -276301.970        4074.000          38.000  
G26 162293991.856       88390.559       -1304.000          35.000  
G27 159053508.331       43842.438        -574.000          43.000  
G28 163847077.660      162032.5131      -2433.000          25.000  
G31 161631612.124      132936.455       -1684.000          41.000  
> 2024 12 16  7 17 25.4619999  0 10                     
G 4 160091943.937       12989.680        -184.000          42.000  
G 7 164052051.259     -240188.0601       3590.000          21.000  
G 8 159230372.417     -138405.449        1688.000          44.000  
G 9 161203184.247     -104292.103        1302.000          43.000  
G16 160738128.314       79164.644        -990.000          39.000  
G21 162201742.999     -280376.459        4074.000          38.000  
G26 162294238.834       89694.595       -1304.000          35.000  
G27 159053616.509       44417.221        -574.000          43.000  
G28 163847541.491      164465.9181      -2433.000          24.000  
G31 161631932.720      134621.313       -1684.000          41.000  
> 2024 12 16  7 17 26.4619999  0 10                     
G 4 160091979.426       13175.920        -186.000          41.000  
G 7 164051343.954     -243779.5481       3591.000          22.000  
G 8 159230051.102     -140092.238        1686.000          44.000  
G 9 161202937.130     -105593.144        1301.000          42.000  
G16 160738316.907       80156.382        -991.000          39.000  
G21 162200968.157     -284450.200        4073.000          38.000  
G26 162294483.948       90999.331       -1304.000          35.000  
G27 159053724.221       44993.340        -576.000          42.000  
G28 163848018.131      166900.0911      -2434.000          25.000  
G31 161632253.961      136307.203       -1685.000          41.000  
> 2024 12 16  7 17 27.4619999  0 10                     
G 4 160092015.269       13362.729        -186.000          41.000  
G 7 164050672.282     -247369.5411       3589.000          22.000  
G 8 159229729.573     -141778.468        1686.000          43.000  
G 9 161202690.187     -106893.593        1300.000          42.000  
G16 160738505.858       81148.138        -991.000          39.000  
G21 162200192.634     -288523.948        4073.000          37.000  
G26 162294735.576       92304.063       -1304.000          34.000  
G27 159053832.900       45570.044        -576.000          41.000  
G28 163848476.313      169335.1841      -2435.000          23.000  
G31 161632574.883      137993.448       -1686.000          40.000  
> 2024 12 16  7 17 28.4619999  0 10                     
G 4 160092051.867       13550.756        -188.000          41.000  
G 7 164050001.321     -250954.4191       3584.000          23.000  
G 8 159229408.476     -143463.508        1685.000          44.000  
G 9 161202443.424     -108192.798        1299.000          42.000  
G16 160738694.346       82140.547        -992.000          39.000  
G21 162199418.006     -292597.022        4073.000          37.000  
G26 162294988.848       93609.404       -1305.000          35.000  
G27 159053942.152       46147.941        -577.000          42.000  
G28 163848956.529      171771.0361      -2435.000          25.000  
G31 161632896.517      139680.601       -1687.000          41.000  
> 2024 12 16  7 17 29.4619999  0 10                     
G 4 160092088.495       13739.958        -189.000          41.000  
G 7 164049349.399     -254540.4001       3585.000          23.000  
G 8 159229088.238     -145147.395        1683.000          43.000  
G 9 161202197.022     -109490.892        1298.000          42.000  
G16 160738882.730       83133.546        -992.000          38.000  
G21 162198643.413     -296669.536        4072.000          37.000  
G26 162295236.397       94915.293       -1305.000          34.000  
G27 159054051.364       46726.938        -578.000          41.000  
G28 163849419.859      174207.8581      -2436.000          24.000  
G31 161633217.187      141368.658       -1688.000          40.000  
> 2024 12 16  7 17 30.4619999  0 10                     
G 4 160092124.699       13929.822        -189.000          42.000  
G 7 164048673.002     -258127.8871       3587.000          24.000  
G 8 159228767.817     -146830.632        1683.000          44.000  
G 9 161201950.760     -110788.276        1297.000          43.000  
G16 160739072.004       84126.713        -993.000          39.000  
G21 162197866.603     -300741.939        4072.000          38.000  
G26 162295481.442       96221.263       -1305.000          35.000  
G27 159054161.510       47306.626        -579.000          42.000  
G28 163849859.796      176644.2781      -2436.000          22.000  
G31 161633537.891      143057.141       -1688.000          41.000  
> 2024 12 16  7 17 31.4619999  0 10                     
G 4 160092161.650       14120.270        -190.000          43.000  
G 7 164047986.445     -261716.1761       3588.000          25.000  
G 8 159228447.257     -148513.332        1682.000          44.000  
G 9 161201704.071     -112085.105        1296.000          42.000  
G16 160739259.738       85119.852        -993.000          38.000  
G21 162197091.796     -304814.395        4072.000          38.000  
G26 162295730.496       97527.145       -1305.000          36.000  
G27 159054271.800       47886.839        -580.000          42.000  
G28 163850330.499      179082.0941      -2437.000          23.000  
G31 161633858.953      144745.880       -1688.000          41.000  
> 2024 12 16  7 17 32.4619999  0 10                     
G 4 160092198.571       14311.094        -190.000          43.000  
G 7 164047317.491     -265303.2241       3587.000          26.000  
G 8 159228126.801     -150195.695        1682.000          44.000  
G 9 161201457.914     -113381.572        1296.000          42.000  
G16 160739448.261       86112.748        -992.000          40.000  
G21 162196315.523     -308887.045        4072.000          38.000  
G26 162295971.104       98832.829       -1305.000          35.000  
G27 159054382.517       48467.384        -580.000          42.000  
G28 163850782.882      181519.3751      -2437.000          20.000  
G31 161634179.479      146434.688       -1688.000          41.000  
> 2024 12 16  7 17 33.4619999  0 10                     
G 4 160092235.596       14502.244        -191.000          43.000  
G 7 164046631.867     -268892.2081       3588.000          26.000  
G 8 159227806.349     -151877.739        1682.000          44.000  
G 9 161201210.832     -114677.693        1296.000          42.000  
G16 160739636.929       87105.447        -992.000          39.000  
G21 162195539.713     -312959.906        4072.000          38.000  
G26 162296225.593      100138.186       -1305.000          35.000  
G27 159054493.950       49048.247        -580.000          42.000  
G28 163851208.580      183961.8791      -2442.000          19.000  
G31 161634499.324      148123.577       -1688.000          41.000  
> 2024 12 16  7 17 34.4619999  0 10                     
G 4 160092272.511       14694.023        -191.000          43.000  
G 7 164045939.661     -272481.1921       3588.000          26.000  
G 8 159227486.286     -153559.189        1681.000          44.000  
G 9 161200964.143     -115973.204        1295.000          42.000  
G16 160739823.738       88098.207        -992.000          39.000  
G21 162194764.046     -317032.783        4072.000          37.000  
G26 162296474.717      101443.604       -1305.000          35.000  
G27 159054606.098       49629.713        -581.000          43.000  
G28 163851666.047      186398.8811      -2436.000          20.000  
G31 161634818.885      149812.792       -1689.000          40.000  
> 2024 12 16  7 17 35.4619999  0 10                     
G 4 160092309.824       14886.695        -192.000          43.000  
G 7 164045265.411     -276070.1911       3589.000          26.000  
G 8 159227165.795     -155239.755        1680.000          44.000  
G 9 161200717.558     -117267.814        1294.000          42.000  
G16 160740011.436       89091.304        -993.000          39.000  
G21 162193987.525     -321105.325        4072.000          37.000  
G26 162296723.409      102749.247       -1305.000          35.000  
G27 159054717.958       50212.068        -582.000          43.000  
G28 163852168.587      188837.3861      -2438.000          22.000  
G31 161635139.337      151502.659       -1689.000          40.000  
> 2024 12 16  7 17 36.4619999  0 10                     
G 4 160092347.172       15080.145        -193.000          43.000  
G 7 164044595.453     -279659.0311       3588.000          26.000  
G 8 159226845.916     -156919.592        1679.000          44.000  
G 9 161200470.834     -118561.646        1293.000          42.000  
G16 160740199.960       90084.599        -993.000          39.000  
G21 162193211.535     -325177.695        4072.000          37.000  
G26 162296972.820      104055.089       -1305.000          35.000  
G27 159054829.962       50795.119        -583.000          43.000  
G28 163852654.095      191277.6081      -2440.000          21.000  
G31 161635459.793      153193.019       -1690.000          40.000  
> 2024 12 16  7 17 37.4619999  0 10                     
G 4 160092384.625       15273.894        -193.000          43.000  
G 7 164043908.255     -283248.2451       3588.000          25.000  
G 8 159226526.105     -158599.122        1679.000          44.000  
G 9 161200224.319     -119855.196        1293.000          42.000  
G16 160740389.234       91077.636        -993.000          39.000  
G21 162192435.227     -329250.339        4072.000          36.000  
G26 162297223.728      105360.584       -1305.000          35.000  
G27 159054942.542       51378.498        -583.000          42.000  
G28 163853108.412      193716.4201      -2438.000          20.000  
G31 161635780.641      154883.402       -1690.000          40.000  
> 2024 12 16  7 17 38.4619999  0 10                     
G 4 160092422.758       15468.828        -194.000          43.000  
G 7 164043220.127     -286836.9881       3588.000          26.000  
G 8 159226206.793     -160277.508        1678.000          44.000  
G 9 161199978.131     -121147.571        1292.000          42.000  
G16 160740578.691       92071.309        -993.000          38.000  
G21 162191659.417     -333322.335        4072.000          36.000  
G26 162297469.349      106666.683       -1306.000          35.000  
G27 159055053.722       51962.975        -584.000          42.000  
G28 163853539.118      196154.7351      -2438.000          21.000  
G31 161636101.058      156574.671       -1691.000          40.000  
> 2024 12 16  7 17 39.4619999  0 10                     
G 4 160092460.354       15664.080        -195.000          43.000  
G 7 164042540.511     -290426.1161       3589.000          25.000  
G 8 159225887.022     -161955.589        1678.000          44.000  
G 9 161199731.298     -122439.570        1292.000          42.000  
G16 160740766.425       93064.707        -993.000          39.000  
G21 162190882.821     -337394.594        4072.000          36.000  
G26 162297715.750      107972.479       -1305.000          35.000  
G27 159055165.513       52547.787        -584.000          42.000  
G28 163853991.432      198595.9451      -2441.000          19.000  
G31 161636421.370      158265.982       -1691.000          40.000  
> 2024 12 16  7 17 40.4619999  0 10                     
G 4 160092497.811       15860.084        -195.000          42.000  
G 7 164041851.023     -294014.8801       3588.000          25.000  
G 8 159225567.748     -163632.974        1677.000          44.000  
G 9 161199483.963     -123730.887        1291.000          42.000  
G16 160740955.485       94058.279        -993.000          39.000  
G21 162190106.012     -341466.710        4072.000          36.000  
G26 162297968.739      109278.384       -1305.000          35.000  
G27 159055277.342       53133.282        -585.000          43.000  
G28 163854517.870      201035.2231      -2439.000          19.000  
G31 161636742.183      159957.752       -1691.000          40.000  
> 2024 12 16  7 17 41.4619999  0 10                     
G 4 160092535.194       16056.554        -196.000          43.000  
G 7 164041171.908     -297604.3221       3589.000          26.000  
G 8 159225248.614     -165309.896        1676.000          44.000  
G 9 161199237.736     -125021.712        1290.000          42.000  
G16 160741144.475       95051.782        -993.000          39.000  
G21 162189330.419     -345538.921        4072.000          36.000  
G26 162298221.798      110584.166       -1305.000          35.000  
G27 159055389.098       53719.268        -585.000          43.000  
G28 163854969.037      203474.3351      -2439.000          20.000  
G31 161637063.101      161649.729       -1691.000          39.000  
> 2024 12 16  7 17 42.4619999  0 10                     
G 4 160092571.538       16253.339        -196.000          42.000  
G 7 164040488.928     -301194.2391       3589.000          25.000  
G 8 159224930.056     -166986.523        1676.000          44.000  
G 9 161198991.548     -126312.233        1290.000          42.000  
G16 160741333.783       96045.030        -993.000          39.000  
G21 162188554.718     -349611.417        4072.000          36.000  
G26 162298472.527      111889.649       -1305.000          36.000  
G27 159055500.635       54305.515        -586.000          42.000  
G28 163855433.514      205914.6721      -2440.000          19.000  
G31 161637384.203      163341.744       -1692.000          39.000  
> 2024 12 16  7 17 43.4619999  0 10                     
G 4 160092608.171       16451.371        -198.000          42.000  
G 7 164039805.238     -304783.563        3589.000          25.000  
G 8 159224610.857     -168661.954        1675.000          44.000  
G 9 161198745.286     -127601.539        1289.000          42.000  
G16 160741523.489       97038.924        -993.000          39.000  
G21 162187780.229     -353683.282        4071.000          37.000  
G26 162298713.602      113195.769       -1306.000          36.000  
G27 159055611.998       54892.952        -587.000          42.000  
G28 163855911.440      208356.7921      -2442.000          17.000  
G31 161637706.015      165034.741       -1692.000          39.000  
> 2024 12 16  7 17 44.4619999  0 10                     
G 4 160092644.550       16650.784        -199.000          42.000  
G 7 164039119.610     -308372.0481       3588.000          25.000  
G 8 159224292.011     -170336.002        1674.000          44.000  
G 9 161198499.596     -128889.427        1287.000          42.000  
G16 160741713.051       98033.680        -994.000          37.000  
G21 162187006.281     -357754.300        4071.000          37.000  
G26 162298962.442      114502.649       -1306.000          35.000  
G27 159055723.252       55481.781        -588.000          43.000  
G28 163856323.976      210794.9231      -2438.000          17.000  
G31 161638027.898      166728.812       -1694.000          40.000  
> 2024 12 16  7 17 45.4619999  0 10                     
G 4 160092681.361       16850.271        -199.000          42.000  
G 7 164038415.956     -311960.5711       3588.000          24.000  
G 8 159223973.810     -172010.022        1674.000          44.000  
G 9 161198254.983     -130177.269        1287.000          42.000  
G16 160741902.682       99027.910        -994.000          38.000  
G21 162186231.832     -361825.843        4071.000          37.000  
G26 162299213.424      115809.025       -1306.000          37.000  
G27 159055834.685       56070.627        -588.000          43.000  
G28 163856774.999      213239.0511      -2444.000          15.000  
G31 161638349.715      168422.654       -1693.000          40.000  
> 2024 12 16  7 17 46.4619999  0 10                     
G 4 160092718.064       17049.813        -199.000          42.000  
G 7 164037744.498     -315550.5591       3589.000          24.000  
G 8 159223655.536     -173684.030        1674.000          44.000  
G 9 161198010.222     -131465.045        1287.000          43.000  
G16 160742092.781      100021.632        -993.000          39.000  
G21 162185457.313     -365897.940        4072.000          36.000  
G26 162299462.796      117114.786       -1305.000          36.000  
G27 159055946.401       56659.492        -588.000          43.000  
G28 163857247.346      215677.4401      -2438.000          16.000  
G31 161638672.352      170116.292       -1693.000          41.000  
> 2024 12 16  7 17 47.4619999  0 10                     
G 4 160092755.232       17249.954        -200.000          42.000  
G 7 164037053.076     -319140.6771       3590.000          24.000  
G 8 159223337.410     -175357.438        1673.000          44.000  
G 9 161197765.928     -132752.226        1287.000          43.000  
G16 160742282.805      101015.404        -993.000          39.000  
G21 162184683.151     -369970.016        4072.000          36.000  
G26 162299707.876      118420.591       -1305.000          36.000  
G27 159056058.087       57248.930        -589.000          42.000  
G28 163857749.598      218113.4401      -2435.000          17.000  
G31 161638994.452      171810.276       -1693.000          40.000  
> 2024 12 16  7 17 48.4619999  0 10                     
G 4 160092792.223       17450.987        -201.000          42.000  
G 7 164036363.304     -322730.6931       3590.000          22.000  
G 8 159223019.746     -177029.954        1672.000          45.000  
G 9 161197521.638     -134038.501        1286.000          43.000  
G16 160742472.798      102009.530        -994.000          39.000  
G21 162183909.274     -374041.755        4071.000          37.000  
G26 162299958.217      119726.669       -1306.000          36.000  
G27 159056169.410       57839.272        -590.000          43.000  
G28 163858170.576      220548.9141      -2435.000          17.000  
G31 161639317.730      173504.897       -1694.000          41.000  
> 2024 12 16  7 17 49.4619999  0 10                     
G 4 160092830.251       17652.924        -201.000          42.000  
G 7 164035660.436     -326320.4911       3589.000          22.000  
G 8 159222701.720     -178701.601        1671.000          44.000  
G 9 161197277.985     -135323.897        1285.000          43.000  
G16 160742662.037      103003.936        -994.000          39.000  
G21 162183134.715     -378113.226        4071.000          37.000  
G26 162300207.768      121032.939       -1306.000          35.000  
G27 159056280.882       58430.460        -591.000          42.000  
G28 163858660.665      222989.0331      -2440.000          16.000  
G31 161639641.083      175200.061       -1695.000          40.000  
> 2024 12 16  7 17 50.4619999  0 10                     
G 4 160092868.489       17855.758        -202.000          42.000  
G 7 164034982.826     -329910.1251       3589.000          22.000  
G 8 159222384.593     -180372.407        1670.000          44.000  
G 9 161197035.230     -136608.406        1284.000          43.000  
G16 160742850.918      103998.673        -994.000          39.000  
G21 162182360.340     -382184.378        4071.000          38.000  
G26 162300454.889      122339.578       -1306.000          35.000  
G27 159056393.135       59022.503        -592.000          43.000  
G28 163859114.698      225433.2641      -2444.000          13.000  
G31 161639963.506      176895.879       -1695.000          40.000  
> 2024 12 16  7 17 51.4619999  0 10                     
G 4 160092907.913       18059.877        -204.000          43.000  
G 7 164034274.592     -333498.1081       3587.000          20.000  
G 8 159222067.147     -182041.912        1669.000          44.000  
G 9 161196791.761     -137891.624        1283.000          43.000  
G16 160743040.336      104994.164        -995.000          39.000  
G21 162181585.712     -386254.798        4070.000          37.000  
G26 162300703.223      123646.859       -1307.000          34.000  
G27 159056505.820       59615.814        -593.000          42.000  
G28 163859544.401      227874.4651      -2441.000          14.000  
G31 161640286.750      178592.699       -1696.000          41.000  
> 2024 12 16  7 17 52.4619999  0  9                     
G 4 160092947.442       18264.616        -204.000          43.000  
G 7 164033606.850     -337084.0821       3585.000          20.000  
G 8 159221749.161     -183710.861        1668.000          44.000  
G 9 161196548.788     -139174.205        1282.000          43.000  
G16 160743229.501      105989.709        -995.000          39.000  
G21 162180811.367     -390325.175        4070.000          37.000  
G26 162300947.413      124954.179       -1307.000          35.000  
G27 159056620.115       60209.693        -593.000          43.000  
G31 161640610.421      180289.864       -1697.000          40.000  
> 2024 12 16  7 17 53.4619999  0  8                     
G 4 160092987.757       18470.261        -205.000          42.000  
G 8 159221431.676     -185378.942        1668.000          44.000  
G 9 161196306.108     -140455.923        1281.000          43.000  
G16 160743418.565      106985.567        -995.000          39.000  
G21 162180037.419     -394395.231        4070.000          37.000  
G26 162301198.465      126261.720       -1307.000          34.000  
G27 159056733.336       60804.476        -594.000          43.000  
G31 161640934.419      181987.666       -1697.000          41.000  
> 2024 12 16  7 17 54.4619999  0  8                     
G 4 160093027.896       18676.108        -205.000          42.000  
G 8 159221113.615     -187046.773        1667.000          44.000  
G 9 161196062.922     -141737.390        1281.000          43.000  
G16 160743608.411      107981.100        -995.000          38.000  
G21 162179263.437     -398465.673        4070.000          38.000  
G26 162301446.729      127568.996       -1307.000          35.000  
G27 159056847.526       61399.438        -594.000          43.000  
G31 161641258.094      183685.407       -1697.000          42.000  
> 2024 12 16  7 17 55.4619999  0  8                     
G 4 160093067.923       18882.789        -206.000          43.000  
G 8 159220796.165     -188713.843        1667.000          44.000  
G 9 161195819.666     -143018.070        1280.000          43.000  
G16 160743797.148      108976.904        -995.000          41.000  
G21 162178489.236     -402535.886        4070.000          37.000  
G26 162301698.501      128876.369       -1307.000          33.000  
G27 159056961.463       61995.176        -595.000          43.000  
G31 161641582.769      185383.688       -1698.000          42.000  
> 2024 12 16  7 17 56.4619999  0  8                     
G 4 160093109.280       19090.380        -207.000          43.000  
G 8 159220478.287     -190380.064        1666.000          44.000  
G 9 161195576.589     -144297.875        1279.000          43.000  
G16 160743986.352      109973.016        -996.000          40.000  
G21 162177714.717     -406605.796        4069.000          36.000  
G26 162301946.551      130183.986       -1307.000          33.000  
G27 159057075.792       62591.801        -596.000          43.000  
G31 161641907.085      187082.533       -1698.000          41.000  
> 2024 12 16  7 17 57.4619999  0  8                     
G 4 160093150.737       19298.208        -207.000          42.000  
G 8 159220160.445     -192046.017        1665.000          43.000  
G 9 161195333.725     -145577.347        1279.000          42.000  
G16 160744175.660      110968.838        -995.000          39.000  
G21 162176944.093     -410675.983        4070.000          35.000  
G26 162302194.314      131491.311       -1307.000          35.000  
G27 159057189.336       63188.637        -596.000          42.000  
G31 161642231.332      188781.432       -1698.000          41.000  
> 2024 12 16  7 17 58.4619999  0 10                     
G 4 160093187.965       19506.663        -208.000          42.000  
G 7 164029650.790     -358639.1071       3589.000          23.000  
G 8 159219845.019     -193711.375        1665.000          43.000  
G 9 161195090.574     -146856.246        1278.000          42.000  
G16 160744365.506      111964.682        -995.000          39.000  
G21 162176170.324     -414746.066        4070.000          35.000  
G26 162302443.507      132798.672       -1307.000          34.000  
G27 159057303.034       63786.080        -597.000          42.000  
G28 163862897.046      245030.0661      -2452.000          15.000  
G31 161642555.316      190480.647       -1699.000          41.000  
> 2024 12 16  7 17 59.4619999  0  9                     
G 4 160093227.744       19715.471        -208.000          42.000  
G 7 164028942.630     -362228.4411       3589.000          23.000  
G 8 159219528.138     -195376.411        1665.000          43.000  
G 9 161194847.139     -148134.760        1278.000          42.000  
G16 160744554.961      112960.340        -995.000          39.000  
G21 162175401.420     -418816.479        4070.000          36.000  
G26 162302692.203      134105.766       -1307.000          34.000  
G27 159057416.806       64383.856        -597.000          42.000  
G31 161642878.667      192179.930       -1699.000          40.000  
> 2024 12 16  7 18  0.4619999  0  9                     
G 4 160093267.730       19925.336        -209.000          42.000  
G 7 164028304.580     -365817.0611       3588.000          24.000  
G 8 159219211.449     -197040.418        1664.000          43.000  
G 9 161194603.778     -149412.292        1277.000          42.000  
G16 160744744.516      113956.458        -996.000          40.000  
G21 162174625.574     -422886.423        4069.000          37.000  
G26 162302936.602      135413.262       -1307.000          32.000  
G27 159057530.775       64982.623        -598.000          43.000  
G31 161643202.165      193879.985       -1700.000          41.000  
> 2024 12 16  7 18  1.4619999  0  9                     
G 4 160093307.898       20136.154        -210.000          42.000  
G 7 164027581.395     -369406.6751       3589.000          25.000  
G 8 159218894.945     -198703.480        1663.000          43.000  
G 9 161194360.487     -150688.776        1276.000          42.000  
G16 160744934.147      114953.006        -996.000          39.000  
G21 162173850.270     -426955.940        4069.000          38.000  
G26 162303183.793      136721.116       -1307.000          32.000  
G27 159057644.933       65582.373        -599.000          42.000  
G31 161643525.800      195580.754       -1700.000          41.000  
> 2024 12 16  7 18  2.4619999  0  9                     
G 4 160093348.119       20347.272        -211.000          42.000  
G 7 164026913.584     -372996.6091       3589.000          24.000  
G 8 159218578.483     -200366.285        1662.000          43.000  
G 9 161194116.442     -151965.046        1276.000          42.000  
G16 160745123.734      115949.280        -996.000          39.000  
G21 162173075.245     -431025.754        4069.000          38.000  
G26 162303433.131      138028.741       -1307.000          33.000  
G27 159057759.137       66182.364        -599.000          43.000  
G31 161643849.443      197281.503       -1700.000          41.000  
> 2024 12 16  7 18  3.4619999  0  9                     
G 4 160093388.494       20559.212        -211.000          42.000  
G 7 164026238.191     -376586.9641       3590.000          24.000  
G 8 159218262.178     -202028.281        1662.000          43.000  
G 9 161193872.793     -153240.450        1275.000          43.000  
G16 160745313.374      116945.819        -996.000          40.000  
G21 162172301.048     -435095.382        4069.000          38.000  
G26 162303674.956      139336.510       -1307.000          34.000  
G27 159057873.494       66783.162        -600.000          43.000  
G31 161644173.196      198982.804       -1701.000          41.000  
> 2024 12 16  7 18  4.4619999  0 10                     
G 4 160093429.050       20772.152        -212.000          42.000  
G 7 164025548.488     -380174.5761       3587.000          22.000  
G 8 159217946.070     -203689.272        1660.000          44.000  
G 9 161193629.105     -154514.814        1274.000          43.000  
G16 160745503.094      117942.784        -996.000          39.000  
G21 162171526.743     -439164.479        4069.000          39.000  
G26 162303922.291      140644.680       -1308.000          33.000  
G27 159057988.034       67384.929        -601.000          43.000  
G28 163865673.602      259715.8711      -2444.000          19.000  
G31 161644497.101      200684.879       -1702.000          42.000  
> 2024 12 16  7 18  5.4619999  0 10                     
G 4 160093469.749       20985.898        -213.000          42.000  
G 7 164024898.852     -383764.4001       3589.000          23.000  
G 8 159217630.107     -205349.514        1660.000          44.000  
G 9 161193385.850     -155788.452        1273.000          42.000  
G16 160745692.859      118939.958        -997.000          40.000  
G21 162170752.935     -443233.448        4068.000          39.000  
G26 162304165.477      141953.072       -1308.000          31.000  
G27 159058102.712       67987.457        -602.000          43.000  
G28 163866141.225      262161.0321      -2445.000          21.000  
G31 161644821.103      202387.433       -1702.000          41.000  
> 2024 12 16  7 18  6.4619999  0 10                     
G 4 160093510.619       21200.598        -214.000          43.000  
G 7 164024210.292     -387355.1261       3590.000          21.000  
G 8 159217314.321     -207008.846        1659.000          44.000  
G 9 161193143.654     -157061.115        1272.000          42.000  
G16 160745882.707      119937.529        -997.000          40.000  
G21 162169970.585     -447301.982        4068.000          38.000  
G26 162304420.394      143261.705       -1308.000          32.000  
G27 159058217.555       68590.893        -603.000          43.000  
G28 163866584.382      264608.4941      -2447.000          21.000  
G31 161645145.239      204090.662       -1703.000          42.000  
> 2024 12 16  7 18  7.4619999  0 10                     
G 4 160093551.716       21416.529        -215.000          42.000  
G 7 164023475.084     -390943.7801       3588.000          24.000  
G 8 159216998.783     -208666.939        1658.000          44.000  
G 9 161192901.685     -158332.535        1271.000          43.000  
G16 160746072.683      120935.785        -998.000          40.000  
G21 162169196.581     -451369.920        4067.000          40.000  
G26 162304672.310      144571.048       -1309.000          33.000  
G27 159058332.632       69195.545        -604.000          43.000  
G28 163867053.007      267061.1871      -2452.000          20.000  
G31 161645469.554      205794.861       -1704.000          43.000  
> 2024 12 16  7 18  8.4619999  0 10                     
G 4 160093592.866       21632.804        -216.000          42.000  
G 7 164022792.680     -394532.9351       3589.000          26.000  
G 8 159216683.316     -210324.715        1657.000          44.000  
G 9 161192659.783     -159603.595        1271.000          42.000  
G16 160746262.611      121933.831        -998.000          39.000  
G21 162168422.536     -455438.065        4068.000          39.000  
G26 162304925.225      145880.039       -1308.000          33.000  
G27 159058447.767       69800.533        -604.000          43.000  
G28 163867495.588      269511.5321      -2450.000          19.000  
G31 161645793.879      207499.120       -1704.000          43.000  
> 2024 12 16  7 18  9.4619999  0 10                     
G 4 160093634.100       21849.555        -216.000          42.000  
G 7 164022106.411     -398122.4181       3589.000          27.000  
G 8 159216367.947     -211982.054        1657.000          44.000  
G 9 161192417.954     -160874.227        1270.000          42.000  
G16 160746452.512      122931.771        -997.000          40.000  
G21 162167648.463     -459506.317        4068.000          39.000  
G26 162305172.560      147188.918       -1308.000          33.000  
G27 159058562.976       70405.918        -605.000          42.000  
G28 163867991.689      271961.3081      -2449.000          18.000  
G31 161646118.232      209203.515       -1704.000          43.000  
> 2024 12 16  7 18 10.4619999  0 10                     
G 4 160093675.489       22067.161        -217.000          42.000  
G 7 164021433.020     -401711.8061       3589.000          26.000  
G 8 159216052.752     -213638.522        1656.000          44.000  
G 9 161192176.285     -162143.969        1269.000          41.000  
G16 160746642.472      123930.021        -998.000          40.000  
G21 162166874.449     -463574.272        4067.000          38.000  
G26 162305427.045      148498.129       -1309.000          33.000  
G27 159058678.346       71012.193        -606.000          42.000  
G28 163868398.214      274415.6111      -2454.000          14.000  
G31 161646442.715      210908.567       -1705.000          42.000  
> 2024 12 16  7 18 11.4619999  0  9                     
G 4 160093717.198       22286.504        -219.000          42.000  
G 7 164020757.269     -405299.9751       3588.000          25.000  
G 8 159215737.883     -215293.327        1654.000          44.000  
G 9 161191934.948     -163411.964        1267.000          43.000  
G16 160746832.653      124929.460        -999.000          40.000  
G21 162166100.639     -467641.132        4066.000          39.000  
G26 162305673.023      149808.305       -1310.000          32.000  
G27 159058794.024       71620.150        -607.000          42.000  
G31 161646767.473      212615.050       -1706.000          42.000  
> 2024 12 16  7 18 12.4619999  0  9                     
G 4 160093759.095       22506.857        -220.000          42.000  
G 7 164020075.223     -408888.0031       3588.000          25.000  
G 8 159215423.211     -216947.097        1653.000          44.000  
G 9 161191693.793     -164678.990        1267.000          44.000  
G16 160747022.895      125929.256        -999.000          39.000  
G21 162165326.921     -471707.497        4066.000          39.000  
G26 162305925.724      151119.105       -1310.000          33.000  
G27 159058909.872       72229.075        -608.000          42.000  
G31 161647092.367      214322.266       -1707.000          42.000  
> 2024 12 16  7 18 13.4619999  0  9                     
G 4 160093800.956       22727.006        -220.000          42.000  
G 7 164019384.875     -412476.854        3588.000          26.000  
G 8 159215108.497     -218601.088        1653.000          44.000  
G 9 161191452.599     -165946.254        1267.000          42.000  
G16 160747213.009      126928.387        -999.000          40.000  
G21 162164553.062     -475774.616        4067.000          38.000  
G26 162306172.841      152428.870       -1309.000          32.000  
G27 159059025.674       72837.796        -608.000          42.000  
G31 161647417.165      216028.998       -1706.000          41.000  
> 2024 12 16  7 18 14.4619999  0 10                     
G 4 160093843.070       22948.499        -221.000          42.000  
G 7 164018717.779     -416065.1851       3588.000          24.000  
G 8 159214794.023     -220253.813        1652.000          44.000  
G 9 161191211.681     -167212.089        1265.000          43.000  
G16 160747403.249      127928.225        -999.000          39.000  
G21 162163779.340     -479841.034        4066.000          38.000  
G26 162306418.244      153739.430       -1310.000          34.000  
G27 159059141.692       73447.741        -609.000          41.000  
G28 163870278.728      284236.9891      -2452.000          16.000  
G31 161647742.158      217736.806       -1707.000          42.000  
> 2024 12 16  7 18 15.4619999  0 10                     
G 4 160093885.264       23170.400        -221.000          42.000  
G 7 164018055.692     -419653.6471       3588.000          21.000  
G 8 159214479.626     -221906.125        1652.000          44.000  
G 9 161190970.847     -168477.546        1265.000          44.000  
G16 160747593.466      128927.937        -999.000          40.000  
G21 162163005.576     -483907.646        4066.000          39.000  
G26 162306667.869      155049.812       -1310.000          33.000  
G27 159059257.788       74058.166        -610.000          42.000  
G28 163870747.498      286688.5971      -2451.000          17.000  
G31 161648067.175      219444.752       -1707.000          41.000  
> 2024 12 16  7 18 16.4619999  0  9                     
G 4 160093927.585       23392.962        -222.000          42.000  
G 7 164017345.887     -423242.2771       3588.000          21.000  
G 8 159214165.341     -223557.840        1651.000          44.000  
G 9 161190730.133     -169742.386        1264.000          43.000  
G16 160747783.699      129927.704        -999.000          40.000  
G21 162162231.828     -487974.145        4066.000          39.000  
G26 162306919.283      156360.242       -1310.000          33.000  
G27 159059373.985       74669.148        -610.000          42.000  
G31 161648392.247      221153.036       -1708.000          41.000  
> 2024 12 16  7 18 17.4619999  0  9                     
G 4 160093969.758       23614.725        -221.000          42.000  
G 7 164016631.501     -426832.5491       3590.000          23.000  
G 8 159213850.912     -225210.305        1652.000          44.000  
G 9 161190489.296     -171007.927        1265.000          43.000  
G16 160747973.690      130926.186        -998.000          40.000  
G21 162161457.819     -492041.967        4067.000          39.000  
G26 162307167.687      157669.254       -1309.000          33.000  
G27 159059490.034       75279.368        -610.000          42.000  
G31 161648717.125      222860.317       -1707.000          42.000  
> 2024 12 16  7 18 18.4619999  0  9                     
G 4 160094011.966       23836.621        -221.000          42.000  
G 7 164015925.701     -430423.2411       3590.000          24.000  
G 8 159213536.499     -226862.662        1652.000          44.000  
G 9 161190248.488     -172273.396        1265.000          43.000  
G16 160748163.599      131924.231        -998.000          40.000  
G21 162160683.720     -496110.253        4068.000          39.000  
G26 162307415.454      158977.845       -1308.000          34.000  
G27 159059606.101       75889.669        -610.000          42.000  
G31 161649041.972      224567.432       -1707.000          42.000  
> 2024 12 16  7 18 19.4619999  0  9                     
G 4 160094054.259       24058.912        -222.000          43.000  
G 7 164015207.236     -434014.2711       3591.000          26.000  
G 8 159213222.139     -228514.714        1652.000          44.000  
G 9 161190007.753     -173538.510        1265.000          44.000  
G16 160748353.454      132922.051        -997.000          40.000  
G21 162159909.568     -500178.762        4068.000          39.000  
G26 162307668.368      160286.124       -1308.000          34.000  
G27 159059722.239       76500.321        -610.000          42.000  
G31 161649366.825      226274.606       -1707.000          42.000  
> 2024 12 16  7 18 20.4619999  0  9                     
G 4 160094096.747       24282.190        -223.000          43.000  
G 7 164014527.978     -437605.2681       3591.000          25.000  
G 8 159212907.966     -230165.753        1651.000          44.000  
G 9 161189767.226     -174802.573        1264.000          44.000  
G16 160748543.387      133920.292        -998.000          40.000  
G21 162159135.486     -504246.829        4068.000          38.000  
G26 162307918.565      161594.851       -1308.000          34.000  
G27 159059838.559       77111.936        -611.000          42.000  
G31 161649691.816      227982.531       -1707.000          42.000  
> 2024 12 16  7 18 21.4619999  0  9                     
G 4 160094139.423       24506.405        -224.000          43.000  
G 7 164013827.757     -441195.7161       3590.000          25.000  
G 8 159212593.963     -231815.851        1650.000          43.000  
G 9 161189526.879     -176065.730        1263.000          44.000  
G16 160748733.399      134918.979        -998.000          40.000  
G21 162158361.471     -508314.533        4067.000          38.000  
G26 162308167.685      162903.863       -1309.000          33.000  
G27 159059955.049       77724.459        -612.000          42.000  
G31 161650016.938      229691.123       -1708.000          42.000  
> 2024 12 16  7 18 22.4619999  0  9                     
G 4 160094181.973       24729.913        -223.000          43.000  
G 7 164013134.761     -444786.2951       3590.000          24.000  
G 8 159212279.801     -233466.742        1650.000          43.000  
G 9 161189286.409     -177329.589        1263.000          44.000  
G16 160748923.146      135916.323        -997.000          39.000  
G21 162157587.207     -512383.541        4069.000          38.000  
G26 162308410.871      164211.596       -1307.000          34.000  
G27 159060071.407       78336.250        -611.000          42.000  
G31 161650341.867      231398.698       -1707.000          42.000  
> 2024 12 16  7 18 23.4619999  0  9                     
G 4 160094224.529       24953.403        -223.000          43.000  
G 7 164012481.403     -448378.7401       3592.000          24.000  
G 8 159211965.631     -235117.643        1650.000          43.000  
G 9 161189045.933     -178593.477        1263.000          44.000  
G16 160749112.791      136913.117        -996.000          39.000  
G21 162156812.819     -516453.136        4069.000          38.000  
G26 162308662.355      165518.690       -1307.000          34.000  
G27 159060187.764       78948.001        -611.000          42.000  
G31 161650666.740      233105.993       -1707.000          42.000  
> 2024 12 16  7 18 24.4619999  0  9                     
G 4 160094267.176       25177.331        -223.000          43.000  
G 7 164011811.734     -451971.9621       3593.000          21.000  
G 8 159211651.532     -236768.121        1650.000          43.000  
G 9 161188805.545     -179856.912        1263.000          44.000  
G16 160749302.409      137909.782        -996.000          39.000  
G21 162156038.396     -520522.858        4069.000          38.000  
G26 162308918.847      166825.585       -1306.000          33.000  
G27 159060304.208       79560.129        -612.000          42.000  
G31 161650991.650      234813.467       -1707.000          42.000  
> 2024 12 16  7 18 25.4619999  0  9                     
G 4 160094309.919       25401.727        -224.000          44.000  
G 7 164011090.765     -455565.9801       3594.000          19.000  
G 8 159211337.505     -238418.193        1650.000          43.000  
G 9 161188565.244     -181119.881        1262.000          44.000  
G16 160749492.014      138906.355        -996.000          40.000  
G21 162155263.931     -524592.698        4069.000          38.000  
G26 162309166.112      168132.303       -1306.000          34.000  
G27 159060420.757       80172.742        -612.000          43.000  
G31 161651316.601      236521.124       -1707.000          42.000  
> 2024 12 16  7 18 26.4619999  0  9                     
G 4 160094352.822       25626.919        -225.000          44.000  
G 7 164010390.762     -459158.7911       3592.000          19.000  
G 8 159211023.632     -240067.455        1649.000          44.000  
G 9 161188325.093     -182382.061        1262.000          44.000  
G16 160749681.660      139903.164        -996.000          40.000  
G21 162154489.504     -528662.269        4069.000          38.000  
G26 162309419.240      169439.280       -1306.000          34.000  
G27 159060537.465       80786.122        -613.000          43.000  
G31 161651641.647      238229.284       -1708.000          42.000  
> 2024 12 16  7 18 27.4619999  0  9                     
G 4 160094395.923       25853.153        -226.000          44.000  
G 7 164009696.479     -462752.8371       3594.000          20.000  
G 8 159210709.945     -241715.718        1648.000          43.000  
G 9 161188085.135     -183643.214        1261.000          44.000  
G16 160749871.377      140900.422        -997.000          39.000  
G21 162153715.134     -532731.454        4069.000          38.000  
G26 162309664.931      170746.600       -1307.000          34.000  
G27 159060654.360       81400.442        -614.000          43.000  
G31 161651966.845      239938.211       -1708.000          42.000  
> 2024 12 16  7 18 28.4619999  0  9                     
G 4 160094439.192       26080.260        -227.000          43.000  
G 7 164009015.074     -466347.9121       3595.000          22.000  
G 8 159210396.425     -243363.097        1647.000          43.000  
G 9 161187845.344     -184903.450        1260.000          43.000  
G16 160750061.137      141898.005        -997.000          39.000  
G21 162152940.817     -536800.293        4068.000          38.000  
G26 162309914.194      172054.259       -1307.000          34.000  
G27 159060771.430       82015.659        -615.000          43.000  
G31 161652292.168      241647.746       -1709.000          42.000  
> 2024 12 16  7 18 29.4619999  0  9                     
G 4 160094482.627       26308.243        -227.000          43.000  
G 7 164008290.886     -469939.7651       3591.000          21.000  
G 8 159210083.058     -245009.668        1646.000          44.000  
G 9 161187605.701     -186162.850        1259.000          43.000  
G16 160750250.952      142895.908        -997.000          39.000  
G21 162152166.553     -540868.804        4068.000          38.000  
G26 162310162.245      173362.198       -1307.000          34.000  
G27 159060888.672       82631.728        -616.000          43.000  
G31 161652617.615      243357.882       -1710.000          42.000  
> 2024 12 16  7 18 30.4619999  0  9                     
G 4 160094526.070       26536.314        -228.000          43.000  
G 7 164007600.468     -473543.2851       3603.000          19.000  
G 8 159209769.712     -246656.138        1646.000          44.000  
G 9 161187366.063     -187422.152        1259.000          43.000  
G16 160750440.677      143893.337        -997.000          39.000  
G21 162151392.176     -544937.825        4069.000          37.000  
G26 162310409.222      174669.540       -1307.000          34.000  
G27 159061005.932       83247.846        -616.000          43.000  
G31 161652943.027      245067.819       -1709.000          42.000  
> 2024 12 16  7 18 31.4619999  0  9                     
G 4 160094569.558       26764.682        -228.000          43.000  
G 7 164006901.892     -477136.8541       3593.000          17.000  
G 8 159209456.414     -248302.352        1646.000          44.000  
G 9 161187126.477     -188681.131        1258.000          43.000  
G16 160750630.356      144890.508        -997.000          39.000  
G21 162150617.718     -549007.172        4069.000          37.000  
G26 162310659.920      175976.610       -1307.000          34.000  
G27 159061123.246       83864.238        -616.000          43.000  
G31 161653268.451      246777.778       -1709.000          42.000  
> 2024 12 16  7 18 32.4619999  0  9                     
G 4 160094613.413       26995.037        -230.000          43.000  
G 7 164006239.377     -480721.1881       3584.000          18.000  
G 8 159209143.495     -249946.598        1644.000          44.000  
G 9 161186887.256     -189938.145        1257.000          43.000  
G16 160750820.287      145889.050        -998.000          39.000  
G21 162149843.531     -553075.053        4067.000          37.000  
G26 162310914.480      177285.084       -1308.000          34.000  
G27 159061240.926       84482.574        -618.000          42.000  
G31 161653594.199      248489.425       -1711.000          42.000  
> 2024 12 16  7 18 33.4619999  0  9                     
G 4 160094657.507       27226.727        -231.000          42.000  
G 7 164005537.224     -484312.5911       3591.000          16.000  
G 8 159208830.834     -251589.547        1642.000          44.000  
G 9 161186648.275     -191193.847        1255.000          43.000  
G16 160751010.374      146888.385        -999.000          40.000  
G21 162149069.464     -557142.214        4067.000          36.000  
G26 162311155.736      178594.237       -1309.000          34.000  
G27 159061358.848       85102.190        -619.000          43.000  
G31 161653920.153      250202.149       -1712.000          43.000  
> 2024 12 16  7 18 34.4619999  0  9                     
G 4 160094701.688       27458.970        -232.000          42.000  
G 7 164004839.508     -487902.2171       3589.000          17.000  
G 8 159208518.289     -253231.939        1642.000          44.000  
G 9 161186409.394     -192448.964        1255.000          43.000  
G16 160751200.470      147887.734        -999.000          40.000  
G21 162148295.409     -561209.358        4067.000          37.000  
G26 162311404.960      179903.352       -1309.000          34.000  
G27 159061476.866       85722.351        -620.000          42.000  
G31 161654246.166      251915.153       -1712.000          43.000  
> 2024 12 16  7 18 35.4619999  0  8                     
G 4 160094745.971       27691.829        -232.000          42.000  
G 8 159208205.866     -254873.748        1641.000          44.000  
G 9 161186170.621     -193703.484        1254.000          42.000  
G16 160751390.564      148887.093        -999.000          40.000  
G21 162147521.354     -565276.476        4067.000          37.000  
G26 162311654.137      181212.459       -1309.000          34.000  
G27 159061594.989       86343.110        -620.000          42.000  
G31 161654572.238      253628.484       -1713.000          43.000  
> 2024 12 16  7 18 36.4619999  0 10                     
G 4 160094790.265       27924.770        -232.000          42.000  
G 7 164003526.213     -495074.5051       3589.000          19.000  
G 8 159207893.465     -256515.483        1641.000          44.000  
G 9 161185931.864     -194957.859        1254.000          43.000  
G16 160751580.577      149885.990        -998.000          40.000  
G21 162146747.211     -569344.088        4067.000          37.000  
G26 162311903.202      182521.035       -1308.000          34.000  
G27 159061713.113       86963.917        -620.000          42.000  
G28 163880691.382      338263.9051      -2464.000          19.000  
G31 161654898.274      255341.620       -1713.000          43.000  
> 2024 12 16  7 18 37.4619999  0 10                     
G 4 160094834.587       28157.907        -233.000          42.000  
G 7 164002853.821     -498667.7471       3593.000          13.000  
G 8 159207581.098     -258157.058        1641.000          44.000  
G 9 161185693.125     -196212.135        1254.000          43.000  
G16 160751770.533      150884.528        -998.000          40.000  
G21 162145972.989     -573412.119        4068.000          37.000  
G26 162312152.193      183829.262       -1308.000          34.000  
G27 159061831.258       87584.875        -620.000          42.000  
G28 163881146.990      340721.9731      -2458.000          20.000  
G31 161655224.292      257054.665       -1713.000          43.000  
> 2024 12 16  7 18 38.4619999  0  9                     
G 4 160094878.955       28391.325        -233.000          42.000  
G 8 159207268.779     -259798.382        1641.000          44.000  
G 9 161185454.450     -197466.087        1253.000          43.000  
G16 160751960.437      151882.750        -998.000          40.000  
G21 162145198.724     -577480.389        4068.000          38.000  
G26 162312401.070      185137.060       -1307.000          33.000  
G27 159061949.448       88206.092        -621.000          42.000  
G28 163881636.935      343179.3021      -2457.000          20.000  
G31 161655550.314      258767.730       -1713.000          43.000  
> 2024 12 16  7 18 39.4619999  0  9                     
G 4 160094923.539       28625.872        -234.000          42.000  
G 8 159206956.680     -261438.562        1640.000          44.000  
G 9 161185216.000     -198718.874        1252.000          43.000  
G16 160752150.462      152881.592        -998.000          40.000  
G21 162144424.575     -581548.090        4067.000          38.000  
G26 162312650.052      186445.477       -1308.000          33.000  
G27 159062067.852       88828.429        -622.000          42.000  
G28 163882096.404      345648.1591      -2468.000          18.000  
G31 161655876.499      260481.651       -1713.000          43.000  
> 2024 12 16  7 18 40.4619999  0  9                     
G 4 160094968.398       28861.892        -236.000          42.000  
G 8 159206644.860     -263077.297        1638.000          44.000  
G 9 161184977.828     -199970.228        1251.000          43.000  
G16 160752340.656      153881.307        -999.000          40.000  
G21 162143650.602     -585614.925        4066.000          38.000  
G26 162312899.210      187754.723       -1309.000          33.000  
G27 159062186.525       89452.184        -623.000          42.000  
G28 163882531.115      348103.8131      -2455.000          19.000  
G31 161656202.904      262196.747       -1715.000          43.000  
> 2024 12 16  7 18 41.4619999  0  9                     
G 4 160095013.337       29098.377        -236.000          42.000  
G 8 159206333.118     -264715.612        1638.000          44.000  
G 9 161184739.752     -201221.116        1250.000          43.000  
G16 160752530.836      154880.941        -999.000          40.000  
G21 162142876.607     -589681.849        4066.000          37.000  
G26 162313148.343      189063.780       -1309.000          33.000  
G27 159062305.282       90076.393        -624.000          42.000  
G28 163883005.752      350564.7891      -2460.000          18.000  
G31 161656529.342      263912.034       -1715.000          43.000  
> 2024 12 16  7 18 42.4619999  0  9                     
G 4 160095058.328       29335.126        -236.000          42.000  
G 8 159206021.424     -266353.691        1638.000          44.000  
G 9 161184501.730     -202471.752        1250.000          43.000  
G16 160752720.953      155880.234        -999.000          40.000  
G21 162142102.551     -593749.117        4067.000          37.000  
G26 162313397.386      190372.456       -1308.000          33.000  
G27 159062424.077       90700.796        -624.000          43.000  
G28 163883518.453      353031.6701      -2466.000          17.000  
G31 161656855.772      265627.313       -1715.000          43.000  
> 2024 12 16  7 18 43.4619999  0  8                     
G 4 160095103.383       29572.202        -237.000          43.000  
G 8 159205709.793     -267991.444        1637.000          44.000  
G 9 161184263.792     -203722.019        1250.000          44.000  
G16 160752911.044      156879.362        -999.000          40.000  
G21 162141328.457     -597816.609        4067.000          38.000  
G26 162313646.370      191680.972       -1308.000          33.000  
G27 159062542.931       91325.526        -624.000          42.000  
G31 161657182.215      267342.650       -1715.000          43.000  
> 2024 12 16  7 18 44.4619999  0  9                     
G 4 160095148.457       29809.346        -237.000          42.000  
G 8 159205398.161     -269629.174        1637.000          44.000  
G 9 161184025.870     -204972.259        1250.000          44.000  
G16 160753101.029      157877.933        -998.000          40.000  
G21 162140554.279     -601884.623        4068.000          38.000  
G26 162313895.228      192988.829       -1307.000          33.000  
G27 159062661.790       91950.290        -624.000          43.000  
G28 163884454.556      357944.0221      -2450.000          14.000  
G31 161657508.610      269057.772       -1715.000          43.000  
> 2024 12 16  7 18 45.4619999  0  9                     
G 4 160095193.540       30046.504        -237.000          43.000  
G 8 159205086.525     -271266.892        1637.000          44.000  
G 9 161183787.976     -206222.439        1250.000          44.000  
G16 160753290.913      158875.977        -998.000          40.000  
G21 162139780.017     -605953.203        4068.000          38.000  
G26 162314143.983      194296.163       -1307.000          33.000  
G27 159062780.649       92575.023        -624.000          43.000  
G28 163884898.429      360394.8281      -2450.000          17.000  
G31 161657834.949      270772.620       -1714.000          43.000  
> 2024 12 16  7 18 46.4619999  0  9                     
G 4 160095238.777       30284.414        -237.000          43.000  
G 8 159204775.020     -272903.870        1636.000          44.000  
G 9 161183550.234     -207471.896        1249.000          44.000  
G16 160753480.836      159874.229        -998.000          40.000  
G21 162139005.795     -610021.592        4068.000          38.000  
G26 162314392.723      195603.638       -1307.000          33.000  
G27 159062899.658       93200.508        -625.000          43.000  
G28 163885357.038      362860.4131      -2465.000          17.000  
G31 161658161.368      272487.960       -1715.000          43.000  
> 2024 12 16  7 18 47.4619999  0  9                     
G 4 160095284.101       30522.724        -238.000          43.000  
G 8 159204463.571     -274540.491        1636.000          44.000  
G 9 161183312.585     -208720.923        1249.000          44.000  
G16 160753670.730      160872.307        -998.000          40.000  
G21 162138231.552     -614090.091        4068.000          38.000  
G26 162314641.395      196910.902       -1307.000          33.000  
G27 159063018.740       93826.346        -625.000          43.000  
G28 163885855.857      365324.8761      -2464.000          17.000  
G31 161658487.801      274203.410       -1715.000          43.000  
> 2024 12 16  7 18 48.4619999  0  9                     
G 4 160095329.546       30761.611        -238.000          43.000  
G 8 159204152.220     -276176.558        1636.000          44.000  
G 9 161183075.044     -209969.421        1248.000          44.000  
G16 160753860.623      161870.380        -998.000          40.000  
G21 162137457.306     -618158.670        4068.000          38.000  
G26 162314890.012      198218.081       -1307.000          33.000  
G27 159063137.934       94452.724        -626.000          43.000  
G28 163886371.847      367810.9241      -2486.000          19.000  
G31 161658814.285      275919.161       -1715.000          43.000  
> 2024 12 16  7 18 49.4619999  0  8                     
G 4 160095375.054       31000.783        -239.000          43.000  
G 8 159203840.908     -277812.345        1635.000          43.000  
G 9 161182837.574     -211217.579        1248.000          44.000  
G16 160754050.470      162868.231        -997.000          40.000  
G21 162136683.033     -622227.484        4068.000          38.000  
G26 162315138.573      199525.002       -1306.000          33.000  
G27 159063257.196       95079.377        -626.000          43.000  
G31 161659140.769      277634.936       -1715.000          42.000  
> 2024 12 16  7 18 50.4619999  0  8                     
G 4 160095420.569       31239.941        -239.000          43.000  
G 8 159203529.578     -279448.146        1635.000          43.000  
G 9 161182600.100     -212465.786        1248.000          45.000  
G16 160754240.194      163865.448        -997.000          40.000  
G21 162135908.656     -626296.915        4069.000          38.000  
G26 162315387.047      200831.260       -1306.000          33.000  
G27 159063376.464       95705.986        -626.000          43.000  
G31 161659467.194      279350.422       -1715.000          42.000  
> 2024 12 16  7 18 51.4619999  0  8                     
G 4 160095466.162       31479.466        -239.000          43.000  
G 8 159203218.289     -281083.650        1635.000          43.000  
G 9 161182362.695     -213713.643        1247.000          44.000  
G16 160754429.883      164862.486        -997.000          40.000  
G21 162135134.253     -630366.550        4069.000          38.000  
G26 162315635.429      202137.316       -1306.000          33.000  
G27 159063495.799       96332.896        -626.000          43.000  
G31 161659793.619      281065.938       -1715.000          42.000  
> 2024 12 16  7 18 52.4619999  0  8                     
G 4 160095511.815       31719.279        -239.000          43.000  
G 8 159202907.041     -282718.874        1635.000          43.000  
G 9 161182125.362     -214961.133        1247.000          44.000  
G16 160754619.514      165859.277        -996.000          40.000  
G21 162134359.806     -634436.424        4069.000          38.000  
G26 162315883.760      203443.011       -1305.000          33.000  
G27 159063615.200       96960.103        -627.000          43.000  
G31 161660120.055      282781.526       -1715.000          42.000  
> 2024 12 16  7 18 53.4619999  0  8                     
G 4 160095557.627       31959.886        -240.000          43.000  
G 8 159202595.940     -284353.325        1634.000          43.000  
G 9 161181888.163     -216207.893        1246.000          44.000  
G16 160754809.177      166856.248        -996.000          40.000  
G21 162133585.401     -638506.108        4069.000          38.000  
G26 162316132.125      204748.858       -1305.000          33.000  
G27 159063734.753       97588.042        -627.000          43.000  
G31 161660446.588      284497.624       -1716.000          42.000  
> 2024 12 16  7 18 54.4619999  0  8                     
G 4 160095603.583       32201.219        -241.000          43.000  
G 8 159202284.970     -285987.068        1633.000          43.000  
G 9 161181651.095     -217453.917        1246.000          44.000  
G16 160754998.866      167853.396        -997.000          39.000  
G21 162132811.036     -642575.643        4069.000          39.000  
G26 162316380.578      206054.868       -1306.000          33.000  
G27 159063854.447       98216.690        -628.000          43.000  
G31 161660773.187      286214.120       -1716.000          42.000  
> 2024 12 16  7 18 55.4619999  0  8                     
G 4 160095649.710       32443.457        -242.000          43.000  
G 8 159201974.171     -287619.942        1632.000          43.000  
G 9 161181414.196     -218699.011        1245.000          44.000  
G16 160755188.611      168850.881        -997.000          39.000  
G21 162132036.742     -646644.850        4069.000          39.000  
G26 162316629.041      207361.184       -1306.000          33.000  
G27 159063974.309       98846.212        -629.000          43.000  
G31 161661099.921      287931.309       -1717.000          42.000  
> 2024 12 16  7 18 56.4619999  0  9                     
G 4 160095695.920       32686.177        -242.000          42.000  
G 8 159201663.475     -289252.313        1632.000          43.000  
G 9 161181177.376     -219943.637        1244.000          44.000  
G16 160755378.342      169848.318        -997.000          39.000  
G21 162131262.443     -650714.104        4069.000          39.000  
G26 162316877.432      208667.336       -1306.000          33.000  
G27 159064094.254       99476.178        -629.000          43.000  
G28 163890179.379      387691.8041      -2494.000          20.000  
G31 161661426.679      289648.662       -1717.000          42.000  
> 2024 12 16  7 18 57.4619999  0  8                     
G 4 160095742.342       32930.046        -243.000          42.000  
G 8 159201353.004     -290883.568        1631.000          43.000  
G 9 161180940.760     -221187.116        1243.000          43.000  
G16 160755568.176      170846.320        -997.000          39.000  
G21 162130488.256     -654782.776        4068.000          39.000  
G26 162317126.015      209974.107       -1306.000          33.000  
G27 159064214.405      100107.286        -631.000          43.000  
G31 161661753.614      291366.926       -1718.000          42.000  
> 2024 12 16  7 18 58.4619999  0  8                     
G 4 160095788.957       33174.995        -244.000          42.000  
G 8 159201042.749     -292513.771        1630.000          44.000  
G 9 161180704.338     -222429.518        1242.000          44.000  
G16 160755758.105      171844.833        -998.000          39.000  
G21 162129714.156     -658850.979        4068.000          39.000  
G26 162317374.690      211281.244       -1307.000          33.000  
G27 159064334.737      100739.412        -632.000          43.000  
G31 161662080.697      293085.950       -1719.000          42.000  
> 2024 12 16  7 18 59.4619999  0  8                     
G 4 160095835.773       33421.064        -246.000          42.000  
G 8 159200732.719     -294142.863        1629.000          44.000  
G 9 161180468.122     -223670.743        1241.000          43.000  
G16 160755948.144      172843.918        -999.000          39.000  
G21 162128940.161     -662918.616        4067.000          39.000  
G26 162317623.435      212588.957       -1307.000          34.000  
G27 159064455.268      101372.653        -633.000          43.000  
G31 161662407.952      294805.861       -1719.000          42.000  
> 2024 12 16  7 19  0.4619999  0  8                     
G 4 160095882.622       33667.348        -246.000          43.000  
G 8 159200422.740     -295771.782        1628.000          44.000  
G 9 161180231.927     -224911.802        1241.000          43.000  
G16 160756138.114      173842.634        -998.000          40.000  
G21 162128166.097     -666986.617        4068.000          38.000  
G26 162317872.152      213896.250       -1307.000          34.000  
G27 159064575.816      102006.070        -633.000          42.000  
G31 161662735.189      296525.651       -1719.000          42.000  
> 2024 12 16  7 19  1.4619999  0  8                     
G 4 160095929.685       33914.821        -247.000          42.000  
G 8 159200112.996     -297399.522        1627.000          44.000  
G 9 161179995.940     -226151.684        1239.000          43.000  
G16 160756328.214      174841.974        -999.000          40.000  
G21 162127392.149     -671053.991        4067.000          38.000  
G26 162318121.006      215204.154       -1307.000          34.000  
G27 159064696.566      102640.629        -634.000          42.000  
G31 161663062.618      298246.417       -1720.000          42.000  
> 2024 12 16  7 19  2.4619999  0 10                     
G 2 163708859.162     -523476.4241       3874.000          24.000  
G 4 160095976.797       34162.604        -247.000          42.000  
G 7 163985941.930     -589009.7051       3593.000          17.000  
G 8 159199803.315     -299026.973        1627.000          44.000  
G 9 161179760.015     -227391.206        1239.000          43.000  
G16 160756518.279      175841.081        -999.000          40.000  
G21 162126618.141     -675121.622        4067.000          38.000  
G26 162318369.788      216511.697       -1307.000          34.000  
G27 159064817.360      103275.507        -634.000          43.000  
G31 161663390.053      299967.177       -1720.000          42.000  
> 2024 12 16  7 19  3.4619999  0 10                     
G 2 163708134.258     -527352.4381       3876.000          24.000  
G 4 160096023.960       34410.692        -248.000          42.000  
G 7 163985251.944     -592610.8671       3601.000          16.000  
G 8 159199493.696     -300654.137        1627.000          44.000  
G 9 161179524.138     -228630.453        1239.000          43.000  
G16 160756708.303      176839.934        -998.000          40.000  
G21 162125844.067     -679189.544        4067.000          38.000  
G26 162318618.516      217818.985       -1307.000          34.000  
G27 159064938.184      103910.597        -635.000          42.000  
G31 161663717.493      301687.953       -1720.000          42.000  
> 2024 12 16  7 19  4.4619999  0  9                     
G 2 163707380.165     -531228.3081       3875.000          24.000  
G 4 160096071.223       34659.347        -248.000          42.000  
G 8 159199184.183     -302280.779        1626.000          44.000  
G 9 161179288.369     -229869.134        1238.000          43.000  
G16 160756898.329      177838.764        -998.000          40.000  
G21 162125069.994     -683257.438        4067.000          38.000  
G26 162318867.197      219126.248       -1307.000          35.000  
G27 159065059.118      104546.288        -635.000          42.000  
G31 161664044.995      303409.042       -1721.000          42.000  
> 2024 12 16  7 19  5.4619999  0  9                     
G 2 163706648.394     -535104.2511       3875.000          24.000  
G 4 160096118.624       34908.729        -249.000          43.000  
G 8 159198874.820     -303906.661        1625.000          44.000  
G 9 161179052.744     -231107.067        1237.000          43.000  
G16 160757088.406      178837.778        -999.000          40.000  
G21 162124295.938     -687325.222        4067.000          38.000  
G26 162319115.953      220433.580       -1307.000          34.000  
G27 159065180.169      105182.625        -636.000          42.000  
G31 161664372.591      305130.590       -1721.000          42.000  
> 2024 12 16  7 19  6.4619999  0 10                     
G 2 163705898.877     -538979.4281       3875.000          25.000  
G 4 160096166.144       35158.702        -249.000          42.000  
G 8 159198565.562     -305532.009        1625.000          44.000  
G 9 161178817.230     -232344.444        1237.000          42.000  
G16 160757278.498      179836.823        -999.000          40.000  
G21 162123521.894     -691392.898        4067.000          38.000  
G26 162319364.729      221740.924       -1307.000          34.000  
G27 159065301.329      105819.557        -636.000          42.000  
G28 163894783.506       15243.7691      -2478.000          16.000  
G31 161664700.261      306852.458       -1721.000          42.000  
> 2024 12 16  7 19  7.4619999  0  9                     
G 2 163705176.407     -542855.8661       3875.000          24.000  
G 4 160096213.776       35409.249        -250.000          43.000  
G 8 159198256.408     -307156.820        1624.000          44.000  
G 9 161178581.834     -233581.218        1236.000          43.000  
G16 160757468.591      180835.892        -999.000          40.000  
G21 162122747.821     -695460.634        4067.000          38.000  
G26 162319613.488      223048.199       -1307.000          34.000  
G27 159065422.588      106457.004        -637.000          42.000  
G31 161665027.989      308574.604       -1722.000          42.000  
> 2024 12 16  7 19  8.4619999  0 10                     
G 2 163704420.738     -546731.1141       3875.000          24.000  
G 4 160096261.621       35660.854        -251.000          43.000  
G 8 159197947.459     -308780.538        1623.000          44.000  
G 9 161178346.648     -234816.920        1235.000          42.000  
G16 160757658.780      181835.436        -999.000          40.000  
G21 162121973.836     -699527.852        4067.000          38.000  
G26 162319862.374      224355.965       -1307.000          33.000  
G27 159065544.044      107095.493        -638.000          42.000  
G28 163895731.489       20199.1021      -2477.000          18.000  
G31 161665355.877      310297.569       -1722.000          42.000  
> 2024 12 16  7 19  9.4619999  0 10                     
G 2 163703684.531     -550607.0521       3875.000          25.000  
G 4 160096309.559       35912.896        -252.000          43.000  
G 8 159197638.578     -310403.869        1623.000          44.000  
G 9 161178111.561     -236052.161        1235.000          43.000  
G16 160757848.949      182834.856        -999.000          40.000  
G21 162121199.809     -703595.206        4067.000          39.000  
G26 162320111.203      225663.531       -1307.000          34.000  
G27 159065665.585      107734.417        -638.000          42.000  
G28 163896202.977       22676.0991      -2476.000          15.000  
G31 161665683.790      312020.653       -1723.000          42.000  
> 2024 12 16  7 19 10.4619999  0  9                     
G 2 163702923.710     -554482.9151       3875.000          25.000  
G 4 160096357.584       36165.304        -252.000          43.000  
G 8 159197329.756     -312026.887        1623.000          44.000  
G 9 161177876.539     -237287.117        1234.000          43.000  
G16 160758039.079      183834.059        -999.000          41.000  
G21 162120425.723     -707662.794        4067.000          38.000  
G26 162320360.001      226970.875       -1307.000          35.000  
G27 159065787.189      108373.612        -639.000          42.000  
G31 161666011.728      313743.835       -1723.000          42.000  
> 2024 12 16  7 19 11.4619999  0  9                     
G 2 163702216.549     -558357.5781       3874.000          26.000  
G 4 160096406.074       36420.063        -254.000          43.000  
G 8 159197021.389     -313647.479        1620.000          44.000  
G 9 161177641.991     -238519.646        1232.000          43.000  
G16 160758229.560      184835.112       -1001.000          41.000  
G21 162119651.989     -711728.513        4065.000          38.000  
G26 162320609.166      228279.962       -1309.000          35.000  
G27 159065909.262      109015.204        -641.000          42.000  
G31 161666340.062      315469.122       -1725.000          42.000  
> 2024 12 16  7 19 12.4619999  0  9                     
G 2 163701472.044     -562227.7201       3870.000          26.000  
G 4 160096455.483       36679.593        -259.000          43.000  
G 8 159196713.899     -315263.396        1615.000          44.000  
G 9 161177408.361     -239747.409        1227.000          43.000  
G16 160758420.837      185840.318       -1005.000          40.000  
G21 162118879.038     -715790.093        4061.000          38.000  
G26 162320859.125      229593.243       -1313.000          35.000  
G27 159066032.237      109661.496        -646.000          42.000  
G31 161666669.248      317198.894       -1729.000          42.000  
> 2024 12 16  7 19 13.4619999  0  9                     
G 2 163700735.475     -566099.1631       3871.000          26.000  
G 4 160096504.821       36938.693        -259.000          43.000  
G 8 159196406.314     -316879.763        1616.000          44.000  
G 9 161177174.655     -240975.635        1228.000          43.000  
G16 160758611.923      186844.533       -1004.000          41.000  
G21 162118105.885     -719852.658        4062.000          38.000  
G26 162321108.883      230905.417       -1312.000          35.000  
G27 159066155.129      110307.305        -645.000          42.000  
G31 161666998.293      318927.945       -1729.000          42.000  
> 2024 12 16  7 19 14.4619999  0  9                     
G 2 163699997.767     -569971.4441       3872.000          26.000  
G 4 160096554.226       37198.107        -259.000          43.000  
G 8 159196098.779     -318495.815        1616.000          44.000  
G 9 161176941.026     -242203.496        1227.000          43.000  
G16 160758802.963      187848.505       -1003.000          41.000  
G21 162117332.679     -723915.503        4062.000          38.000  
G26 162321358.614      232217.342       -1311.000          35.000  
G27 159066278.093      110953.460        -646.000          42.000  
G31 161667327.332      320657.007       -1729.000          42.000  
> 2024 12 16  7 19 15.4619999  0  9                     
G 2 163699253.402     -573844.8871       3873.000          26.000  
G 4 160096603.546       37457.043        -258.000          43.000  
G 8 159195791.133     -320112.398        1616.000          44.000  
G 9 161176707.305     -243431.859        1228.000          44.000  
G16 160758993.810      188851.457       -1002.000          41.000  
G21 162116559.280     -727979.344        4063.000          39.000  
G26 162321608.158      233528.184       -1310.000          35.000  
G27 159066400.959      111599.036        -645.000          43.000  
G31 161667656.235      322385.371       -1728.000          42.000  
> 2024 12 16  7 19 16.4619999  0  9                     
G 2 163698509.612     -577719.6821       3874.000          26.000  
G 4 160096652.774       37715.476        -258.000          43.000  
G 8 159195483.388     -321729.465        1617.000          44.000  
G 9 161176473.490     -244660.708        1228.000          43.000  
G16 160759184.438      189853.302       -1001.000          41.000  
G21 162115785.671     -732044.267        4064.000          38.000  
G26 162321857.457      234837.916       -1309.000          35.000  
G27 159066523.737      112244.111        -645.000          43.000  
G31 161667984.983      324112.919       -1727.000          42.000  
> 2024 12 16  7 19 17.4619999  0  9                     
G 2 163697760.741     -581595.4691       3875.000          25.000  
G 4 160096701.955       37973.660        -258.000          43.000  
G 8 159195175.584     -323346.828        1617.000          43.000  
G 9 161176239.620     -245889.841        1229.000          43.000  
G16 160759374.916      190854.355       -1001.000          40.000  
G21 162115011.900     -736110.033        4065.000          38.000  
G26 162322106.611      236146.751       -1308.000          34.000  
G27 159066646.467      112888.913        -644.000          42.000  
G31 161668313.636      325839.970       -1727.000          41.000  
> 2024 12 16  7 19 18.4619999  0  9                     
G 2 163697031.684     -585470.3571       3874.000          24.000  
G 4 160096751.155       38231.975        -258.000          43.000  
G 8 159194867.812     -324964.036        1617.000          43.000  
G 9 161176005.782     -247118.796        1228.000          43.000  
G16 160759565.318      191855.017       -1000.000          40.000  
G21 162114238.049     -740176.185        4066.000          38.000  
G26 162322355.663      237455.145       -1308.000          35.000  
G27 159066769.221      113533.829        -644.000          42.000  
G31 161668642.260      327566.872       -1726.000          41.000  
> 2024 12 16  7 19 19.4619999  0  9                     
G 2 163696282.315     -589346.4221       3876.000          24.000  
G 4 160096800.457       38490.860        -258.000          43.000  
G 8 159194560.143     -326580.702        1616.000          44.000  
G 9 161175772.045     -248347.196        1228.000          43.000  
G16 160759755.715      192855.665       -1000.000          41.000  
G21 162113464.209     -744242.361        4066.000          39.000  
G26 162322604.719      238763.478       -1308.000          35.000  
G27 159066892.068      114179.249        -645.000          43.000  
G31 161668970.942      329294.076       -1727.000          42.000  
> 2024 12 16  7 19 20.4619999  0 10                     
G 2 163695539.738     -593222.2841       3875.000          24.000  
G 4 160096850.011       38751.143        -260.000          43.000  
G 7 163973486.924     -653722.5571       3598.000          20.000  
G 8 159194252.733     -328196.032        1615.000          44.000  
G 9 161175538.576     -249574.169        1226.000          43.000  
G16 160759946.258      193857.111       -1001.000          40.000  
G21 162112690.525     -748307.747        4065.000          39.000  
G26 162322853.919      240072.642       -1309.000          35.000  
G27 159067015.178      114826.037        -646.000          43.000  
G31 161669299.821      331022.364       -1728.000          41.000  
> 2024 12 16  7 19 21.4619999  0 11                     
G 2 163694810.114     -597098.1641       3875.000          24.000  
G 4 160096899.679       39012.087        -260.000          42.000  
G 7 163972780.910     -657321.7161       3599.000          20.000  
G 8 159193945.454     -329810.697        1614.000          44.000  
G 9 161175305.213     -250800.528        1226.000          43.000  
G16 160760136.820      194858.711       -1001.000          40.000  
G21 162111916.862     -752373.008        4065.000          39.000  
G26 162323103.127      241381.816       -1309.000          35.000  
G27 159067138.410      115473.498        -647.000          43.000  
G28 163902443.502        7329.9991      -2465.000          14.000  
G31 161669628.767      332751.064       -1728.000          41.000  
> 2024 12 16  7 19 22.4619999  0 10                     
G 2 163694077.554     -600974.8041       3876.000          24.000  
G 4 160096949.330       39273.035        -260.000          42.000  
G 7 163972069.028     -660912.0651       3590.000          22.000  
G 8 159193638.181     -331425.374        1614.000          44.000  
G 9 161175071.842     -252026.859        1226.000          43.000  
G16 160760327.272      195859.738       -1001.000          41.000  
G21 162111143.105     -756438.822        4065.000          39.000  
G26 162323352.252      242690.416       -1308.000          35.000  
G27 159067261.625      116120.863        -647.000          43.000  
G31 161669957.650      334479.475       -1728.000          42.000  
> 2024 12 16  7 19 23.4619999  0 10                     
G 2 163693338.485     -604852.3831       3877.000          24.000  
G 4 160096998.938       39533.847        -260.000          42.000  
G 7 163971406.797     -664504.8101       3592.000          20.000  
G 8 159193330.890     -333040.185        1614.000          44.000  
G 9 161174838.445     -253253.296        1226.000          43.000  
G16 160760517.593      196860.087       -1000.000          40.000  
G21 162110369.226     -760505.306        4066.000          39.000  
G26 162323601.196      243998.302       -1307.000          35.000  
G27 159067384.815      116768.117        -647.000          43.000  
G31 161670286.458      336207.521       -1728.000          41.000  
> 2024 12 16  7 19 24.4619999  0 10                     
G 2 163692604.494     -608730.0861       3877.000          24.000  
G 4 160097048.635       39795.212        -261.000          42.000  
G 7 163970696.202     -668100.9811       3596.000          21.000  
G 8 159193023.703     -334654.486        1614.000          45.000  
G 9 161174605.143     -254479.223        1225.000          42.000  
G16 160760707.904      197860.370       -1000.000          40.000  
G21 162109595.354     -764571.830        4066.000          39.000  
G26 162323850.153      245306.066       -1307.000          35.000  
G27 159067508.092      117415.866        -647.000          43.000  
G31 161670615.298      337935.783       -1728.000          42.000  
> 2024 12 16  7 19 25.4619999  0 10                     
G 2 163691857.624     -612607.7011       3877.000          23.000  
G 4 160097098.507       40057.551        -262.000          42.000  
G 7 163970057.010     -671699.4331       3598.000          22.000  
G 8 159192716.702     -336267.855        1613.000          44.000  
G 9 161174372.026     -255704.146        1224.000          42.000  
G16 160760898.297      198861.073       -1000.000          40.000  
G21 162108821.565     -768637.990        4066.000          39.000  
G26 162324099.161      246614.200       -1308.000          35.000  
G27 159067631.535      118064.551        -648.000          43.000  
G31 161670944.271      339664.764       -1728.000          42.000  
> 2024 12 16  7 19 26.4619999  0 10                     
G 2 163691126.639     -616484.0041       3876.000          23.000  
G 4 160097148.745       40321.855        -264.000          42.000  
G 7 163969339.692     -675300.0221       3600.000          22.000  
G 8 159192410.084     -337879.262        1611.000          45.000  
G 9 161174139.269     -256927.140        1222.000          42.000  
G16 160761088.956      199863.198       -1002.000          40.000  
G21 162108048.073     -772702.715        4064.000          39.000  
G26 162324348.404      247923.725       -1309.000          35.000  
G27 159067755.338      118715.159        -650.000          43.000  
G31 161671273.572      341395.428       -1730.000          41.000  
> 2024 12 16  7 19 27.4619999  0 10                     
G 2 163690367.607     -620359.7521       3875.000          23.000  
G 4 160097199.233       40587.483        -265.000          42.000  
G 7 163968625.948     -678898.7951       3598.000          22.000  
G 8 159192103.729     -339489.348        1610.000          45.000  
G 9 161173906.774     -258148.740        1221.000          43.000  
G16 160761279.762      200866.107       -1002.000          40.000  
G21 162107274.743     -776766.661        4063.000          39.000  
G26 162324597.778      249233.923       -1310.000          35.000  
G27 159067879.382      119367.095        -651.000          43.000  
G31 161671603.075      343127.150       -1731.000          41.000  
> 2024 12 16  7 19 28.4619999  0 10                     
G 2 163689626.392     -624235.7591       3876.000          24.000  
G 4 160097249.820       40853.622        -266.000          42.000  
G 7 163967969.588     -682500.4111       3601.000          23.000  
G 8 159191797.472     -341098.948        1609.000          45.000  
G 9 161173674.375     -259369.843        1221.000          43.000  
G16 160761470.548      201868.926       -1002.000          40.000  
G21 162106501.413     -780830.690        4064.000          40.000  
G26 162324847.149      250544.054       -1310.000          35.000  
G27 159068003.503      120019.495        -652.000          42.000  
G31 161671932.625      344859.146       -1731.000          42.000  
> 2024 12 16  7 19 29.4619999  0 10                     
G 2 163688896.767     -628111.9031       3876.000          23.000  
G 4 160097300.521       41120.354        -266.000          42.000  
G 7 163967283.175     -686095.9291       3595.000          22.000  
G 8 159191491.326     -342707.991        1609.000          45.000  
G 9 161173442.081     -260590.375        1220.000          43.000  
G16 160761661.341      202871.784       -1002.000          40.000  
G21 162105728.098     -784894.711        4064.000          40.000  
G26 162325096.508      251854.155       -1310.000          35.000  
G27 159068127.721      120672.428        -652.000          42.000  
G31 161672262.231      346591.393       -1732.000          42.000  
> 2024 12 16  7 19 30.4619999  0 10                     
G 2 163688171.292     -631987.6131       3875.000          24.000  
G 4 160097351.456       41388.301        -267.000          42.000  
G 7 163966599.912     -689689.1601       3593.000          21.000  
G 8 159191185.418     -344315.812        1607.000          45.000  
G 9 161173210.030     -261809.655        1219.000          43.000  
G16 160761852.259      203875.309       -1003.000          40.000  
G21 162104954.926     -788958.040        4063.000          40.000  
G26 162325346.001      253164.902       -1310.000          35.000  
G27 159068252.169      121326.585        -654.000          42.000  
G31 161672592.039      348324.636       -1733.000          42.000  
> 2024 12 16  7 19 31.4619999  0 10                     
G 2 163687443.169     -635862.1821       3874.000          22.000  
G 4 160097402.722       41657.987        -269.000          42.000  
G 7 163965893.750     -693285.7391       3596.000          19.000  
G 8 159190879.835     -345921.929        1606.000          45.000  
G 9 161172978.313     -263027.230        1217.000          43.000  
G16 160762043.408      204880.019       -1004.000          40.000  
G21 162104181.984     -793020.216        4062.000          40.000  
G26 162325595.674      254476.796       -1311.000          34.000  
G27 159068376.936      121982.449        -655.000          43.000  
G31 161672922.131      350059.311       -1734.000          42.000  
> 2024 12 16  7 19 32.4619999  0 10                     
G 2 163686700.304     -639736.8851       3874.000          21.000  
G 4 160097454.134       41928.428        -270.000          42.000  
G 7 163965238.106     -696882.1851       3596.000          20.000  
G 8 159190574.402     -347527.287        1605.000          45.000  
G 9 161172746.745     -264244.059        1216.000          43.000  
G16 160762234.588      205884.877       -1004.000          40.000  
G21 162103409.083     -797082.214        4062.000          40.000  
G26 162325845.373      255788.796       -1311.000          34.000  
G27 159068501.831      122638.997        -656.000          43.000  
G31 161673252.331      351794.491       -1735.000          42.000  
> 2024 12 16  7 19 33.4619999  0 10                     
G 2 163685948.213     -643611.6601       3874.000          19.000  
G 4 160097505.770       42200.015        -271.000          42.000  
G 7 163964566.002     -700479.4451       3597.000          19.000  
G 8 159190269.176     -349131.535        1604.000          44.000  
G 9 161172515.414     -265459.693        1215.000          43.000  
G16 160762425.893      206890.354       -1005.000          40.000  
G21 162102636.300     -801143.590        4061.000          39.000  
G26 162326095.141      257101.338       -1312.000          34.000  
G27 159068626.941      123296.665        -657.000          42.000  
G31 161673582.697      353530.521       -1736.000          42.000  
> 2024 12 16  7 19 34.4619999  0  9                     
G 2 163685193.548     -647483.6171       3871.000          18.000  
G 4 160097557.671       42472.976        -272.000          41.000  
G 8 159189964.208     -350734.420        1602.000          44.000  
G 9 161172284.358     -266673.951        1214.000          42.000  
G16 160762617.361      207896.665       -1006.000          40.000  
G21 162101863.673     -805204.141        4060.000          39.000  
G26 162326345.053      258414.718       -1313.000          33.000  
G27 159068752.324      123955.757        -659.000          42.000  
G31 161673913.278      355267.659       -1737.000          42.000  
> 2024 12 16  7 19 35.4619999  0  9                     
G 2 163684479.877     -651349.3961       3865.000          18.000  
G 4 160097609.509       42745.560        -272.000          41.000  
G 8 159189659.157     -352337.701        1603.000          44.000  
G 9 161172053.240     -267888.598        1214.000          42.000  
G16 160762808.641      208901.979       -1005.000          40.000  
G21 162101090.861     -809265.703        4061.000          39.000  
G26 162326594.714      259727.008       -1312.000          33.000  
G27 159068877.622      124614.367        -658.000          42.000  
G31 161674243.739      357004.127       -1736.000          42.000  
> 2024 12 16  7 19 36.4619999  0  9                     
G 2 163683719.772     -655217.4261       3868.000          17.000  
G 4 160097661.514       43018.998        -273.000          42.000  
G 8 159189354.255     -353940.146        1602.000          44.000  
G 9 161171822.298     -269102.363        1213.000          43.000  
G16 160763000.003      209907.660       -1005.000          40.000  
G21 162100318.121     -813326.898        4061.000          39.000  
G26 162326844.437      261039.621       -1312.000          34.000  
G27 159069003.083      125273.801        -659.000          42.000  
G31 161674574.322      358741.193       -1737.000          42.000  
> 2024 12 16  7 19 37.4619999  0  9                     
G 2 163682979.700     -659087.2601       3869.000          19.000  
G 4 160097713.573       43292.688        -273.000          42.000  
G 8 159189049.377     -355542.389        1602.000          44.000  
G 9 161171591.412     -270315.901        1213.000          43.000  
G16 160763191.302      210912.982       -1005.000          40.000  
G21 162099545.323     -817388.459        4061.000          39.000  
G26 162327094.048      262351.828       -1312.000          33.000  
G27 159069128.605      125933.492        -659.000          42.000  
G31 161674904.898      360478.222       -1737.000          42.000  
> 2024 12 16  7 19 38.4619999  0  9                     
G 2 163682228.900     -662965.8211       3878.000          18.000  
G 4 160097765.646       43566.442        -273.000          42.000  
G 8 159188744.507     -357144.538        1602.000          44.000  
G 9 161171360.538     -271529.381        1213.000          43.000  
G16 160763382.511      211917.805       -1004.000          40.000  
G21 162098772.439     -821450.497        4062.000          39.000  
G26 162327343.580      263663.533       -1311.000          34.000  
G27 159069254.137      126593.186        -659.000          43.000  
G31 161675235.439      362215.047       -1736.000          42.000  
> 2024 12 16  7 19 39.4619999  0  9                     
G 2 163681552.359     -666838.0951       3872.000          21.000  
G 4 160097817.937       43841.305        -274.000          42.000  
G 8 159188439.819     -358745.655        1601.000          44.000  
G 9 161171129.884     -272741.745        1212.000          43.000  
G16 160763573.828      212923.162       -1005.000          40.000  
G21 162097999.649     -825512.019        4061.000          39.000  
G26 162327593.210      264975.682       -1312.000          34.000  
G27 159069379.879      127253.945        -660.000          42.000  
G31 161675566.136      363952.693       -1737.000          42.000  
> 2024 12 16  7 19 40.4619999  0  9                     
G 2 163680828.742     -670713.2561       3875.000          20.000  
G 4 160097870.620       44118.148        -276.000          43.000  
G 8 159188135.511     -360344.738        1599.000          44.000  
G 9 161170899.618     -273952.081        1210.000          43.000  
G16 160763765.421      213929.995       -1006.000          40.000  
G21 162097227.132     -829572.085        4060.000          39.000  
G26 162327843.113      266289.232       -1313.000          34.000  
G27 159069506.012      127916.705        -662.000          43.000  
G31 161675897.156      365692.063       -1739.000          42.000  
> 2024 12 16  7 19 41.4619999  0  9                     
G 2 163680088.386     -674594.7811       3881.000          19.000  
G 4 160097923.127       44394.025        -275.000          43.000  
G 8 159187831.001     -361944.855        1600.000          44.000  
G 9 161170669.164     -275163.413        1211.000          43.000  
G16 160763956.720      214935.267       -1005.000          40.000  
G21 162096454.317     -833633.688        4061.000          39.000  
G26 162328092.667      267601.278       -1312.000          34.000  
G27 159069631.954      128578.429        -661.000          43.000  
G31 161676227.940      367430.207       -1738.000          42.000  
> 2024 12 16  7 19 42.4619999  0  9                     
G 2 163679335.008     -678468.2991       3873.000          18.000  
G 4 160097975.787       44670.697        -276.000          43.000  
G 8 159187526.636     -363544.190        1599.000          44.000  
G 9 161170438.855     -276373.937        1210.000          43.000  
G16 160764148.055      215940.755       -1005.000          40.000  
G21 162095681.542     -837695.063        4061.000          39.000  
G26 162328342.240      268913.446       -1312.000          34.000  
G27 159069758.049      129240.923        -662.000          43.000  
G31 161676558.819      369168.854       -1738.000          42.000  
> 2024 12 16  7 19 43.4619999  0  9                     
G 2 163678551.004     -682348.2771       3879.000          15.000  
G 4 160098028.548       44947.868        -277.000          43.000  
G 8 159187222.361     -365143.016        1598.000          44.000  
G 9 161170208.639     -277583.955        1210.000          43.000  
G16 160764339.374      216946.184       -1005.000          40.000  
G21 162094908.751     -841756.474        4061.000          38.000  
G26 162328591.817      270225.521       -1312.000          35.000  
G27 159069884.235      129903.907        -662.000          43.000  
G31 161676889.742      370907.738       -1738.000          42.000  
> 2024 12 16  7 19 44.4619999  0  9                     
G 2 163677825.529     -686223.1881       3874.000          13.000  
G 4 160098081.141       45224.161        -276.000          43.000  
G 8 159186917.905     -366742.769        1599.000          44.000  
G 9 161169978.253     -278794.848        1210.000          43.000  
G16 160764530.413      217950.167       -1003.000          40.000  
G21 162094135.679     -845819.344        4062.000          38.000  
G26 162328841.100      271536.117       -1310.000          35.000  
G27 159070010.238      130565.938        -662.000          42.000  
G31 161677220.438      372645.436       -1737.000          42.000  
> 2024 12 16  7 19 45.4619999  0  9                     
G 2 163677077.015     -690102.6451       3879.000          15.000  
G 4 160098133.898       45501.298        -277.000          43.000  
G 8 159186613.611     -368341.681        1598.000          44.000  
G 9 161169748.026     -280004.867        1210.000          42.000  
G16 160764721.499      218954.448       -1004.000          40.000  
G21 162093362.655     -849881.963        4062.000          38.000  
G26 162329090.454      272846.932       -1310.000          35.000  
G27 159070136.402      131228.814        -662.000          42.000  
G31 161677551.246      374383.729       -1738.000          42.000  
> 2024 12 16  7 19 46.4619999  0  9                     
G 2 163676291.729     -693976.3461       3873.000          11.000  
G 4 160098186.802       45779.192        -277.000          43.000  
G 8 159186309.459     -369939.849        1598.000          44.000  
G 9 161169517.926     -281214.183        1209.000          42.000  
G16 160764912.628      219958.928       -1004.000          40.000  
G21 162092589.671     -853944.335        4062.000          38.000  
G26 162329339.818      274157.896       -1310.000          35.000  
G27 159070262.696      131892.395        -663.000          43.000  
G31 161677882.142      376122.485       -1738.000          42.000  
> 2024 12 16  7 19 47.4619999  0  8                     
G 4 160098239.696       46057.065        -277.000          43.000  
G 8 159186005.294     -371538.099        1598.000          44.000  
G 9 161169287.813     -282423.492        1209.000          42.000  
G16 160765103.644      220962.795       -1003.000          40.000  
G21 162091816.554     -858007.358        4063.000          38.000  
G26 162329589.080      275468.228       -1310.000          35.000  
G27 159070388.980      132555.919        -663.000          42.000  
G31 161678212.982      377860.940       -1738.000          42.000  
> 2024 12 16  7 19 48.4619999  0  8                     
G 4 160098292.580       46334.915        -277.000          42.000  
G 8 159185701.134     -373136.352        1598.000          44.000  
G 9 161169057.685     -283632.813        1209.000          42.000  
G16 160765294.560      221966.108       -1003.000          40.000  
G21 162091043.336     -862070.918        4063.000          38.000  
G26 162329838.199      276777.965       -1309.000          35.000  
G27 159070515.247      133219.412        -663.000          42.000  
G31 161678543.773      379599.139       -1738.000          42.000  
> 2024 12 16  7 19 49.4619999  0  8                     
G 4 160098345.610       46613.547        -278.000          42.000  
G 8 159185397.118     -374733.848        1597.000          44.000  
G 9 161168827.695     -284841.302        1208.000          42.000  
G16 160765485.524      222969.637       -1003.000          40.000  
G21 162090270.155     -866134.247        4063.000          38.000  
G26 162330087.376      278087.860       -1309.000          36.000  
G27 159070641.649      133883.648        -664.000          42.000  
G31 161678874.653      381337.805       -1738.000          42.000  
> 2024 12 16  7 19 50.4619999  0  8                     
G 4 160098398.787       46892.994        -279.000          42.000  
G 8 159185093.265     -376330.515        1596.000          44.000  
G 9 161168597.844     -286049.024        1207.000          42.000  
G16 160765676.542      223973.421       -1003.000          40.000  
G21 162089497.009     -870197.324        4063.000          38.000  
G26 162330336.576      279397.965       -1310.000          36.000  
G27 159070768.187      134548.645        -664.000          42.000  
G31 161679205.643      383077.032       -1739.000          42.000  
> 2024 12 16  7 19 51.4619999  0  8                     
G 4 160098452.226       47173.878        -280.000          42.000  
G 8 159184789.677     -377925.815        1595.000          44.000  
G 9 161168368.264     -287255.281        1206.000          42.000  
G16 160765867.739      224978.063       -1004.000          40.000  
G21 162088724.008     -874259.557        4062.000          37.000  
G26 162330586.016      280708.894       -1310.000          36.000  
G27 159070894.989      135215.068        -666.000          42.000  
G31 161679536.850      384817.414       -1740.000          42.000  
> 2024 12 16  7 19 52.4619999  0  9                     
G 2 163671992.244     -717172.0391       3877.000          15.000  
G 4 160098505.856       47455.803        -281.000          42.000  
G 8 159184486.291     -379520.058        1594.000          44.000  
G 9 161168138.865     -288460.527        1205.000          42.000  
G16 160766059.043      225983.206       -1005.000          40.000  
G21 162087951.086     -878321.280        4061.000          37.000  
G26 162330835.559      282020.258       -1311.000          37.000  
G27 159071021.973      135882.495        -667.000          43.000  
G31 161679868.203      386558.553       -1741.000          42.000  
> 2024 12 16  7 19 53.4619999  0  9                     
G 2 163671252.887     -721047.8091       3875.000          17.000  
G 4 160098559.794       47739.383        -283.000          42.000  
G 8 159184183.223     -381112.660        1592.000          44.000  
G 9 161167909.796     -289664.054        1203.000          42.000  
G16 160766250.561      226989.438       -1006.000          40.000  
G21 162087178.354     -882381.913        4060.000          37.000  
G26 162331085.310      283332.680       -1312.000          37.000  
G27 159071149.263      136551.542        -669.000          42.000  
G31 161680199.819      388301.083       -1742.000          42.000  
> 2024 12 16  7 19 54.4619999  0 10                     
G 2 163670514.677     -724924.4511       3876.000          18.000  
G 4 160098613.899       48023.872        -284.000          42.000  
G 8 159183880.322     -382704.410        1591.000          44.000  
G 9 161167680.891     -290866.742        1202.000          42.000  
G16 160766442.146      227995.995       -1006.000          40.000  
G21 162086405.667     -886442.233        4060.000          37.000  
G26 162331335.143      284645.429       -1312.000          37.000  
G27 159071276.711      137221.454        -669.000          43.000  
G28 163917204.724        6918.5811      -2476.000          16.000  
G31 161680531.555      390044.224       -1743.000          42.000  
> 2024 12 16  7 19 55.4619999  0 10                     
G 2 163669776.751     -728802.3031       3877.000          17.000  
G 4 160098668.009       48308.405        -284.000          42.000  
G 8 159183577.439     -384296.070        1591.000          44.000  
G 9 161167452.012     -292069.340        1202.000          43.000  
G16 160766633.640      229002.044       -1006.000          40.000  
G21 162085632.877     -890503.040        4060.000          37.000  
G26 162331584.886      285957.587       -1312.000          37.000  
G27 159071404.166      137891.382        -669.000          43.000  
G28 163917651.742        9385.7661      -2467.000          12.000  
G31 161680863.248      391787.144       -1742.000          42.000  
> 2024 12 16  7 19 56.4619999  0  9                     
G 2 163669036.539     -732678.0751       3875.000          15.000  
G 4 160098722.185       48593.307        -284.000          43.000  
G 8 159183274.619     -385887.426        1591.000          44.000  
G 9 161167223.214     -293271.552        1202.000          43.000  
G16 160766825.107      230007.930       -1005.000          40.000  
G21 162084860.041     -894564.009        4060.000          37.000  
G26 162331834.591      287269.514       -1311.000          37.000  
G27 159071531.695      138561.670        -670.000          43.000  
G31 161681194.964      393530.190       -1743.000          42.000  
> 2024 12 16  7 19 57.4619999  0  9                     
G 2 163668299.329     -736551.9961       3873.000          17.000  
G 4 160098776.595       48879.423        -286.000          43.000  
G 8 159182972.033     -387477.566        1590.000          44.000  
G 9 161166994.655     -294472.531        1200.000          43.000  
G16 160767016.703      231014.469       -1006.000          40.000  
G21 162084087.327     -898624.319        4060.000          37.000  
G26 162332084.429      288582.062       -1312.000          36.000  
G27 159071659.457      139233.146        -671.000          43.000  
G31 161681526.863      395274.172       -1743.000          42.000  
> 2024 12 16  7 19 58.4619999  0  9                     
G 2 163667557.110     -740426.2511       3874.000          15.000  
G 4 160098831.080       49165.872        -286.000          43.000  
G 8 159182669.511     -389067.369        1589.000          44.000  
G 9 161166766.159     -295673.208        1200.000          43.000  
G16 160767208.249      232020.743       -1006.000          40.000  
G21 162083314.559     -902684.874        4060.000          37.000  
G26 162332334.226      289894.325       -1312.000          36.000  
G27 159071787.277      139904.899        -671.000          43.000  
G31 161681858.770      397018.196       -1744.000          41.000  
> 2024 12 16  7 19 59.4619999  0  9                     
G 2 163666815.179     -744302.2201       3875.000          17.000  
G 4 160098885.837       49453.664        -287.000          43.000  
G 8 159182367.232     -390655.894        1588.000          44.000  
G 9 161166537.927     -296872.541        1199.000          43.000  
G16 160767399.952      233027.853       -1007.000          40.000  
G21 162082541.926     -906744.681        4059.000          36.000  
G26 162332584.166      291207.314       -1312.000          37.000  
G27 159071915.357      140577.979        -673.000          43.000  
G31 161682190.885      398763.285       -1745.000          41.000  
> 2024 12 16  7 20  0.4619999  0  9                     
G 2 163666078.684     -748176.8071       3874.000          20.000  
G 4 160098940.904       49743.017        -289.000          43.000  
G 8 159182065.260     -392242.836        1586.000          45.000  
G 9 161166310.006     -298070.293        1197.000          43.000  
G16 160767591.834      234035.920       -1008.000          40.000  
G21 162081769.453     -910803.496        4058.000          36.000  
G26 162332834.301      292521.291       -1313.000          36.000  
G27 159072043.738      141252.579        -674.000          43.000  
G31 161682523.228      400509.646       -1746.000          41.000  
> 2024 12 16  7 20  1.4619999  0  9                     
G 2 163665351.494     -752050.8371       3874.000          20.000  
G 4 160098996.293       50033.984        -290.000          43.000  
G 8 159181763.587     -393828.185        1585.000          44.000  
G 9 161166082.409     -299266.410        1196.000          44.000  
G16 160767783.914      235045.051       -1009.000          40.000  
G21 162080997.189     -914861.183        4057.000          36.000  
G26 162333084.638      293836.275       -1314.000          36.000  
G27 159072172.432      141928.756        -676.000          43.000  
G31 161682855.834      402257.386       -1747.000          41.000  
> 2024 12 16  7 20  2.4619999  0  9                     
G 2 163664648.769     -755925.4081       3874.000          20.000  
G 4 160099051.630       50324.625        -290.000          43.000  
G 8 159181461.835     -395413.919        1585.000          44.000  
G 9 161165854.752     -300462.887        1196.000          44.000  
G16 160767975.820      236053.301       -1008.000          40.000  
G21 162080224.750     -918919.776        4058.000          36.000  
G26 162333343.637      295150.3221      -1314.000          36.000  
G27 159072301.066      142604.574        -675.000          43.000  
G31 161683188.321      404004.504       -1747.000          41.000  
> 2024 12 16  7 20  3.4619999  0  9                     
G 2 163663900.395     -759803.5631       3878.000          20.000  
G 4 160099107.000       50615.391        -290.000          43.000  
G 8 159181160.105     -396999.489        1585.000          44.000  
G 9 161165627.140     -301659.187        1196.000          44.000  
G16 160768167.635      237061.132       -1007.000          39.000  
G21 162079452.216     -922978.847        4059.000          36.000  
G26 162333592.831      296463.8881      -1313.000          35.000  
G27 159072429.735      143280.524        -675.000          43.000  
G31 161683520.785      405751.502       -1746.000          42.000  
> 2024 12 16  7 20  4.4619999  0  9                     
G 2 163663164.476     -763681.7911       3878.000          20.000  
G 4 160099162.436       50906.493        -291.000          43.000  
G 8 159180858.418     -398584.778        1585.000          44.000  
G 9 161165399.595     -302855.166        1195.000          44.000  
G16 160768359.405      238068.741       -1007.000          40.000  
G21 162078679.607     -927038.089        4059.000          36.000  
G26 162333842.242      297777.1841      -1313.000          35.000  
G27 159072558.466      143956.742        -676.000          43.000  
G31 161683853.254      407498.516       -1747.000          41.000  
> 2024 12 16  7 20  5.4619999  0  9                     
G 2 163662400.365     -767559.9461       3878.000          22.000  
G 4 160099217.895       51197.711        -291.000          43.000  
G 8 159180556.744     -400169.939        1585.000          44.000  
G 9 161165172.076     -304051.024        1195.000          44.000  
G16 160768551.086      239075.889       -1007.000          39.000  
G21 162077907.006     -931097.794        4059.000          35.000  
G26 162334091.078      299090.0021      -1312.000          35.000  
G27 159072687.220      144633.035        -676.000          43.000  
G31 161684185.691      409245.377       -1746.000          41.000  
> 2024 12 16  7 20  6.4619999  0  9                     
G 2 163661665.013     -771438.7291       3878.000          20.000  
G 4 160099273.489       51489.644        -291.000          43.000  
G 8 159180255.189     -401754.456        1584.000          44.000  
G 9 161164944.690     -305246.181        1195.000          44.000  
G16 160768742.790      240083.192       -1007.000          39.000  
G21 162077134.363     -935157.396        4059.000          35.000  
G26 162334340.346      300402.9001      -1312.000          36.000  
G27 159072816.111      145310.015        -676.000          43.000  
G31 161684518.213      410992.688       -1747.000          41.000  
> 2024 12 16  7 20  7.4619999  0  9                     
G 2 163660914.929     -775314.4101       3875.000          21.000  
G 4 160099329.226       51782.347        -292.000          43.000  
G 8 159179953.780     -403338.164        1583.000          44.000  
G 9 161164717.455     -306440.541        1194.000          44.000  
G16 160768934.539      241090.729       -1007.000          39.000  
G21 162076361.808     -939216.683        4059.000          35.000  
G26 162334591.114      301715.966       -1313.000          35.000  
G27 159072945.144      145987.742        -677.000          43.000  
G31 161684850.824      412740.481       -1747.000          42.000  
> 2024 12 16  7 20  8.4619999  0  9                     
G 2 163660185.444     -779193.8981       3879.000          22.000  
G 4 160099384.794       52074.174        -291.000          43.000  
G 8 159179652.187     -404922.806        1584.000          44.000  
G 9 161164490.050     -307635.782        1195.000          44.000  
G16 160769126.007      242096.833       -1006.000          39.000  
G21 162075589.010     -943277.456        4060.000          36.000  
G26 162334841.307      303027.599       -1311.000          35.000  
G27 159073074.008      146664.586        -676.000          43.000  
G31 161685183.231      414487.175       -1746.000          42.000  
> 2024 12 16  7 20  9.4619999  0  9                     
G 2 163659444.373     -783074.5601       3880.000          21.000  
G 4 160099440.412       52366.282        -292.000          43.000  
G 8 159179350.645     -406507.161        1584.000          44.000  
G 9 161164262.699     -308830.695        1194.000          44.000  
G16 160769317.408      243102.632       -1005.000          39.000  
G21 162074816.182     -947338.506        4061.000          36.000  
G26 162335089.645      304338.846       -1311.000          35.000  
G27 159073202.906      147341.653        -677.000          43.000  
G31 161685515.642      416233.842       -1746.000          42.000  
> 2024 12 16  7 20 10.4619999  0  9                     
G 2 163658726.767     -786955.3911       3880.000          22.000  
G 4 160099496.198       52659.297        -293.000          43.000  
G 8 159179049.280     -408090.599        1583.000          44.000  
G 9 161164035.510     -310024.729        1194.000          44.000  
G16 160769508.873      244108.793       -1006.000          39.000  
G21 162074043.482     -951399.202        4060.000          36.000  
G26 162335339.484      305650.449       -1311.000          35.000  
G27 159073331.967      148019.597        -677.000          43.000  
G31 161685848.170      417981.131       -1747.000          42.000  
> 2024 12 16  7 20 11.4619999  0  9                     
G 2 163658002.003     -790834.2391       3878.000          23.000  
G 4 160099552.187       52953.419        -294.000          43.000  
G 8 159178748.123     -409672.967        1582.000          44.000  
G 9 161163808.523     -311217.653        1192.000          44.000  
G16 160769700.435      245115.466       -1006.000          39.000  
G21 162073270.871     -955459.353        4060.000          36.000  
G26 162335588.678      306962.531       -1312.000          35.000  
G27 159073461.224      148698.620        -679.000          43.000  
G31 161686180.858      419729.284       -1748.000          42.000  
> 2024 12 16  7 20 12.4619999  0  9                     
G 2 163657255.636     -794714.9481       3880.000          24.000  
G 4 160099608.169       53247.563        -294.000          43.000  
G 8 159178446.974     -411255.338        1582.000          44.000  
G 9 161163581.539     -312410.521        1192.000          44.000  
G16 160769891.903      246121.642       -1006.000          39.000  
G21 162072498.143     -959520.071        4060.000          36.000  
G26 162335836.514      308274.001       -1311.000          35.000  
G27 159073590.469      149377.633        -679.000          42.000  
G31 161686513.492      421477.164       -1747.000          42.000  
> 2024 12 16  7 20 13.4619999  0  9                     
G 2 163656516.998     -798594.7361       3879.000          23.000  
G 4 160099664.124       53541.619        -294.000          43.000  
G 8 159178145.804     -412837.825        1582.000          44.000  
G 9 161163354.522     -313603.519        1193.000          44.000  
G16 160770083.249      247127.128       -1005.000          39.000  
G21 162071725.305     -963581.406        4061.000          36.000  
G26 162336084.347      309584.822       -1310.000          35.000  
G27 159073719.671      150056.483        -678.000          42.000  
G31 161686846.052      423224.647       -1747.000          42.000  
> 2024 12 16  7 20 14.4619999  0  9                     
G 2 163655777.497     -802476.2991       3881.000          23.000  
G 4 160099720.130       53835.988        -294.000          43.000  
G 8 159177844.701     -414420.011        1582.000          44.000  
G 9 161163127.562     -314796.161        1192.000          44.000  
G16 160770274.560      248132.391       -1005.000          39.000  
G21 162070952.423     -967643.007        4061.000          37.000  
G26 162336333.828      310895.321       -1310.000          35.000  
G27 159073848.923      150735.641        -679.000          42.000  
G31 161687178.625      424972.191       -1747.000          42.000  
> 2024 12 16  7 20 15.4619999  0  9                     
G 2 163655033.420     -806358.6661       3882.000          22.000  
G 4 160099776.209       54130.786        -294.000          43.000  
G 8 159177543.693     -416001.729        1581.000          44.000  
G 9 161162900.675     -315988.363        1192.000          44.000  
G16 160770465.843      249137.512       -1005.000          39.000  
G21 162070179.536     -971704.688        4061.000          37.000  
G26 162336583.096      312205.702       -1310.000          35.000  
G27 159073978.241      151415.223        -679.000          42.000  
G31 161687511.235      426719.933       -1747.000          42.000  
> 2024 12 16  7 20 16.4619999  0  9                     
G 2 163654268.739     -810240.4031       3881.000          22.000  
G 4 160099832.396       54426.170        -295.000          43.000  
G 8 159177242.786     -417582.956        1581.000          44.000  
G 9 161162673.890     -317180.002        1191.000          44.000  
G16 160770657.135      250142.667       -1005.000          39.000  
G21 162069406.673     -975766.363        4061.000          37.000  
G26 162336831.216      313516.000       -1310.000          34.000  
G27 159074107.641      152095.303        -680.000          42.000  
G31 161687843.902      428467.941       -1748.000          42.000  
> 2024 12 16  7 20 17.4619999  0  9                     
G 2 163653533.674     -814123.2161       3882.000          23.000  
G 4 160099888.596       54721.631        -295.000          43.000  
G 8 159176941.908     -419164.061        1581.000          44.000  
G 9 161162447.123     -318371.525        1191.000          44.000  
G16 160770848.347      251147.359       -1004.000          40.000  
G21 162068633.732     -979828.477        4062.000          37.000  
G26 162337079.838      314825.796       -1309.000          34.000  
G27 159074237.053      152775.499        -680.000          42.000  
G31 161688176.539      430215.784       -1747.000          42.000  
> 2024 12 16  7 20 18.4619999  0  9                     
G 2 163652822.364     -818006.5931       3883.000          21.000  
G 4 160099944.868       55017.510        -295.000          43.000  
G 8 159176641.107     -420744.777        1580.000          44.000  
G 9 161162220.427     -319562.639        1191.000          44.000  
G16 160771039.530      252151.860       -1004.000          40.000  
G21 162067860.761     -983890.809        4062.000          37.000  
G26 162337329.250      316135.404       -1309.000          34.000  
G27 159074366.517      153456.033        -680.000          42.000  
G31 161688509.198      431963.739       -1747.000          42.000  
> 2024 12 16  7 20 19.4619999  0  9                     
G 2 163652059.397     -821890.4701       3883.000          22.000  
G 4 160100001.237       55313.923        -296.000          42.000  
G 8 159176340.406     -422325.036        1580.000          44.000  
G 9 161161993.834     -320753.211        1190.000          44.000  
G16 160771230.722      253156.351       -1004.000          40.000  
G21 162067087.796     -987953.145        4062.000          37.000  
G26 162337579.158      317444.933       -1309.000          34.000  
G27 159074496.057      154137.040        -681.000          42.000  
G31 161688841.902      433711.953       -1748.000          42.000  
> 2024 12 16  7 20 20.4619999  0  9                     
G 2 163651332.347     -825773.7721       3883.000          23.000  
G 4 160100057.725       55610.971        -297.000          43.000  
G 8 159176039.839     -423904.602        1579.000          44.000  
G 9 161161767.364     -321943.160        1189.000          44.000  
G16 160771421.939      254160.910       -1004.000          40.000  
G21 162066314.864     -992015.377        4062.000          37.000  
G26 162337826.707      318754.501       -1309.000          34.000  
G27 159074625.716      154818.696        -681.000          42.000  
G31 161689174.673      435460.525       -1748.000          42.000  
> 2024 12 16  7 20 21.4619999  0  9                     
G 2 163650617.032     -829657.2111       3883.000          23.000  
G 4 160100114.358       55908.773        -297.000          43.000  
G 8 159175739.409     -425483.467        1578.000          44.000  
G 9 161161541.048     -323132.313        1189.000          44.000  
G16 160771613.208      255165.683       -1004.000          40.000  
G21 162065541.967     -996077.415        4062.000          37.000  
G26 162338078.549      320064.212       -1309.000          34.000  
G27 159074755.508      155501.073        -682.000          42.000  
G31 161689507.541      437209.625       -1749.000          42.000  
> 2024 12 16  7 20 22.4619999  0  9                     
G 2 163649856.211     -833540.8971       3883.000          22.000  
G 4 160100171.094       56207.106        -298.000          43.000  
G 8 159175439.089     -427061.782        1578.000          44.000  
G 9 161161314.840     -324320.917        1188.000          44.000  
G16 160771804.473      256170.420       -1004.000          40.000  
G21 162064769.074    -1000139.457        4062.000          37.000  
G26 162338325.884      321373.844       -1309.000          34.000  
G27 159074885.400      156183.942        -682.000          42.000  
G31 161689840.446      438958.963       -1749.000          42.000  
> 2024 12 16  7 20 23.4619999  0 10                     
G 2 163649105.263     -837424.5801       3883.000          23.000  
G 4 160100227.953       56506.049        -298.000          43.000  
G 8 159175138.876     -428639.543        1577.000          44.000  
G 9 161161088.749     -325508.931        1188.000          44.000  
G16 160771995.737      257175.177       -1004.000          40.000  
G21 162063996.181    -1004201.498        4062.000          37.000  
G26 162338575.863      322683.520       -1309.000          34.000  
G27 159075015.405      156867.368        -683.000          42.000  
G28 163931083.209        6918.1821      -2493.000          16.000  
G31 161690173.403      440708.616       -1749.000          42.000  
> 2024 12 16  7 20 24.4619999  0  9                     
G 2 163648360.186     -841308.4611       3883.000          24.000  
G 4 160100284.946       56805.628        -299.000          43.000  
G 8 159174838.780     -430216.646        1577.000          44.000  
G 9 161160862.791     -326696.301        1187.000          44.000  
G16 160772187.023      258180.060       -1004.000          40.000  
G21 162063223.316    -1008263.430        4061.000          38.000  
G26 162338828.851      323993.232       -1309.000          34.000  
G27 159075145.535      157551.444        -684.000          42.000  
G31 161690506.428      442458.649       -1750.000          42.000  
> 2024 12 16  7 20 25.4619999  0 10                     
G 2 163647622.116     -845191.9681       3884.000          24.000  
G 4 160100342.054       57105.752        -300.000          43.000  
G 8 159174538.776     -431793.260        1576.000          44.000  
G 9 161160636.945     -327883.131        1186.000          44.000  
G16 160772378.294      259184.898       -1004.000          40.000  
G21 162062450.439    -1012325.384        4061.000          37.000  
G26 162339076.043      325302.852       -1309.000          34.000  
G27 159075275.762      158235.980        -684.000          42.000  
G28 163932033.622       11933.4541      -2510.000          17.000  
G31 161690839.498      444208.938       -1750.000          42.000  
> 2024 12 16  7 20 26.4619999  0  9                     
G 2 163646896.785     -849076.2841       3884.000          23.000  
G 4 160100399.239       57406.200        -300.000          43.000  
G 8 159174238.838     -433369.504        1576.000          44.000  
G 9 161160411.176     -329069.610        1186.000          44.000  
G16 160772569.500      260189.482       -1004.000          40.000  
G21 162061677.519    -1016387.541        4062.000          37.000  
G26 162339324.093      326612.203       -1309.000          34.000  
G27 159075406.058      158920.853        -684.000          42.000  
G31 161691172.582      445959.303       -1750.000          42.000  
> 2024 12 16  7 20 27.4619999  0  9                     
G 2 163646113.929     -852960.5671       3884.000          23.000  
G 4 160100456.616       57707.561        -301.000          43.000  
G 8 159173939.057     -434944.908        1575.000          44.000  
G 9 161160185.581     -330255.212        1185.000          44.000  
G16 160772760.775      261194.438       -1004.000          40.000  
G21 162060904.667    -1020449.353        4061.000          38.000  
G26 162339573.356      327921.866       -1309.000          34.000  
G27 159075536.523      159606.563        -685.000          42.000  
G31 161691505.780      447710.262       -1750.000          42.000  
> 2024 12 16  7 20 28.4619999  0  9                     
G 2 163645385.016     -856845.0371       3884.000          24.000  
G 4 160100514.099       58009.438        -301.000          43.000  
G 8 159173639.368     -436519.802        1574.000          44.000  
G 9 161159960.104     -331440.249        1185.000          44.000  
G16 160772952.033      262199.359       -1004.000          39.000  
G21 162060131.799    -1024511.212        4061.000          38.000  
G26 162339822.196      329231.427       -1309.000          34.000  
G27 159075667.095      160292.771        -686.000          43.000  
G31 161691839.027      449461.518       -1751.000          42.000  
> 2024 12 16  7 20 29.4619999  0  9                     
G 2 163644656.395     -860728.9331       3883.000          23.000  
G 4 160100571.707       58311.940        -302.000          43.000  
G 8 159173339.797     -438094.046        1574.000          44.000  
G 9 161159734.761     -332624.621        1184.000          44.000  
G16 160773143.295      263204.358       -1004.000          39.000  
G21 162059358.945    -1028572.969        4061.000          37.000  
G26 162340070.247      330541.049       -1309.000          34.000  
G27 159075797.787      160979.573        -686.000          43.000  
G31 161692172.332      451213.104       -1751.000          42.000  
> 2024 12 16  7 20 30.4619999  0  9                     
G 2 163643899.296     -864616.8111       3887.000          20.000  
G 4 160100629.420       58614.975        -303.000          43.000  
G 8 159173040.310     -439667.815        1573.000          44.000  
G 9 161159509.513     -333808.496        1183.000          45.000  
G16 160773334.459      264209.472       -1005.000          39.000  
G21 162058586.081    -1032634.761        4061.000          37.000  
G26 162340315.575      331850.570       -1309.000          34.000  
G27 159075928.592      161666.907        -687.000          42.000  
G31 161692505.683      452964.964       -1751.000          42.000  
> 2024 12 16  7 20 31.4619999  0  9                     
G 2 163643171.098     -868502.6341       3885.000          23.000  
G 4 160100687.194       58918.327        -303.000          43.000  
G 8 159172740.881     -441241.258        1573.000          44.000  
G 9 161159284.338     -334992.031        1183.000          45.000  
G16 160773525.608      265214.192       -1004.000          33.000  
G21 162057813.184    -1036696.813        4062.000          37.000  
G26 162340564.127      333159.900       -1309.000          33.000  
G27 159076059.460      162354.542        -687.000          42.000  
G31 161692839.035      454716.863       -1751.000          42.000  
> 2024 12 16  7 20 32.4619999  0  9                     
G 2 163642461.363     -872388.6091       3885.000          23.000  
G 4 160100745.068       59222.202        -303.000          42.000  
G 8 159172441.534     -442814.206        1572.000          44.000  
G 9 161159059.270     -336175.034        1183.000          44.000  
G16 160773711.515      266218.7741      -1004.000          27.000  
G21 162057040.293    -1040758.901        4062.000          37.000  
G26 162340820.331      334469.019       -1309.000          32.000  
G27 159076190.415      163042.610        -688.000          42.000  
G31 161693172.427      456468.987       -1752.000          42.000  
> 2024 12 16  7 20 33.4619999  0  9                     
G 2 163641731.167     -876276.0921       3887.000          23.000  
G 4 160100803.047       59526.675        -304.000          43.000  
G 8 159172142.285     -444386.595        1572.000          44.000  
G 9 161158834.308     -337357.482        1182.000          44.000  
G16 160773900.396      267223.4861      -1004.000          31.000  
G21 162056267.426    -1044820.924        4062.000          38.000  
G26 162341067.522      335778.154       -1309.000          33.000  
G27 159076321.477      163731.222        -688.000          42.000  
G31 161693505.878      458221.446       -1752.000          42.000  
> 2024 12 16  7 20 34.4619999  0  9                     
G 2 163640980.219     -880161.2481       3885.000          23.000  
G 4 160100861.112       59831.671        -304.000          42.000  
G 8 159171843.137     -445958.398        1571.000          43.000  
G 9 161158609.463     -338539.290        1181.000          44.000  
G16 160774086.202      268228.1061      -1004.000          31.000  
G21 162055494.558    -1048882.941        4062.000          38.000  
G26 162341314.356      337087.324       -1309.000          34.000  
G27 159076452.652      164420.432        -689.000          42.000  
G31 161693839.381      459974.207       -1752.000          41.000  
> 2024 12 16  7 20 35.4619999  0  9                     
G 2 163640237.429     -884046.1921       3884.000          19.000  
G 4 160100919.330       60137.529        -305.000          42.000  
G 8 159171544.125     -447529.461        1571.000          44.000  
G 9 161158384.755     -339720.316        1181.000          44.000  
G16 160774279.664      269232.9941      -1004.000          33.000  
G21 162054721.746    -1052944.695        4061.000          38.000  
G26 162341562.764      338396.609       -1309.000          34.000  
G27 159076583.952      165110.329        -689.000          43.000  
G31 161694172.984      461727.475       -1753.000          42.000  
> 2024 12 16  7 20 36.4619999  0  9                     
G 2 163639467.739     -887930.6781       3884.000          14.000  
G 4 160100977.645       60443.966        -306.000          42.000  
G 8 159171245.230     -449099.896        1570.000          44.000  
G 9 161158160.150     -340900.747        1180.000          45.000  
G16 160774469.404      270237.9531      -1004.000          35.000  
G21 162053948.916    -1057006.441        4061.000          38.000  
G26 162341814.322      339705.906       -1309.000          35.000  
G27 159076715.366      165800.854        -690.000          43.000  
G31 161694506.655      463481.079       -1753.000          42.000  
> 2024 12 16  7 20 37.4619999  0  9                     
G 2 163638736.679     -891822.9411       3892.000          15.000  
G 4 160101036.022       60750.766        -306.000          42.000  
G 8 159170946.398     -450669.998        1570.000          43.000  
G 9 161157935.612     -342080.792        1180.000          44.000  
G16 160774665.366      271242.772       -1004.000          35.000  
G21 162053176.038    -1061068.329        4061.000          37.000  
G26 162342064.375      341015.023       -1309.000          36.000  
G27 159076846.836      166491.693        -690.000          43.000  
G31 161694840.354      465234.808       -1753.000          42.000  
> 2024 12 16  7 20 38.4619999  0  9                     
G 2 163638004.193     -895713.1351       3890.000          10.000  
G 4 160101094.557       61058.452        -307.000          42.000  
G 8 159170647.732     -452239.223        1569.000          44.000  
G 9 161157711.227     -343259.991        1179.000          44.000  
G16 160774853.675      272247.926       -1005.000          34.000  
G21 162052403.193    -1065129.927        4061.000          37.000  
G26 162342313.996      342324.352       -1309.000          36.000  
G27 159076978.459      167183.429        -691.000          42.000  
G31 161695174.159      466989.100       -1754.000          42.000  
> 2024 12 16  7 20 39.4619999  0  9                     
G 2 163637264.409     -899601.6751       3888.000          19.000  
G 4 160101153.194       61366.726        -308.000          42.000  
G 8 159170349.175     -453807.883        1568.000          44.000  
G 9 161157486.949     -344438.547        1178.000          44.000  
G16 160775055.688      273253.041       -1005.000          33.000  
G21 162051630.344    -1069191.465        4061.000          38.000  
G26 162342567.665      343633.748       -1309.000          34.000  
G27 159077110.162      167875.602        -692.000          42.000  
G31 161695508.035      468743.743       -1754.000          42.000  
> 2024 12 16  7 20 40.4619999  0  9                     
G 2 163636525.052     -903492.3351       3890.000          17.000  
G 4 160101212.056       61676.226        -309.000          42.000  
G 8 159170050.864     -455375.318        1567.000          44.000  
G 9 161157262.900     -345615.837        1177.000          42.000  
G16 160775246.537      274258.841       -1005.000          38.000  
G21 162050857.606    -1073252.253        4060.000          37.000  
G26 162342808.666      344943.738       -1309.000          34.000  
G27 159077242.111      168569.070        -693.000          44.000  
G31 161695842.098      470499.335       -1755.000          43.000  
> 2024 12 16  7 20 41.4619999  0  8                     
G 4 160101271.106       61986.752        -310.000          42.000  
G 8 159169752.754     -456941.748        1566.000          45.000  
G 9 161157039.028     -346792.140        1176.000          41.000  
G16 160775438.921      275265.104       -1006.000          38.000  
G21 162050084.917    -1077312.661        4060.000          37.000  
G26 162343057.074      346254.091       -1310.000          31.000  
G27 159077374.245      169263.527        -694.000          44.000  
G31 161696176.308      472255.665       -1756.000          43.000  
> 2024 12 16  7 20 42.4619999  0  9                     
G 2 163635042.333     -911270.9921       3885.000          19.000  
G 4 160101330.291       62298.032        -311.000          42.000  
G 8 159169454.794     -458507.445        1565.000          45.000  
G 9 161156815.301     -347967.642        1175.000          41.000  
G16 160775631.061      276271.563       -1006.000          39.000  
G21 162049312.262    -1081372.830        4060.000          37.000  
G26 162343317.213      347564.663       -1310.000          32.000  
G27 159077506.508      169958.693        -695.000          45.000  
G31 161696510.619      474012.499       -1756.000          43.000  
> 2024 12 16  7 20 43.4619999  0  9                     
G 2 163634331.311     -915150.1671       3879.000          19.000  
G 4 160101389.667       62610.289        -312.000          42.000  
G 8 159169157.029     -460072.180        1564.000          45.000  
G 9 161156591.740     -349142.221        1174.000          41.000  
G16 160775823.301      277278.439       -1006.000          39.000  
G21 162048539.671    -1085432.622        4059.000          37.000  
G26 162343564.335      348875.562       -1310.000          32.000  
G27 159077638.941      170654.749        -696.000          45.000  
G31 161696845.063      475769.991       -1757.000          43.000  
> 2024 12 16  7 20 44.4619999  0  9                     
G 2 163633570.062     -919034.8621       3884.000          17.000  
G 4 160101449.109       62922.862        -312.000          42.000  
G 8 159168859.330     -461636.597        1564.000          45.000  
G 9 161156368.244     -350316.434        1174.000          41.000  
G16 160776015.511      278285.065       -1006.000          39.000  
G21 162047767.033    -1089492.625        4060.000          37.000  
G26 162343808.808      350186.197       -1310.000          32.000  
G27 159077771.442      171351.150        -696.000          44.000  
G31 161697179.526      477527.548       -1757.000          43.000  
> 2024 12 16  7 20 45.4619999  0  9                     
G 2 163632845.586     -922920.9661       3886.000          17.000  
G 4 160101508.650       63235.948        -313.000          42.000  
G 8 159168561.735     -463200.508        1563.000          45.000  
G 9 161156144.845     -351490.135        1173.000          41.000  
G16 160776207.184      279291.683       -1006.000          39.000  
G21 162046994.400    -1093552.635        4060.000          37.000  
G26 162344056.858      351496.744       -1310.000          32.000  
G27 159077904.038      172048.052        -696.000          45.000  
G31 161697514.049      479285.383       -1757.000          43.000  
> 2024 12 16  7 20 46.4619999  0  9                     
G 2 163632128.980     -926797.5951       3876.000          11.000  
G 4 160101568.374       63549.986        -314.000          42.000  
G 8 159168264.317     -464763.517        1563.000          45.000  
G 9 161155921.626     -352662.863        1172.000          41.000  
G16 160776399.856      280298.680       -1006.000          39.000  
G21 162046221.835    -1097612.246        4059.000          37.000  
G26 162344311.130      352807.651       -1310.000          32.000  
G27 159078036.797      172745.801        -697.000          45.000  
G31 161697848.686      481043.837       -1758.000          43.000  
> 2024 12 16  7 20 47.4619999  0  8                     
G 4 160101628.066       63863.810        -313.000          42.000  
G 8 159167966.866     -466326.729        1563.000          45.000  
G 9 161155698.364     -353835.821        1172.000          41.000  
G16 160776591.778      281304.879       -1006.000          39.000  
G21 162045449.125    -1101672.677        4060.000          37.000  
G26 162344558.897      354117.745       -1310.000          33.000  
G27 159078169.517      173443.313        -697.000          45.000  
G31 161698183.239      482801.834       -1757.000          43.000  
> 2024 12 16  7 20 48.4619999  0  8                     
G 4 160101687.798       64177.805        -313.000          42.000  
G 8 159167669.450     -467889.801        1563.000          45.000  
G 9 161155475.146     -355008.575        1172.000          41.000  
G16 160776783.451      282310.702       -1005.000          39.000  
G21 162044676.352    -1105733.457        4060.000          38.000  
G26 162344809.735      355427.403       -1309.000          33.000  
G27 159078302.281      174141.015        -697.000          45.000  
G31 161698517.777      484559.719       -1757.000          43.000  
> 2024 12 16  7 20 49.4619999  0  8                     
G 4 160101747.542       64491.808        -313.000          42.000  
G 8 159167372.041     -469452.841        1563.000          45.000  
G 9 161155251.936     -356181.314        1172.000          42.000  
G16 160776973.942      283315.992       -1005.000          39.000  
G21 162043903.494    -1109794.757        4061.000          38.000  
G26 162345059.862      356736.398       -1308.000          33.000  
G27 159078435.041      174838.663        -697.000          45.000  
G31 161698852.275      486317.367       -1757.000          43.000  
> 2024 12 16  7 20 50.4619999  0  8                     
G 4 160101807.578       64807.281        -315.000          42.000  
G 8 159167074.903     -471014.457        1561.000          45.000  
G 9 161155029.017     -357352.555        1171.000          42.000  
G16 160777165.576      284322.193       -1006.000          39.000  
G21 162043130.814    -1113855.147        4060.000          38.000  
G26 162345310.486      358046.379       -1309.000          33.000  
G27 159078568.091      175537.779        -699.000          45.000  
G31 161699187.001      488076.206       -1758.000          43.000  
> 2024 12 16  7 20 51.4619999  0  9                     
G 2 163628428.194     -946294.6061       3909.000           4.000  
G 4 160101867.870       65124.041        -316.000          43.000  
G 8 159166778.003     -472574.803        1560.000          45.000  
G 9 161154806.344     -358522.577        1170.000          42.000  
G16 160777357.284      285329.082       -1006.000          39.000  
G21 162042358.269    -1117914.836        4059.000          38.000  
G26 162345557.032      359356.952       -1310.000          33.000  
G27 159078701.375      176238.077        -700.000          45.000  
G31 161699521.908      489836.009       -1759.000          43.000  
> 2024 12 16  7 20 52.4619999  0  8                     
G 4 160101928.219       65441.059        -317.000          43.000  
G 8 159166481.151     -474134.884        1560.000          45.000  
G 9 161154583.751     -359692.257        1169.000          42.000  
G16 160777547.810      286335.711       -1006.000          39.000  
G21 162041585.680    -1121974.744        4059.000          38.000  
G26 162345806.727      360667.320       -1310.000          34.000  
G27 159078834.721      176938.671        -700.000          45.000  
G31 161699856.824      491595.863       -1759.000          43.000  
> 2024 12 16  7 20 53.4619999  0  8                     
G 4 160101988.639       65758.400        -317.000          43.000  
G 8 159166184.348     -475694.670        1559.000          45.000  
G 9 161154361.223     -360861.644        1169.000          42.000  
G16 160777738.694      287342.069       -1006.000          39.000  
G21 162040813.039    -1126034.963        4060.000          38.000  
G26 162346059.572      361977.239       -1309.000          34.000  
G27 159078968.113      177639.503        -700.000          45.000  
G31 161700191.746      493355.735       -1759.000          43.000  
> 2024 12 16  7 20 54.4619999  0  8                     
G 4 160102049.267       66076.834        -318.000          43.000  
G 8 159165887.745     -477253.361        1558.000          45.000  
G 9 161154138.923     -362029.906        1168.000          42.000  
G16 160777929.686      288348.964       -1006.000          39.000  
G21 162040040.514    -1130094.583        4059.000          39.000  
G26 162346312.844      363287.751       -1310.000          33.000  
G27 159079101.718      178341.438        -701.000          45.000  
G31 161700526.821      495116.422       -1760.000          43.000  
> 2024 12 16  7 20 55.4619999  0  8                     
G 4 160102110.075       66396.233        -319.000          42.000  
G 8 159165591.313     -478811.135        1557.000          45.000  
G 9 161153916.814     -363197.224        1167.000          42.000  
G16 160778120.535      289356.277       -1007.000          39.000  
G21 162039268.061    -1134153.823        4059.000          39.000  
G26 162346558.678      364598.552       -1310.000          33.000  
G27 159079235.494      179044.271        -702.000          45.000  
G31 161700862.026      496877.792       -1761.000          43.000  
> 2024 12 16  7 20 56.4619999  0  8                     
G 4 160102170.982       66716.179        -319.000          42.000  
G 8 159165294.983     -480368.357        1557.000          45.000  
G 9 161153694.827     -364363.964        1166.000          42.000  
G16 160778312.317      290363.558       -1007.000          39.000  
G21 162038495.621    -1138213.040        4059.000          39.000  
G26 162346811.449      365909.356       -1310.000          33.000  
G27 159079369.366      179747.610        -703.000          45.000  
G31 161701197.288      498639.444       -1761.000          43.000  
> 2024 12 16  7 20 57.4619999  0  8                     
G 4 160102232.052       67036.982        -320.000          43.000  
G 8 159164998.811     -481924.725        1556.000          45.000  
G 9 161153473.020     -365529.843        1165.000          43.000  
G16 160778504.418      291371.178       -1007.000          39.000  
G21 162037723.245    -1142271.952        4058.000          39.000  
G26 162347053.200      367220.466       -1311.000          33.000  
G27 159079503.405      180451.828        -704.000          45.000  
G31 161701532.657      500401.687       -1762.000          43.000  
> 2024 12 16  7 20 58.4619999  0  8                     
G 4 160102293.369       67359.085        -322.000          42.000  
G 8 159164702.883     -483479.813        1555.000          45.000  
G 9 161153251.476     -366694.387        1164.000          43.000  
G16 160778696.445      292379.535       -1008.000          39.000  
G21 162036951.014    -1146330.100        4058.000          39.000  
G26 162347302.254      368532.207       -1311.000          33.000  
G27 159079637.681      181157.289        -705.000          45.000  
G31 161701868.227      502164.979       -1763.000          43.000  
> 2024 12 16  7 20 59.4619999  0  8                     
G 4 160102354.966       67682.666        -323.000          42.000  
G 8 159164407.233     -485033.438        1553.000          45.000  
G 9 161153030.209     -367857.511        1163.000          43.000  
G16 160778888.545      293388.803       -1009.000          39.000  
G21 162036178.954    -1150387.353        4057.000          39.000  
G26 162347550.732      369844.797       -1312.000          32.000  
G27 159079772.227      181864.173        -706.000          45.000  
G31 161702204.013      503929.430       -1764.000          43.000  
> 2024 12 16  7 21  0.4619999  0  8                     
G 4 160102416.611       68006.479        -323.000          42.000  
G 8 159164111.618     -486586.845        1553.000          45.000  
G 9 161152808.993     -369020.324        1162.000          43.000  
G16 160779082.400      294397.742       -1008.000          39.000  
G21 162035406.851    -1154444.893        4057.000          39.000  
G26 162347796.566      371157.093       -1312.000          32.000  
G27 159079906.804      182571.269        -707.000          45.000  
G31 161702539.796      505693.860       -1764.000          43.000  
> 2024 12 16  7 21  1.4619999  0  8                     
G 4 160102478.297       68330.565        -324.000          42.000  
G 8 159163816.046     -488140.009        1553.000          45.000  
G 9 161152587.822     -370182.880        1162.000          43.000  
G16 160779274.789      295406.410       -1008.000          39.000  
G21 162034634.701    -1158502.697        4057.000          39.000  
G26 162348049.839      372469.010       -1311.000          32.000  
G27 159080041.422      183278.596        -707.000          45.000  
G31 161702875.572      507458.282       -1764.000          43.000  
> 2024 12 16  7 21  2.4619999  0  9                     
G 2 163620369.400     -989122.9981       3888.000          19.000  
G 4 160102540.168       68655.665        -325.000          42.000  
G 8 159163520.669     -489692.137        1552.000          45.000  
G 9 161152366.835     -371344.401        1161.000          43.000  
G16 160779467.570      296415.522       -1009.000          39.000  
G21 162033862.644    -1162560.054        4057.000          39.000  
G26 162348296.314      373781.344       -1312.000          32.000  
G27 159080176.226      183986.922        -708.000          45.000  
G31 161703211.498      509223.468       -1765.000          43.000  
> 2024 12 16  7 21  3.4619999  0  9                     
G 2 163619635.056     -993009.9131       3886.000          18.000  
G 4 160102602.357       68982.479        -326.000          42.000  
G 8 159163225.610     -491242.596        1550.000          45.000  
G 9 161152146.160     -372504.215        1159.000          43.000  
G16 160779658.990      297425.767       -1010.000          39.000  
G21 162033090.813    -1166616.264        4056.000          39.000  
G26 162348546.869      375094.830       -1313.000          32.000  
G27 159080311.336      184696.893        -709.000          45.000  
G31 161703547.698      510990.061       -1766.000          43.000  
> 2024 12 16  7 21  4.4619999  0  9                     
G 2 163618881.246     -996893.9791       3884.000          16.000  
G 4 160102664.485       69309.038        -326.000          42.000  
G 8 159162930.497     -492793.335        1550.000          45.000  
G 9 161151925.422     -373664.291        1160.000          43.000  
G16 160779851.126      298435.218       -1009.000          39.000  
G21 162032318.821    -1170673.268        4057.000          39.000  
G26 162348797.136      376407.416       -1312.000          32.000  
G27 159080446.390      185406.594        -709.000          45.000  
G31 161703883.804      512756.147       -1766.000          42.000  
> 2024 12 16  7 21  5.4619999  0  9                     
G 2 163618133.735    -1000780.2011       3886.000          18.000  
G 4 160102726.482       69634.928        -325.000          42.000  
G 8 159162635.260     -494344.743        1551.000          45.000  
G 9 161151704.549     -374825.021        1160.000          43.000  
G16 160780043.514      299443.422       -1008.000          39.000  
G21 162031546.590    -1174731.476        4058.000          38.000  
G26 162349047.402      377718.739       -1311.000          33.000  
G27 159080581.302      186115.582        -708.000          45.000  
G31 161704219.724      514521.282       -1765.000          42.000  
> 2024 12 16  7 21  6.4619999  0  9                     
G 2 163617375.776    -1004660.3261       3880.000          18.000  
G 4 160102788.547       69961.208        -326.000          42.000  
G 8 159162340.107     -495895.735        1550.000          45.000  
G 9 161151483.750     -375985.330        1160.000          43.000  
G16 160780235.292      300451.520       -1008.000          39.000  
G21 162030774.332    -1178789.834        4058.000          38.000  
G26 162349300.531      379029.824       -1311.000          32.000  
G27 159080716.281      186824.951        -709.000          45.000  
G31 161704555.662      516286.550       -1765.000          42.000  
> 2024 12 16  7 21  7.4619999  0  9                     
G 2 163616634.561    -1008540.0631       3880.000          14.000  
G 4 160102850.613       70287.522        -326.000          42.000  
G 8 159162044.955     -497446.746        1551.000          45.000  
G 9 161151262.952     -377145.579        1160.000          43.000  
G16 160780426.320      301459.031       -1007.000          39.000  
G21 162030001.968    -1182848.716        4058.000          38.000  
G26 162349548.010      380340.403       -1310.000          32.000  
G27 159080851.254      187534.308        -709.000          45.000  
G31 161704891.548      518051.577       -1765.000          42.000  
> 2024 12 16  7 21  8.4619999  0  9                     
G 2 163615897.350    -1012428.4781       3888.000          18.000  
G 4 160102912.785       70614.400        -326.000          42.000  
G 8 159161749.920     -498997.184        1550.000          45.000  
G 9 161151042.248     -378305.282        1159.000          43.000  
G16 160780617.099      302466.574       -1007.000          39.000  
G21 162029229.608    -1186907.577        4058.000          38.000  
G26 162349796.846      381650.920       -1310.000          32.000  
G27 159080986.324      188244.203        -709.000          45.000  
G31 161705227.482      519816.909       -1765.000          42.000  
> 2024 12 16  7 21  9.4619999  0  9                     
G 2 163615150.555    -1016313.2521       3884.000          17.000  
G 4 160102975.134       70942.214        -327.000          42.000  
G 8 159161455.064     -500546.715        1549.000          45.000  
G 9 161150821.714     -379464.027        1158.000          43.000  
G16 160780809.483      303474.518       -1007.000          39.000  
G21 162028457.310    -1190966.033        4058.000          38.000  
G26 162350042.536      382961.809       -1310.000          32.000  
G27 159081121.569      188955.006        -710.000          45.000  
G31 161705563.527      521582.898       -1765.000          42.000  
> 2024 12 16  7 21 10.4619999  0  8                     
G 4 160103037.600       71270.657        -328.000          42.000  
G 8 159161160.333     -502095.630        1548.000          45.000  
G 9 161150601.296     -380622.138        1158.000          43.000  
G16 160781000.441      304482.479       -1007.000          39.000  
G21 162027685.004    -1195024.457        4058.000          38.000  
G26 162350293.016      384272.710       -1310.000          33.000  
G27 159081256.920      189666.366        -711.000          44.000  
G31 161705899.631      523349.219       -1766.000          42.000  
> 2024 12 16  7 21 11.4619999  0  8                     
G 4 160103100.176       71599.666        -329.000          42.000  
G 8 159160865.718     -503643.979        1548.000          45.000  
G 9 161150380.984     -381779.693        1157.000          43.000  
G16 160781193.113      305490.458       -1007.000          39.000  
G21 162026912.702    -1199082.812        4058.000          38.000  
G26 162350547.004      385583.523       -1310.000          33.000  
G27 159081392.380      190378.283        -711.000          44.000  
G31 161706235.801      525115.872       -1766.000          42.000  
> 2024 12 16  7 21 12.4619999  0  8                     
G 4 160103162.935       71929.615        -329.000          43.000  
G 8 159160571.289     -505191.400        1547.000          45.000  
G 9 161150160.861     -382936.278        1156.000          43.000  
G16 160781384.607      306498.829       -1008.000          39.000  
G21 162026140.451    -1203140.804        4057.000          38.000  
G26 162350788.616      386894.716       -1311.000          33.000  
G27 159081528.015      191091.113        -712.000          45.000  
G31 161706572.099      526883.175       -1767.000          42.000  
> 2024 12 16  7 21 13.4619999  0  8                     
G 4 160103225.888       72260.554        -330.000          42.000  
G 8 159160277.047     -506737.860        1546.000          45.000  
G 9 161149940.940     -384091.846        1155.000          43.000  
G16 160781576.991      307507.638       -1008.000          39.000  
G21 162025368.279    -1207198.281        4057.000          37.000  
G26 162351041.247      388206.288       -1311.000          32.000  
G27 159081663.831      191804.897        -713.000          44.000  
G31 161706908.543      528651.208       -1768.000          42.000  
> 2024 12 16  7 21 14.4619999  0  8                     
G 4 160103289.144       72593.073        -332.000          43.000  
G 8 159159983.106     -508282.740        1544.000          45.000  
G 9 161149721.333     -385245.840        1153.000          43.000  
G16 160781768.987      308517.467       -1009.000          39.000  
G21 162024596.281    -1211254.816        4056.000          37.000  
G26 162351291.012      389518.867       -1312.000          31.000  
G27 159081799.937      192520.208        -715.000          44.000  
G31 161707245.229      530420.546       -1769.000          42.000  
> 2024 12 16  7 21 15.4619999  0  8                     
G 4 160103352.642       72926.821        -333.000          43.000  
G 8 159159689.395     -509826.416        1543.000          45.000  
G 9 161149501.966     -386398.607        1152.000          43.000  
G16 160781960.517      309527.962       -1010.000          39.000  
G21 162023824.426    -1215310.617        4055.000          37.000  
G26 162351542.570      390832.036       -1313.000          33.000  
G27 159081936.283      193236.747        -716.000          44.000  
G31 161707582.089      532190.815       -1770.000          42.000  
> 2024 12 16  7 21 16.4619999  0  8                     
G 4 160103416.408       73261.934        -335.000          43.000  
G 8 159159395.941     -511368.731        1542.000          45.000  
G 9 161149282.869     -387549.962        1151.000          44.000  
G16 160782147.644      310539.336       -1011.000          37.000  
G21 162023052.740    -1219365.630        4055.000          39.000  
G26 162351788.901      392145.978       -1313.000          36.000  
G27 159082072.885      193954.603        -717.000          44.000  
G31 161707919.156      533962.211       -1771.000          41.000  
> 2024 12 16  7 21 17.4619999  0  8                     
G 4 160103480.354       73597.936        -335.000          44.000  
G 8 159159102.654     -512910.157        1541.000          44.000  
G 9 161149063.943     -388700.444        1150.000          44.000  
G16 160782338.672      311550.911       -1011.000          34.000  
G21 162022281.116    -1223420.300        4054.000          37.000  
G26 162352039.168      393460.228       -1314.000          33.000  
G27 159082209.657      194673.293        -718.000          42.000  
G31 161708256.341      535734.231       -1772.000          41.000  
> 2024 12 16  7 21 18.4619999  0  8                     
G 4 160103544.531       73935.097        -337.000          43.000  
G 8 159158809.583     -514450.423        1540.000          45.000  
G 9 161148845.257     -389849.734        1149.000          45.000  
G16 160782537.639      312563.162       -1012.000          40.000  
G21 162021509.617    -1227474.280        4053.000          37.000  
G26 162352295.376      394775.121       -1314.000          35.000  
G27 159082346.657      195393.170        -719.000          43.000  
G31 161708593.678      537507.119       -1772.000          41.000  
> 2024 12 16  7 21 19.4619999  0  8                     
G 4 160103608.834       74272.879        -337.000          43.000  
G 8 159158516.627     -515990.083        1539.000          45.000  
G 9 161148626.697     -390998.420        1148.000          44.000  
G16 160782728.671      313575.451       -1012.000          41.000  
G21 162020738.113    -1231528.231        4053.000          36.000  
G26 162352550.438      396089.945       -1314.000          35.000  
G27 159082483.759      196113.592        -720.000          43.000  
G31 161708931.080      539280.383       -1773.000          41.000  
> 2024 12 16  7 21 20.4619999  0  8                     
G 4 160103673.149       74610.685        -337.000          43.000  
G 8 159158223.659     -517529.746        1539.000          44.000  
G 9 161148408.150     -392147.083        1148.000          45.000  
G16 160782919.803      314587.222       -1011.000          39.000  
G21 162019966.494    -1235582.707        4054.000          37.000  
G26 162352805.425      397404.191       -1314.000          33.000  
G27 159082620.859      196834.016        -720.000          43.000  
G31 161709268.428      541053.361       -1772.000          41.000  
> 2024 12 16  7 21 21.4619999  0  8                     
G 4 160103737.469       74948.496        -337.000          43.000  
G 8 159157930.674     -519069.439        1539.000          44.000  
G 9 161148189.622     -393295.680        1148.000          45.000  
G16 160783112.440      315598.427       -1011.000          39.000  
G21 162019194.759    -1239637.748        4055.000          37.000  
G26 162353053.331      398717.807       -1313.000          35.000  
G27 159082757.954      197554.414        -720.000          43.000  
G31 161709605.735      542826.124       -1772.000          41.000  
> 2024 12 16  7 21 22.4619999  0  8                     
G 4 160103801.964       75287.211        -338.000          43.000  
G 8 159157637.855     -520608.203        1538.000          44.000  
G 9 161147971.272     -394443.370        1147.000          44.000  
G16 160783304.114      316610.001       -1011.000          39.000  
G21 162018423.079    -1243692.361        4054.000          36.000  
G26 162353303.100      400031.853       -1314.000          35.000  
G27 159082895.209      198275.681        -721.000          42.000  
G31 161709943.167      544599.494       -1773.000          42.000  
> 2024 12 16  7 21 23.4619999  0  8                     
G 4 160103866.579       75626.577        -339.000          43.000  
G 8 159157345.146     -522146.357        1538.000          44.000  
G 9 161147753.037     -395590.456        1147.000          45.000  
G16 160783495.891      317621.618       -1011.000          40.000  
G21 162017651.377    -1247746.957        4054.000          36.000  
G26 162353550.361      401345.857       -1314.000          35.000  
G27 159083032.566      198997.512        -721.000          42.000  
G31 161710280.673      546373.228       -1773.000          42.000  
> 2024 12 16  7 21 24.4619999  0  8                     
G 4 160103931.246       75966.236        -339.000          43.000  
G 8 159157052.482     -523684.227        1537.000          44.000  
G 9 161147534.870     -396737.192        1146.000          44.000  
G16 160783687.565      318632.984       -1011.000          40.000  
G21 162016879.649    -1251801.747        4054.000          36.000  
G26 162353792.688      402659.537       -1313.000          34.000  
G27 159083169.983      199719.675        -722.000          42.000  
G31 161710618.190      548146.998       -1773.000          42.000  
> 2024 12 16  7 21 25.4619999  0  8                     
G 4 160103996.087       76306.860        -340.000          43.000  
G 8 159156759.988     -525221.146        1536.000          44.000  
G 9 161147316.882     -397882.993        1145.000          45.000  
G16 160783879.988      319644.756       -1011.000          39.000  
G21 162016108.014    -1255856.095        4054.000          36.000  
G26 162354042.955      403973.603       -1314.000          34.000  
G27 159083307.558      200442.727        -723.000          42.000  
G31 161710955.841      549921.427       -1774.000          42.000  
> 2024 12 16  7 21 26.4619999  0  8                     
G 4 160104061.104       76648.446        -341.000          43.000  
G 8 159156467.667     -526757.137        1535.000          44.000  
G 9 161147099.080     -399027.799        1144.000          44.000  
G16 160784072.373      320656.919       -1012.000          39.000  
G21 162015336.448    -1259910.075        4053.000          36.000  
G26 162354295.154      405288.006       -1314.000          35.000  
G27 159083445.297      201166.685        -723.000          42.000  
G31 161711293.636      551696.560       -1775.000          43.000  
> 2024 12 16  7 21 27.4619999  0  8                     
G 4 160104126.139       76990.174        -341.000          43.000  
G 8 159156175.373     -528292.959        1535.000          44.000  
G 9 161146881.306     -400172.402        1144.000          44.000  
G16 160784265.333      321668.752       -1011.000          39.000  
G21 162014564.806    -1263964.433        4054.000          36.000  
G26 162354546.568      406602.025       -1314.000          34.000  
G27 159083583.068      201890.813        -724.000          42.000  
G31 161711631.417      553471.588       -1775.000          43.000  
> 2024 12 16  7 21 28.4619999  0  8                     
G 4 160104191.221       77332.214        -342.000          42.000  
G 8 159155883.127     -529828.483        1535.000          44.000  
G 9 161146663.564     -401316.764        1144.000          44.000  
G16 160784457.185      322680.229       -1011.000          39.000  
G21 162013793.122    -1268019.023        4054.000          37.000  
G26 162354789.322      407915.706       -1313.000          34.000  
G27 159083720.877      202615.159        -724.000          42.000  
G31 161711969.204      555246.617       -1775.000          43.000  
> 2024 12 16  7 21 29.4619999  0  8                     
G 4 160104256.327       77674.396        -342.000          43.000  
G 8 159155590.907     -531363.899        1535.000          44.000  
G 9 161146445.849     -402460.909        1144.000          44.000  
G16 160784649.822      323691.377       -1011.000          39.000  
G21 162013021.375    -1272074.000        4054.000          36.000  
G26 162355040.880      409228.934       -1313.000          34.000  
G27 159083858.709      203339.654        -724.000          42.000  
G31 161712306.981      557021.564       -1774.000          43.000  
> 2024 12 16  7 21 30.4619999  0  8                     
G 4 160104321.723       78018.151        -343.000          42.000  
G 8 159155298.997     -532897.706        1533.000          44.000  
G 9 161146228.417     -403603.514        1142.000          44.000  
G16 160784842.171      324703.497       -1012.000          39.000  
G21 162012249.842    -1276127.996        4054.000          37.000  
G26 162355291.574      410543.131       -1314.000          34.000  
G27 159083996.832      204065.665        -726.000          42.000  
G31 161712644.999      558797.807       -1776.000          43.000  
> 2024 12 16  7 21 31.4619999  0  8                     
G 4 160104387.624       78364.591        -346.000          42.000  
G 8 159155007.591     -534428.912        1531.000          44.000  
G 9 161146011.496     -404743.384        1139.000          44.000  
G16 160785035.419      325717.737       -1014.000          40.000  
G21 162011478.618    -1280179.746        4051.000          36.000  
G26 162355541.344      411859.412       -1316.000          33.000  
G27 159084135.451      204794.346        -728.000          42.000  
G31 161712983.479      560576.438       -1778.000          43.000  
> 2024 12 16  7 21 32.4619999  0  8                     
G 4 160104453.654       78711.737        -347.000          42.000  
G 8 159154716.332     -535959.383        1530.000          44.000  
G 9 161145794.694     -405882.571        1139.000          44.000  
G16 160785229.344      326732.149       -1014.000          40.000  
G21 162010707.479    -1284231.437        4051.000          36.000  
G26 162355787.392      413175.853       -1316.000          33.000  
G27 159084274.184      205523.676        -729.000          42.000  
G31 161713322.052      562355.506       -1779.000          43.000  
> 2024 12 16  7 21 33.4619999  0  8                     
G 4 160104519.677       79058.861        -347.000          42.000  
G 8 159154425.075     -537489.886        1530.000          44.000  
G 9 161145577.889     -407021.749        1139.000          44.000  
G16 160785422.090      327745.964       -1013.000          39.000  
G21 162009936.272    -1288283.661        4052.000          37.000  
G26 162356042.950      414491.631       -1315.000          34.000  
G27 159084412.897      206252.971        -729.000          42.000  
G31 161713660.564      564134.263       -1778.000          42.000  
> 2024 12 16  7 21 34.4619999  0  8                     
G 4 160104585.972       79407.416        -348.000          43.000  
G 8 159154134.100     -539018.957        1529.000          44.000  
G 9 161145361.345     -408159.494        1137.000          44.000  
G16 160785616.516      328760.689       -1014.000          40.000  
G21 162009165.271    -1292334.939        4051.000          36.000  
G26 162356294.081      415808.237       -1316.000          33.000  
G27 159084551.868      206983.664        -730.000          42.000  
G31 161713999.309      565914.229       -1779.000          42.000  
> 2024 12 16  7 21 35.4619999  0  8                     
G 4 160104652.460       79757.012        -349.000          42.000  
G 8 159153843.325     -540547.012        1528.000          44.000  
G 9 161145144.993     -409296.195        1136.000          44.000  
G16 160785809.651      329775.845       -1015.000          40.000  
G21 162008394.378    -1296385.788        4050.000          37.000  
G26 162356546.564      417125.289       -1317.000          33.000  
G27 159084691.020      207715.307        -731.000          42.000  
G31 161714338.192      567694.935       -1780.000          42.000  
> 2024 12 16  7 21 36.4619999  0  8                     
G 4 160104718.675       80105.163        -348.000          42.000  
G 8 159153552.283     -542076.531        1529.000          44.000  
G 9 161144928.377     -410434.292        1138.000          44.000  
G16 160786003.004      330789.041       -1013.000          40.000  
G21 162007623.129    -1300438.610        4052.000          37.000  
G26 162356795.399      418440.372       -1315.000          33.000  
G27 159084829.908      208445.546        -730.000          42.000  
G31 161714676.752      569473.952       -1779.000          42.000  
> 2024 12 16  7 21 37.4619999  0  8                     
G 4 160104784.879       80453.230        -348.000          42.000  
G 8 159153261.241     -543606.108        1529.000          45.000  
G 9 161144711.747     -411572.484        1138.000          44.000  
G16 160786196.177      331801.570       -1012.000          40.000  
G21 162006851.782    -1304492.039        4053.000          37.000  
G26 162357045.810      419754.638       -1314.000          33.000  
G27 159084968.774      209175.635        -730.000          42.000  
G31 161715015.241      571252.613       -1778.000          42.000  
> 2024 12 16  7 21 38.4619999  0  8                     
G 4 160104851.392       80802.904        -349.000          42.000  
G 8 159152970.497     -545134.145        1528.000          45.000  
G 9 161144495.425     -412709.060        1136.000          44.000  
G16 160786388.317      332815.173       -1013.000          40.000  
G21 162006080.642    -1308544.421        4052.000          37.000  
G26 162357297.512      421069.987       -1315.000          34.000  
G27 159085107.944      209907.283        -731.000          42.000  
G31 161715353.978      573032.571       -1779.000          42.000  
> 2024 12 16  7 21 39.4619999  0  8                     
G 4 160104917.927       81152.623        -349.000          43.000  
G 8 159152679.774     -546662.111        1527.000          45.000  
G 9 161144279.120     -413845.575        1136.000          44.000  
G16 160786580.204      333828.241       -1013.000          40.000  
G21 162005309.423    -1312597.288        4052.000          37.000  
G26 162357549.140      422384.771       -1314.000          34.000  
G27 159085247.127      210638.965        -731.000          42.000  
G31 161715692.676      574812.329       -1779.000          42.000  
> 2024 12 16  7 21 40.4619999  0  8                     
G 4 160104984.533       81502.669        -350.000          43.000  
G 8 159152389.110     -548189.763        1527.000          45.000  
G 9 161144062.886     -414981.732        1136.000          44.000  
G16 160786772.375      334841.079       -1012.000          40.000  
G21 162004538.170    -1316650.364        4053.000          37.000  
G26 162357803.769      423699.336       -1314.000          34.000  
G27 159085386.383      211370.952        -731.000          42.000  
G31 161716031.386      576592.168       -1779.000          42.000  
> 2024 12 16  7 21 41.4619999  0  8                     
G 4 160105051.226       81853.119        -350.000          43.000  
G 8 159152098.515     -549717.048        1527.000          45.000  
G 9 161143846.731     -416117.529        1135.000          44.000  
G16 160786964.406      335853.813       -1012.000          40.000  
G21 162003766.899    -1320703.568        4053.000          37.000  
G26 162358053.678      425013.598       -1314.000          34.000  
G27 159085525.716      212103.283        -732.000          42.000  
G31 161716370.109      578372.104       -1779.000          42.000  
> 2024 12 16  7 21 42.4619999  0  8                     
G 4 160105118.152       82204.738        -351.000          43.000  
G 8 159151808.143     -551243.141        1526.000          44.000  
G 9 161143630.815     -417252.107        1134.000          44.000  
G16 160787156.541      336867.118       -1013.000          39.000  
G21 162002995.733    -1324756.195        4052.000          36.000  
G26 162358304.878      426328.518       -1314.000          34.000  
G27 159085665.277      212836.756        -733.000          42.000  
G31 161716709.000      580152.939       -1780.000          42.000  
> 2024 12 16  7 21 43.4619999  0  8                     
G 4 160105185.215       82557.032        -352.000          43.000  
G 8 159151517.885     -552768.621        1525.000          44.000  
G 9 161143415.035     -418385.997        1133.000          45.000  
G16 160787348.140      337880.551       -1013.000          39.000  
G21 162002224.590    -1328808.655        4052.000          36.000  
G26 162358556.074      427643.516       -1314.000          35.000  
G27 159085804.970      213570.852        -734.000          42.000  
G31 161717047.964      581934.191       -1781.000          42.000  
> 2024 12 16  7 21 44.4619999  0  8                     
G 4 160105252.319       82909.482        -352.000          43.000  
G 8 159151227.659     -554293.893        1525.000          45.000  
G 9 161143199.299     -419519.706        1133.000          45.000  
G16 160787540.455      338893.570       -1013.000          39.000  
G21 162001453.368    -1332861.430        4052.000          37.000  
G26 162358802.266      428958.054       -1314.000          35.000  
G27 159085944.707      214305.125        -734.000          42.000  
G31 161717386.912      583715.337       -1781.000          42.000  
> 2024 12 16  7 21 45.4619999  0  8                     
G 4 160105319.532       83262.468        -352.000          43.000  
G 8 159150937.518     -555818.680        1524.000          44.000  
G 9 161142983.671     -420652.886        1133.000          45.000  
G16 160787732.019      339906.574       -1012.000          39.000  
G21 162000682.115    -1336914.291        4052.000          37.000  
G26 162359050.131      430272.477       -1314.000          35.000  
G27 159086084.541      215039.845        -734.000          42.000  
G31 161717725.904      585496.704       -1781.000          41.000  
> 2024 12 16  7 21 46.4619999  0  8                     
G 4 160105387.011       83616.815        -354.000          43.000  
G 8 159150647.636     -557342.067        1523.000          44.000  
G 9 161142768.313     -421784.665        1131.000          45.000  
G16 160787923.369      340920.428       -1013.000          39.000  
G21 161999911.032    -1340966.243        4051.000          37.000  
G26 162359300.418      431587.738       -1315.000          34.000  
G27 159086224.642      215775.941        -736.000          42.000  
G31 161718065.120      587279.240       -1782.000          42.000  
> 2024 12 16  7 21 47.4619999  0  8                     
G 4 160105454.685       83972.164        -355.000          43.000  
G 8 159150357.918     -558864.521        1522.000          44.000  
G 9 161142553.146     -422915.485        1130.000          45.000  
G16 160788116.404      341934.649       -1014.000          39.000  
G21 161999140.028    -1345017.804        4051.000          37.000  
G26 162359550.775      432903.354       -1315.000          35.000  
G27 159086364.914      216512.953        -737.000          42.000  
G31 161718404.461      589062.438       -1783.000          42.000  
> 2024 12 16  7 21 48.4619999  0  8                     
G 4 160105522.527       84328.420        -356.000          43.000  
G 8 159150068.371     -560386.054        1521.000          44.000  
G 9 161142338.168     -424045.361        1129.000          44.000  
G16 160788310.005      342949.252       -1014.000          40.000  
G21 161998369.087    -1349069.004        4051.000          37.000  
G26 162359801.175      434219.314       -1315.000          34.000  
G27 159086505.359      217250.854        -737.000          43.000  
G31 161718743.926      590846.285       -1783.000          42.000  
> 2024 12 16  7 21 49.4619999  0  8                     
G 4 160105590.502       84685.386        -356.000          43.000  
G 8 159149778.948     -561906.876        1520.000          44.000  
G 9 161142123.333     -425174.500        1129.000          44.000  
G16 160788503.288      343964.020       -1014.000          40.000  
G21 161997598.179    -1353119.969        4050.000          37.000  
G26 162360051.627      435535.386       -1316.000          34.000  
G27 159086645.941      217989.456        -738.000          43.000  
G31 161719083.484      592630.614       -1784.000          42.000  
> 2024 12 16  7 21 50.4619999  0  8                     
G 4 160105658.874       85044.485        -359.000          43.000  
G 8 159149489.913     -563425.633        1518.000          44.000  
G 9 161141908.901     -426301.541        1127.000          44.000  
G16 160788697.784      344980.317       -1016.000          40.000  
G21 161996827.546    -1357169.412        4049.000          37.000  
G26 162360302.345      436852.960       -1317.000          35.000  
G27 159086786.906      218730.079        -740.000          43.000  
G31 161719423.384      594416.758       -1786.000          42.000  
> 2024 12 16  7 21 51.4619999  0  8                     
G 4 160105727.384       85404.356        -359.000          43.000  
G 8 159149201.034     -564943.539        1517.000          44.000  
G 9 161141694.629     -427427.745        1126.000          45.000  
G16 160788891.350      345996.888       -1016.000          39.000  
G21 161996056.955    -1361218.596        4049.000          37.000  
G26 162360553.091      438170.796       -1317.000          35.000  
G27 159086928.027      219471.547        -741.000          43.000  
G31 161719763.388      596203.444       -1786.000          42.000  
> 2024 12 16  7 21 52.4619999  0  8                     
G 4 160105795.800       85763.793        -359.000          43.000  
G 8 159148912.053     -566461.945        1518.000          43.000  
G 9 161141480.280     -428554.357        1126.000          44.000  
G16 160789085.563      347012.423       -1015.000          40.000  
G21 161995286.169    -1365268.747        4050.000          36.000  
G26 162360803.609      439487.509       -1316.000          35.000  
G27 159087069.039      220212.463        -740.000          43.000  
G31 161720103.249      597989.387       -1785.000          42.000  
> 2024 12 16  7 21 53.4619999  0  8                     
G 4 160105864.230       86123.361        -359.000          42.000  
G 8 159148623.080     -567980.285        1518.000          43.000  
G 9 161141265.935     -429680.905        1126.000          44.000  
G16 160789279.203      348027.527       -1015.000          40.000  
G21 161994515.302    -1369319.361        4050.000          37.000  
G26 162361054.047      440803.728       -1316.000          35.000  
G27 159087210.065      220953.495        -741.000          43.000  
G31 161720443.088      599775.184       -1785.000          42.000  
> 2024 12 16  7 21 54.4619999  0  8                     
G 4 160105932.688       86483.161        -359.000          42.000  
G 8 159148334.172     -569498.292        1518.000          44.000  
G 9 161141051.645     -430807.145        1126.000          44.000  
G16 160789472.482      349042.345       -1014.000          40.000  
G21 161993744.378    -1373370.235        4050.000          37.000  
G26 162361304.438      442119.699       -1315.000          35.000  
G27 159087351.127      221694.732        -741.000          43.000  
G31 161720782.923      601560.967       -1785.000          42.000  
> 2024 12 16  7 21 55.4619999  0  8                     
G 4 160106001.440       86844.560        -361.000          43.000  
G 8 159148045.558     -571014.780        1516.000          44.000  
G 9 161140837.639     -431931.819        1124.000          44.000  
G16 160789666.336      350058.155       -1015.000          40.000  
G21 161992973.658    -1377420.079        4049.000          37.000  
G26 162361554.992      443436.604       -1316.000          35.000  
G27 159087492.479      222437.512        -742.000          43.000  
G31 161721123.013      603348.095       -1787.000          43.000  
> 2024 12 16  7 21 56.4619999  0  8                     
G 4 160106070.594       87208.093        -363.000          43.000  
G 8 159147757.351     -572529.158        1514.000          44.000  
G 9 161140624.040     -433054.282        1122.000          44.000  
G16 160789860.514      351075.608       -1017.000          40.000  
G21 161992203.237    -1381468.294        4048.000          36.000  
G26 162361805.849      444755.035       -1318.000          34.000  
G27 159087634.233      223182.431        -744.000          43.000  
G31 161721463.455      605137.064       -1788.000          43.000  
> 2024 12 16  7 21 57.4619999  0  8                     
G 4 160106139.613       87570.956        -362.000          43.000  
G 8 159147469.029     -574044.149        1514.000          44.000  
G 9 161140410.312     -434177.388        1123.000          44.000  
G16 160790053.509      352091.827       -1016.000          40.000  
G21 161991432.586    -1385517.690        4049.000          36.000  
G26 162362056.489      446072.252       -1317.000          35.000  
G27 159087775.854      223926.675        -744.000          43.000  
G31 161721803.728      606925.133       -1788.000          43.000  
> 2024 12 16  7 21 58.4619999  0  8                     
G 4 160106208.355       87932.387        -361.000          43.000  
G 8 159147180.427     -575560.602        1516.000          44.000  
G 9 161140196.282     -435302.002        1124.000          44.000  
G16 160790247.110      353106.025       -1014.000          40.000  
G21 161990661.549    -1389569.133        4051.000          36.000  
G26 162362306.706      447387.400       -1315.000          34.000  
G27 159087917.174      224669.355        -742.000          43.000  
G31 161722143.670      608711.452       -1786.000          43.000  
> 2024 12 16  7 21 59.4619999  0  8                     
G 4 160106277.212       88294.409        -362.000          43.000  
G 8 159146891.943     -577076.487        1515.000          44.000  
G 9 161139982.368     -436425.978        1123.000          44.000  
G16 160790439.569      354120.256       -1014.000          40.000  
G21 161989890.549    -1393620.456        4051.000          37.000  
G26 162362556.900      448702.546       -1315.000          35.000  
G27 159088058.608      225412.636        -743.000          43.000  
G31 161722483.674      610498.107       -1786.000          43.000  
> 2024 12 16  7 22  0.4619999  0  8                     
G 4 160106346.330       88657.805        -363.000          43.000  
G 8 159146603.720     -578591.058        1514.000          44.000  
G 9 161139768.713     -437548.541        1122.000          44.000  
G16 160790632.638      355135.308       -1015.000          40.000  
G21 161989119.701    -1397670.973        4050.000          37.000  
G26 162362807.290      450018.436       -1315.000          34.000  
G27 159088200.304      226157.269        -744.000          43.000  
G31 161722823.882      612285.846       -1787.000          43.000  
> 2024 12 16  7 22  1.4619999  0  8                     
G 4 160106415.868       89023.367        -365.000          43.000  
G 8 159146315.934     -580103.368        1512.000          44.000  
G 9 161139555.474     -438668.936        1120.000          44.000  
G16 160790826.741      356151.993       -1016.000          40.000  
G21 161988349.171    -1401719.850        4048.000          37.000  
G26 162363057.984      451335.962       -1317.000          34.000  
G27 159088342.422      226904.035        -746.000          43.000  
G31 161723164.464      614075.540       -1789.000          43.000  
> 2024 12 16  7 22  2.4619999  0  8                     
G 4 160106485.674       89390.324        -366.000          43.000  
G 8 159146028.403     -581614.372        1511.000          44.000  
G 9 161139342.498     -439787.956        1119.000          44.000  
G16 160791020.129      357169.483       -1017.000          40.000  
G21 161987578.803    -1405767.898        4048.000          37.000  
G26 162363308.828      452654.244       -1318.000          35.000  
G27 159088484.806      227652.128        -748.000          43.000  
G31 161723505.254      615866.300       -1790.000          43.000  
> 2024 12 16  7 22  3.4619999  0  9                     
G 4 160106555.721       89758.510        -368.000          43.000  
G 8 159145741.110     -583124.136        1509.000          44.000  
G 9 161139129.772     -440905.701        1117.000          44.000  
G16 160791213.700      358187.670       -1018.000          39.000  
G21 161986808.572    -1409815.221        4047.000          37.000  
G26 162363559.832      453973.196       -1318.000          35.000  
G27 159088627.431      228401.461        -749.000          43.000  
G28 163978485.268        9046.2521      -2510.000          16.000  
G31 161723846.232      617658.040       -1791.000          43.000  
> 2024 12 16  7 22  4.4619999  0  8                     
G 4 160106625.374       90124.563        -366.000          43.000  
G 8 159145453.407     -584636.034        1511.000          44.000  
G 9 161138916.649     -442025.560        1119.000          44.000  
G16 160791405.656      359203.168       -1015.000          39.000  
G21 161986037.831    -1413865.245        4050.000          37.000  
G26 162363810.315      455289.391       -1316.000          35.000  
G27 159088769.651      229148.602        -747.000          43.000  
G31 161724186.748      619447.382       -1789.000          43.000  
> 2024 12 16  7 22  5.4619999  0  8                     
G 4 160106695.148       90491.195        -366.000          43.000  
G 8 159145165.813     -586147.369        1511.000          44.000  
G 9 161138703.644     -443144.845        1119.000          44.000  
G16 160791597.862      360218.660       -1015.000          39.000  
G21 161985267.105    -1417915.189        4049.000          37.000  
G26 162364060.820      456605.570       -1316.000          35.000  
G27 159088911.984      229896.283        -747.000          43.000  
G31 161724527.325      621237.018       -1789.000          42.000  
> 2024 12 16  7 22  6.4619999  0  8                     
G 4 160106765.066       90858.546        -367.000          43.000  
G 8 159144878.356     -587657.992        1510.000          45.000  
G 9 161138490.782     -444263.394        1118.000          44.000  
G16 160791791.110      361234.342       -1015.000          39.000  
G21 161984496.414    -1421964.986        4049.000          37.000  
G26 162364311.431      457921.883       -1316.000          36.000  
G27 159089054.461      230644.656        -748.000          43.000  
G31 161724867.990      623027.110       -1790.000          42.000  
> 2024 12 16  7 22  7.4619999  0  8                     
G 4 160106835.110       91226.496        -367.000          43.000  
G 8 159144591.008     -589168.041        1510.000          45.000  
G 9 161138278.040     -445381.341        1117.000          45.000  
G16 160791985.143      362250.051       -1015.000          39.000  
G21 161983725.736    -1426014.698        4049.000          37.000  
G26 162364562.022      459238.204       -1316.000          36.000  
G27 159089197.046      231393.590        -748.000          43.000  
G31 161725208.725      624817.555       -1790.000          42.000  
> 2024 12 16  7 22  8.4619999  0  8                     
G 4 160106905.430       91595.857        -369.000          43.000  
G 8 159144303.938     -590676.637        1508.000          45.000  
G 9 161138065.583     -446497.836        1116.000          45.000  
G16 160792179.316      363266.643       -1016.000          39.000  
G21 161982955.228    -1430063.563        4048.000          37.000  
G26 162364812.737      460555.320       -1317.000          36.000  
G27 159089339.898      232143.904        -750.000          43.000  
G31 161725549.679      626609.115       -1791.000          43.000  
> 2024 12 16  7 22  9.4619999  0  8                     
G 4 160106975.978       91966.382        -370.000          43.000  
G 8 159144017.078     -592184.116        1507.000          44.000  
G 9 161137853.349     -447613.180        1115.000          45.000  
G16 160792373.602      364283.782       -1017.000          40.000  
G21 161982184.861    -1434111.777        4048.000          37.000  
G26 162365063.558      461873.025       -1317.000          36.000  
G27 159089482.953      232895.309        -751.000          43.000  
G31 161725890.800      628401.543       -1792.000          42.000  
> 2024 12 16  7 22 10.4619999  0  8                     
G 4 160107046.800       92338.323        -371.000          43.000  
G 8 159143730.483     -593690.178        1506.000          44.000  
G 9 161137641.397     -448727.047        1113.000          44.000  
G16 160792568.207      365301.858       -1018.000          40.000  
G21 161981414.676    -1438159.066        4047.000          37.000  
G26 162365314.531      463191.582       -1318.000          36.000  
G27 159089626.276      233648.178        -752.000          43.000  
G31 161726232.157      630195.198       -1793.000          43.000  
> 2024 12 16  7 22 11.4619999  0  8                     
G 4 160107117.361       92708.866        -370.000          43.000  
G 8 159143443.610     -595197.691        1507.000          44.000  
G 9 161137429.178     -449842.341        1115.000          45.000  
G16 160792762.132      366317.918       -1016.000          40.000  
G21 161980644.114    -1442208.388        4049.000          37.000  
G26 162365565.105      464508.060       -1316.000          36.000  
G27 159089769.314      234399.547        -751.000          43.000  
G31 161726573.185      631987.117       -1791.000          43.000  
> 2024 12 16  7 22 12.4619999  0  8                     
G 4 160107188.088       93080.263        -371.000          43.000  
G 8 159143156.909     -596704.268        1506.000          44.000  
G 9 161137217.134     -450956.744        1114.000          44.000  
G16 160792956.021      367334.322       -1016.000          40.000  
G21 161979873.642    -1446257.349        4048.000          37.000  
G26 162365815.756      465824.852       -1316.000          36.000  
G27 159089912.511      235151.796        -752.000          43.000  
G31 161726914.337      633779.684       -1792.000          42.000  
> 2024 12 16  7 22 13.4619999  0  9                     
G 4 160107258.998       93452.632        -372.000          43.000  
G 8 159142870.373     -598209.938        1505.000          44.000  
G 9 161137005.273     -452070.180        1113.000          44.000  
G16 160793149.980      368351.105       -1016.000          40.000  
G21 161979103.263    -1450305.862        4048.000          37.000  
G26 162366066.431      467142.004       -1317.000          36.000  
G27 159090055.863      235904.931        -753.000          43.000  
G28 163983149.493       17056.9461      -2505.000          18.000  
G31 161727255.610      635572.894       -1793.000          42.000  
> 2024 12 16  7 22 14.4619999  0  9                     
G 4 160107329.989       93825.461        -372.000          43.000  
G 8 159142583.922     -599715.168        1505.000          44.000  
G 9 161136793.499     -453183.154        1112.000          45.000  
G16 160793343.621      369367.806       -1016.000          40.000  
G21 161978332.880    -1454354.451        4048.000          37.000  
G26 162366317.076      468459.013       -1317.000          36.000  
G27 159090199.284      236658.507        -753.000          43.000  
G28 163983636.577       19570.2911      -2513.000          21.000  
G31 161727596.924      637366.303       -1793.000          43.000  
> 2024 12 16  7 22 15.4619999  0  9                     
G 4 160107401.078       94198.810        -373.000          43.000  
G 8 159142297.556     -601219.905        1504.000          44.000  
G 9 161136581.825     -454295.598        1112.000          44.000  
G16 160793537.152      370384.445       -1016.000          40.000  
G21 161977562.494    -1458403.052        4048.000          37.000  
G26 162366567.708      469775.924       -1316.000          36.000  
G27 159090342.775      237412.533        -754.000          42.000  
G28 163984118.225       22085.9971      -2515.000          21.000  
G31 161727938.282      639159.963       -1793.000          42.000  
> 2024 12 16  7 22 16.4619999  0  9                     
G 4 160107472.361       94573.200        -374.000          42.000  
G 8 159142011.386     -602723.575        1503.000          44.000  
G 9 161136370.360     -455406.936        1111.000          44.000  
G16 160793730.470      371401.607       -1017.000          40.000  
G21 161976792.202    -1462451.161        4048.000          37.000  
G26 162366818.440      471093.325       -1317.000          36.000  
G27 159090486.449      238167.614        -755.000          42.000  
G28 163984604.593       24600.4151      -2514.000          19.000  
G31 161728279.794      640954.411       -1794.000          42.000  
> 2024 12 16  7 22 17.4619999  0  9                     
G 4 160107543.952       94949.254        -376.000          42.000  
G 8 159141725.537     -604225.561        1501.000          44.000  
G 9 161136159.211     -456516.606        1109.000          44.000  
G16 160793924.648      372419.894       -1018.000          40.000  
G21 161976022.133    -1466498.101        4046.000          37.000  
G26 162367069.326      472411.836       -1318.000          35.000  
G27 159090630.425      238924.328        -756.000          42.000  
G28 163985157.931       27118.7061      -2518.000          20.000  
G31 161728621.566      642750.269       -1795.000          42.000  
> 2024 12 16  7 22 18.4619999  0  9                     
G 4 160107615.744       95326.452        -377.000          42.000  
G 8 159141439.891     -605726.470        1500.000          44.000  
G 9 161135948.264     -457625.153        1108.000          44.000  
G16 160794118.393      373438.703       -1018.000          40.000  
G21 161975252.173    -1470544.529        4046.000          38.000  
G26 162367320.314      473730.834       -1318.000          35.000  
G27 159090774.603      239682.126        -757.000          42.000  
G28 163985631.996       29630.2011      -2511.000          18.000  
G31 161728963.490      644546.965       -1796.000          42.000  
> 2024 12 16  7 22 19.4619999  0  8                     
G 4 160107687.771       95704.994        -378.000          42.000  
G 8 159141154.506     -607226.021        1499.000          44.000  
G 9 161135737.570     -458732.344        1107.000          44.000  
G16 160794312.650      374458.323       -1019.000          40.000  
G21 161974482.380    -1474590.063        4045.000          38.000  
G26 162367571.413      475050.553       -1319.000          35.000  
G27 159090919.029      240441.201        -759.000          42.000  
G31 161729305.608      646344.744       -1797.000          42.000  
> 2024 12 16  7 22 20.4619999  0  8                     
G 4 160107759.699       96083.089        -378.000          42.000  
G 8 159140869.039     -608726.035        1500.000          44.000  
G 9 161135526.792     -459839.939        1107.000          44.000  
G16 160794506.489      375476.984       -1018.000          40.000  
G21 161973712.407    -1478636.571        4046.000          38.000  
G26 162367822.344      476369.277       -1318.000          35.000  
G27 159091063.373      241199.834        -758.000          42.000  
G31 161729647.578      648141.801       -1797.000          42.000  
> 2024 12 16  7 22 21.4619999  0  8                     
G 4 160107831.425       96460.177        -377.000          41.000  
G 8 159140583.385     -610227.060        1501.000          44.000  
G 9 161135315.816     -460948.523        1108.000          44.000  
G16 160794700.020      376494.019       -1017.000          40.000  
G21 161972942.122    -1482684.701        4048.000          38.000  
G26 162368072.972      477686.421       -1317.000          35.000  
G27 159091207.508      241957.403        -757.000          42.000  
G31 161729989.302      649937.618       -1795.000          42.000  
> 2024 12 16  7 22 22.4619999  0  8                     
G 4 160107903.093       96837.026        -376.000          41.000  
G 8 159140297.689     -611728.332        1501.000          44.000  
G 9 161135104.788     -462057.354        1108.000          44.000  
G16 160794893.395      377510.274       -1016.000          40.000  
G21 161972171.710    -1486733.529        4048.000          38.000  
G26 162368323.383      479002.676       -1316.000          35.000  
G27 159091351.593      242714.720        -757.000          42.000  
G31 161730330.911      651732.886       -1795.000          42.000  
> 2024 12 16  7 22 23.4619999  0  8                     
G 4 160107974.740       97213.792        -376.000          42.000  
G 8 159140011.990     -613229.682        1501.000          45.000  
G 9 161134893.742     -463166.233        1108.000          44.000  
G16 160795086.655      378525.944       -1015.000          40.000  
G21 161971401.176    -1490782.969        4049.000          38.000  
G26 162368573.728      480318.298       -1315.000          35.000  
G27 159091495.655      243471.911        -757.000          42.000  
G31 161730672.460      653527.826       -1794.000          41.000  
> 2024 12 16  7 22 24.4619999  0  8                     
G 4 160108046.572       97591.561        -377.000          42.000  
G 8 159139726.489     -614730.049        1500.000          45.000  
G 9 161134682.882     -464274.120        1107.000          44.000  
G16 160795279.987      379542.003       -1016.000          39.000  
G21 161970630.716    -1494831.984        4049.000          38.000  
G26 162368824.130      481634.250       -1315.000          35.000  
G27 159091639.901      244230.055        -758.000          42.000  
G31 161731014.145      655323.492       -1795.000          41.000  
> 2024 12 16  7 22 25.4619999  0  8                     
G 4 160108118.649       97970.629        -379.000          42.000  
G 8 159139441.240     -616229.126        1499.000          45.000  
G 9 161134472.269     -465380.681        1106.000          44.000  
G16 160795473.470      380558.844       -1016.000          40.000  
G21 161969860.400    -1498880.191        4048.000          38.000  
G26 162369074.731      482950.977       -1316.000          35.000  
G27 159091784.398      244989.471        -759.000          42.000  
G31 161731356.024      657120.192       -1796.000          41.000  
> 2024 12 16  7 22 26.4619999  0  8                     
G 4 160108191.013       98351.213        -380.000          42.000  
G 8 159139156.284     -617726.729        1497.000          45.000  
G 9 161134261.934     -466485.752        1105.000          44.000  
G16 160795667.134      381576.625       -1017.000          39.000  
G21 161969090.250    -1502927.490        4047.000          37.000  
G26 162369325.451      484268.598       -1317.000          35.000  
G27 159091929.179      245750.343        -760.000          42.000  
G31 161731698.131      658918.112       -1797.000          42.000  
> 2024 12 16  7 22 27.4619999  0  8                     
G 4 160108263.326       98731.533        -380.000          42.000  
G 8 159138871.299     -619224.539        1497.000          45.000  
G 9 161134051.572     -467590.987        1105.000          44.000  
G16 160795860.651      382593.614       -1016.000          39.000  
G21 161968319.963    -1506975.501        4048.000          38.000  
G26 162369575.998      485585.402       -1316.000          35.000  
G27 159092073.918      246510.992        -760.000          42.000  
G31 161732040.148      660715.535       -1797.000          42.000  
> 2024 12 16  7 22 28.4619999  0  8                     
G 4 160108335.623       99111.751        -380.000          42.000  
G 8 159138586.287     -620722.506        1497.000          45.000  
G 9 161133841.178     -468696.379        1105.000          44.000  
G16 160796054.040      383609.941       -1016.000          39.000  
G21 161967549.539    -1511024.186        4048.000          37.000  
G26 162369826.409      486901.460       -1316.000          34.000  
G27 159092218.626      247271.415        -760.000          43.000  
G31 161732382.090      662512.576       -1797.000          41.000  
> 2024 12 16  7 22 29.4619999  0  8                     
G 4 160108407.909       99491.890        -380.000          42.000  
G 8 159138301.263     -622220.544        1498.000          45.000  
G 9 161133630.784     -469801.813        1105.000          44.000  
G16 160796247.307      384625.634       -1015.000          40.000  
G21 161966779.000    -1515073.467        4049.000          38.000  
G26 162370076.677      488216.836       -1315.000          35.000  
G27 159092363.332      248031.780        -760.000          42.000  
G31 161732723.970      664309.281       -1796.000          41.000  
> 2024 12 16  7 22 30.4619999  0  8                     
G 4 160108480.380       99872.908        -381.000          42.000  
G 8 159138016.405     -623717.729        1497.000          45.000  
G 9 161133420.567     -470906.355        1104.000          44.000  
G16 160796440.638      385641.646       -1016.000          39.000  
G21 161966008.526    -1519122.370        4048.000          37.000  
G26 162370327.057      489532.554       -1315.000          35.000  
G27 159092508.203      248792.978        -761.000          42.000  
G31 161733065.969      666106.588       -1797.000          41.000  
> 2024 12 16  7 22 31.4619999  0  8                     
G 4 160108553.074      100255.006        -382.000          43.000  
G 8 159137731.756     -625213.808        1496.000          45.000  
G 9 161133210.569     -472009.786        1103.000          44.000  
G16 160796634.077      386658.171       -1016.000          40.000  
G21 161965238.137    -1523170.765        4048.000          38.000  
G26 162370577.524      490848.734       -1316.000          35.000  
G27 159092653.273      249555.220        -762.000          42.000  
G31 161733408.120      667904.711       -1798.000          42.000  
> 2024 12 16  7 22 32.4619999  0  9                     
G 4 160108626.070      100638.606        -383.000          43.000  
G 7 163841843.288     -476490.7081       3608.000          24.000  
G 8 159137447.384     -626708.422        1494.000          45.000  
G 9 161133000.868     -473111.712        1101.000          44.000  
G16 160796827.701      387675.657       -1017.000          40.000  
G21 161964467.934    -1527218.173        4047.000          38.000  
G26 162370828.154      492165.814       -1317.000          34.000  
G27 159092798.624      250318.931        -763.000          42.000  
G31 161733750.504      669704.035       -1799.000          42.000  
> 2024 12 16  7 22 33.4619999  0  9                     
G 4 160108699.594      101024.925        -386.000          43.000  
G 7 163841150.864     -480097.5681       3606.000          23.000  
G 8 159137163.530     -628200.293        1491.000          45.000  
G 9 161132791.691     -474210.910        1099.000          44.000  
G16 160797021.745      388695.284       -1019.000          40.000  
G21 161963698.137    -1531263.412        4045.000          37.000  
G26 162371079.203      493484.998       -1319.000          34.000  
G27 159092944.484      251085.326        -766.000          42.000  
G31 161734093.349      671505.818       -1801.000          42.000  
> 2024 12 16  7 22 34.4619999  0  9                     
G 4 160108773.049      101410.843        -385.000          43.000  
G 7 163840474.328     -483705.2221       3607.000          23.000  
G 8 159136879.586     -629692.603        1492.000          45.000  
G 9 161132582.450     -475310.482        1099.000          44.000  
G16 160797215.619      389713.976       -1018.000          40.000  
G21 161962928.167    -1535309.573        4046.000          38.000  
G26 162371330.036      494803.229       -1318.000          34.000  
G27 159093090.252      251851.277        -765.000          42.000  
G31 161734436.060      673306.939       -1801.000          42.000  
> 2024 12 16  7 22 35.4619999  0  9                     
G 4 160108846.620      101797.318        -386.000          43.000  
G 7 163839788.059     -487313.1541       3607.000          23.000  
G 8 159136595.744     -631184.311        1491.000          44.000  
G 9 161132373.324     -476409.496        1099.000          44.000  
G16 160797409.498      390732.643       -1018.000          40.000  
G21 161962158.206    -1539355.718        4046.000          38.000  
G26 162371580.854      496121.398       -1318.000          34.000  
G27 159093236.110      252617.747        -766.000          42.000  
G31 161734778.828      675108.344       -1801.000          42.000  
> 2024 12 16  7 22 36.4619999  0  9                     
G 4 160108920.212      102183.875        -386.000          43.000  
G 7 163839104.577     -490921.2101       3608.000          23.000  
G 8 159136311.893     -632676.006        1491.000          44.000  
G 9 161132164.222     -477508.390        1098.000          44.000  
G16 160797603.297      391750.869       -1018.000          40.000  
G21 161961388.161    -1543402.298        4046.000          38.000  
G26 162371831.582      497439.091       -1317.000          34.000  
G27 159093381.966      253384.255        -766.000          42.000  
G31 161735121.564      676909.588       -1801.000          42.000  
> 2024 12 16  7 22 37.4619999  0  9                     
G 4 160108993.936      102571.118        -387.000          43.000  
G 7 163838410.298     -494529.7531       3608.000          22.000  
G 8 159136028.170     -634166.965        1490.000          44.000  
G 9 161131955.260     -478606.611        1098.000          45.000  
G16 160797797.121      392769.213       -1018.000          40.000  
G21 161960618.150    -1547448.699        4046.000          38.000  
G26 162372082.273      498756.846       -1317.000          34.000  
G27 159093527.947      254151.467        -767.000          42.000  
G31 161735464.372      678711.229       -1801.000          42.000  
> 2024 12 16  7 22 38.4619999  0  9                     
G 4 160109067.737      102958.753        -387.000          43.000  
G 7 163837728.750     -498137.1351       3607.000          22.000  
G 8 159135744.493     -635657.595        1490.000          44.000  
G 9 161131746.383     -479704.403        1097.000          44.000  
G16 160797990.908      393787.383       -1018.000          40.000  
G21 161959848.104    -1551495.266        4046.000          38.000  
G26 162372332.949      500074.430       -1317.000          34.000  
G27 159093673.967      254918.962        -767.000          42.000  
G31 161735807.195      680512.983       -1801.000          42.000  
> 2024 12 16  7 22 39.4619999  0  9                     
G 4 160109141.500      103346.209        -387.000          43.000  
G 7 163837035.897     -501746.8241       3609.000          23.000  
G 8 159135460.778     -637148.380        1490.000          44.000  
G 9 161131537.476     -480802.358        1097.000          44.000  
G16 160798184.565      394804.852       -1017.000          39.000  
G21 161959077.931    -1555542.532        4047.000          38.000  
G26 162372583.455      501391.246       -1316.000          33.000  
G27 159093819.946      255686.308        -767.000          42.000  
G31 161736149.942      682314.337       -1801.000          42.000  
> 2024 12 16  7 22 40.4619999  0  9                     
G 4 160109215.392      103734.362        -388.000          43.000  
G 7 163836352.564     -505356.5701       3609.000          24.000  
G 8 159135177.181     -638638.497        1490.000          44.000  
G 9 161131328.703     -481899.607        1097.000          44.000  
G16 160798378.234      395822.408       -1017.000          39.000  
G21 161958307.791    -1559589.656        4047.000          38.000  
G26 162372833.961      502708.042       -1316.000          33.000  
G27 159093966.028      256454.251        -767.000          42.000  
G31 161736492.764      684116.059       -1801.000          42.000  
> 2024 12 16  7 22 41.4619999  0  9                     
G 4 160109289.395      104123.129        -388.000          43.000  
G 7 163835689.474     -508966.0171       3609.000          23.000  
G 8 159134893.687     -640128.039        1489.000          44.000  
G 9 161131120.048     -482996.246        1096.000          44.000  
G16 160798571.908      396840.034       -1017.000          40.000  
G21 161957537.667    -1563636.695        4047.000          39.000  
G26 162373084.511      504024.983       -1316.000          32.000  
G27 159094112.223      257222.807        -768.000          42.000  
G31 161736835.657      685918.122       -1802.000          42.000  
> 2024 12 16  7 22 42.4619999  0  9                     
G 4 160109363.475      104512.331        -389.000          43.000  
G 7 163834967.148     -512576.6141       3610.000          23.000  
G 8 159134610.272     -641617.104        1489.000          44.000  
G 9 161130911.481     -484092.420        1096.000          44.000  
G16 160798765.559      397857.557       -1017.000          39.000  
G21 161956767.528    -1567683.818        4047.000          39.000  
G26 162373334.970      505341.724       -1316.000          33.000  
G27 159094258.487      257991.747        -768.000          41.000  
G31 161737178.593      687720.402       -1802.000          42.000  
> 2024 12 16  7 22 43.4619999  0  9                     
G 4 160109437.625      104901.955        -389.000          43.000  
G 7 163834299.407     -516186.4931       3609.000          22.000  
G 8 159134326.936     -643105.751        1488.000          44.000  
G 9 161130702.991     -485188.165        1095.000          44.000  
G16 160798959.186      398874.948       -1017.000          39.000  
G21 161955997.367    -1571731.051        4047.000          38.000  
G26 162373585.425      506658.312       -1316.000          33.000  
G27 159094404.826      258761.095        -769.000          42.000  
G31 161737521.556      689522.801       -1802.000          42.000  
> 2024 12 16  7 22 44.4619999  0  9                     
G 4 160109511.910      105292.355        -390.000          43.000  
G 7 163833607.702     -519796.6361       3610.000          24.000  
G 8 159134043.738     -644593.658        1487.000          44.000  
G 9 161130494.648     -486283.115        1094.000          44.000  
G16 160799152.847      399892.531       -1017.000          40.000  
G21 161955227.247    -1575778.038        4046.000          38.000  
G26 162373835.891      507975.072       -1316.000          33.000  
G27 159094551.299      259531.164        -770.000          42.000  
G31 161737864.625      691325.711       -1802.000          42.000  
> 2024 12 16  7 22 45.4619999  0  9                     
G 4 160109586.308      105683.397        -391.000          42.000  
G 7 163832916.425     -523406.8541       3610.000          25.000  
G 8 159133760.667     -646080.899        1487.000          44.000  
G 9 161130286.432     -487377.381        1094.000          44.000  
G16 160799346.522      400910.229       -1017.000          40.000  
G21 161954457.135    -1579824.914        4046.000          38.000  
G26 162374086.333      509291.897       -1316.000          33.000  
G27 159094697.895      260301.840        -770.000          42.000  
G31 161738207.774      693128.984       -1803.000          42.000  
> 2024 12 16  7 22 46.4619999  0  9                     
G 4 160109660.767      106074.854        -391.000          42.000  
G 7 163832226.076     -527017.4351       3610.000          25.000  
G 8 159133477.672     -647567.761        1486.000          44.000  
G 9 161130078.283     -488471.246        1093.000          45.000  
G16 160799540.169      401927.790       -1017.000          39.000  
G21 161953687.009    -1583871.873        4046.000          38.000  
G26 162374336.775      510608.521       -1316.000          33.000  
G27 159094844.567      261072.902        -771.000          42.000  
G31 161738550.965      694932.451       -1803.000          42.000  
> 2024 12 16  7 22 47.4619999  0  9                     
G 4 160109735.328      106466.879        -392.000          42.000  
G 7 163831536.732     -530628.1501       3610.000          26.000  
G 8 159133194.799     -649054.041        1486.000          44.000  
G 9 161129870.243     -489564.498        1093.000          44.000  
G16 160799733.809      402945.340       -1017.000          39.000  
G21 161952916.873    -1587918.835        4046.000          37.000  
G26 162374587.185      511925.101       -1316.000          32.000  
G27 159094991.348      261844.494        -771.000          42.000  
G31 161738894.210      696736.178       -1803.000          42.000  
> 2024 12 16  7 22 48.4619999  0  9                     
G 4 160109810.016      106859.613        -392.000          42.000  
G 7 163830845.956     -534238.8431       3610.000          26.000  
G 8 159132912.068     -650539.655        1485.000          44.000  
G 9 161129662.322     -490657.063        1092.000          44.000  
G16 160799927.480      403963.050       -1017.000          39.000  
G21 161952146.773    -1591965.585        4046.000          38.000  
G26 162374837.630      513241.851       -1316.000          33.000  
G27 159095138.276      262616.754        -772.000          43.000  
G31 161739237.540      698540.349       -1804.000          42.000  
> 2024 12 16  7 22 49.4619999  0  9                     
G 4 160109884.582      107251.750        -392.000          42.000  
G 7 163830156.254     -537850.1781       3611.000          26.000  
G 8 159132629.235     -652025.832        1486.000          44.000  
G 9 161129454.271     -491750.215        1093.000          44.000  
G16 160800120.925      404979.604       -1016.000          39.000  
G21 161951376.455    -1596013.501        4047.000          37.000  
G26 162375087.881      514557.323       -1315.000          34.000  
G27 159095285.100      263388.370        -771.000          43.000  
G31 161739580.702      700343.645       -1803.000          42.000  
> 2024 12 16  7 22 50.4619999  0  9                     
G 4 160109959.129      107643.812        -392.000          41.000  
G 7 163829479.857     -541462.9901       3612.000          26.000  
G 8 159132346.401     -653512.085        1486.000          44.000  
G 9 161129246.211     -492843.382        1093.000          44.000  
G16 160800314.254      405995.547       -1015.000          39.000  
G21 161950606.031    -1600061.947        4048.000          38.000  
G26 162375338.017      515872.260       -1314.000          34.000  
G27 159095431.921      264159.914        -771.000          43.000  
G31 161739923.805      702146.635       -1802.000          42.000  
> 2024 12 16  7 22 51.4619999  0  9                     
G 4 160110033.664      108035.805        -391.000          41.000  
G 7 163828788.436     -545076.0261       3613.000          25.000  
G 8 159132063.563     -654998.440        1486.000          45.000  
G 9 161129038.137     -493936.604        1093.000          44.000  
G16 160800507.459      407010.852       -1015.000          39.000  
G21 161949835.490    -1604111.058        4049.000          38.000  
G26 162375587.981      517186.423       -1314.000          34.000  
G27 159095578.731      264931.326        -771.000          43.000  
G31 161740266.835      703949.259       -1802.000          42.000  
> 2024 12 16  7 22 52.4619999  0  9                     
G 4 160110108.234      108427.978        -392.000          42.000  
G 7 163828103.100     -548690.0801       3614.000          26.000  
G 8 159131780.762     -656484.607        1486.000          44.000  
G 9 161128830.096     -495029.650        1093.000          44.000  
G16 160800700.595      408025.793       -1014.000          39.000  
G21 161949064.889    -1608160.465        4049.000          38.000  
G26 162375837.900      518500.192       -1313.000          34.000  
G27 159095725.584      265702.885        -771.000          43.000  
G31 161740609.848      705751.827       -1802.000          42.000  
> 2024 12 16  7 22 53.4619999  0  9                     
G 4 160110182.882      108820.520        -392.000          42.000  
G 7 163827402.164     -552304.2951       3614.000          24.000  
G 8 159131498.038     -657970.415        1485.000          44.000  
G 9 161128622.124     -496122.312        1092.000          44.000  
G16 160800893.692      409040.549       -1014.000          39.000  
G21 161948294.247    -1612210.081        4049.000          38.000  
G26 162376087.756      519813.753       -1313.000          34.000  
G27 159095872.512      266474.774        -771.000          43.000  
G31 161740952.870      707554.444       -1802.000          42.000  
> 2024 12 16  7 22 54.4619999  0  9                     
G 4 160110257.625      109213.515        -392.000          42.000  
G 7 163826715.180     -555918.9261       3614.000          24.000  
G 8 159131215.404     -659455.801        1485.000          44.000  
G 9 161128414.248     -497214.485        1092.000          44.000  
G16 160801086.771      410055.197       -1014.000          40.000  
G21 161947523.599    -1616259.747        4049.000          38.000  
G26 162376337.623      521127.176       -1313.000          34.000  
G27 159096019.534      267247.116        -772.000          43.000  
G31 161741295.932      709357.282       -1802.000          41.000  
> 2024 12 16  7 22 55.4619999  0  9                     
G 4 160110332.497      109607.113        -393.000          42.000  
G 7 163826030.128     -559534.1271       3614.000          24.000  
G 8 159130932.905     -660940.529        1484.000          44.000  
G 9 161128206.493     -498306.072        1091.000          45.000  
G16 160801279.860      411069.871       -1014.000          40.000  
G21 161946752.963    -1620309.335        4049.000          38.000  
G26 162376587.489      522440.584       -1313.000          34.000  
G27 159096166.657      268019.975        -772.000          43.000  
G31 161741639.052      711160.421       -1803.000          42.000  
> 2024 12 16  7 22 56.4619999  0  9                     
G 4 160110407.584      110001.781        -394.000          42.000  
G 7 163825336.203     -563148.3781       3614.000          24.000  
G 8 159130650.595     -662424.241        1483.000          44.000  
G 9 161127998.961     -499396.526        1090.000          45.000  
G16 160801473.061      412085.117       -1015.000          40.000  
G21 161945982.429    -1624358.332        4049.000          38.000  
G26 162376837.507      523754.546       -1313.000          35.000  
G27 159096313.989      268793.894        -773.000          43.000  
G31 161741982.336      712964.398       -1803.000          42.000  
> 2024 12 16  7 22 57.4619999  0  9                     
G 4 160110482.830      110397.195        -395.000          42.000  
G 7 163824650.505     -566761.9521       3613.000          24.000  
G 8 159130368.420     -663907.224        1482.000          44.000  
G 9 161127791.576     -500486.244        1089.000          45.000  
G16 160801666.299      413100.530       -1015.000          40.000  
G21 161945211.921    -1628407.205        4048.000          38.000  
G26 162377087.562      525068.607       -1314.000          35.000  
G27 159096461.459      269568.530        -774.000          43.000  
G31 161742325.712      714768.850       -1804.000          42.000  
> 2024 12 16  7 22 58.4619999  0  9                     
G 4 160110558.284      110793.669        -396.000          42.000  
G 7 163823945.778     -570376.0101       3614.000          25.000  
G 8 159130086.450     -665389.111        1481.000          44.000  
G 9 161127584.411     -501574.851        1088.000          45.000  
G16 160801859.637      414116.424       -1015.000          40.000  
G21 161944441.528    -1632455.448        4048.000          38.000  
G26 162377337.727      526383.146       -1314.000          35.000  
G27 159096609.128      270344.195        -775.000          43.000  
G31 161742669.241      716574.126       -1805.000          42.000  
> 2024 12 16  7 22 59.4619999  0  9                     
G 4 160110634.061      111191.805        -398.000          42.000  
G 7 163823245.488     -573988.8451       3612.000          25.000  
G 8 159129804.776     -666869.381        1480.000          44.000  
G 9 161127377.559     -502661.860        1087.000          45.000  
G16 160802053.198      415133.456       -1017.000          40.000  
G21 161943671.335    -1636502.624        4047.000          38.000  
G26 162377588.102      527698.731       -1315.000          34.000  
G27 159096757.091      271121.440        -777.000          43.000  
G31 161743013.013      718380.706       -1806.000          42.000  
> 2024 12 16  7 23  0.4619999  0  9                     
G 4 160110710.099      111591.297        -399.000          42.000  
G 7 163822558.215     -577600.9471       3612.000          25.000  
G 8 159129523.351     -668348.311        1478.000          44.000  
G 9 161127170.984     -503747.455        1085.000          45.000  
G16 160802246.908      416151.248       -1017.000          40.000  
G21 161942901.308    -1640548.944        4046.000          38.000  
G26 162377838.604      529015.131       -1316.000          34.000  
G27 159096905.305      271900.048        -778.000          43.000  
G31 161743357.003      720188.440       -1807.000          42.000  
> 2024 12 16  7 23  1.4619999  0  9                     
G 4 160110786.261      111991.452        -400.000          42.000  
G 7 163821859.212     -581212.6111       3612.000          25.000  
G 8 159129242.054     -669826.527        1478.000          44.000  
G 9 161126964.549     -504832.356        1084.000          45.000  
G16 160802440.659      417169.196       -1017.000          40.000  
G21 161942131.306    -1644595.112        4046.000          38.000  
G26 162378089.107      530331.604       -1316.000          34.000  
G27 159097053.634      272679.291        -779.000          43.000  
G31 161743701.070      721996.568       -1808.000          42.000  
> 2024 12 16  7 23  2.4619999  0  9                     
G 4 160110862.456      112391.778        -400.000          42.000  
G 7 163821168.650     -584825.5161       3612.000          23.000  
G 8 159128960.765     -671304.640        1478.000          44.000  
G 9 161126758.154     -505917.063        1084.000          45.000  
G16 160802634.346      418186.757       -1017.000          40.000  
G21 161941361.243    -1648641.655        4046.000          38.000  
G26 162378339.520      531647.630       -1316.000          34.000  
G27 159097201.973      273458.637        -779.000          43.000  
G31 161744045.114      723804.585       -1808.000          42.000  
> 2024 12 16  7 23  3.4619999  0  9                     
G 4 160110938.753      112792.622        -400.000          42.000  
G 7 163820488.964     -588438.1511       3612.000          21.000  
G 8 159128679.572     -672782.192        1477.000          44.000  
G 9 161126551.860     -507001.255        1084.000          45.000  
G16 160802828.030      419204.286       -1017.000          40.000  
G21 161940591.177    -1652688.225        4046.000          38.000  
G26 162378589.911      532963.553       -1315.000          34.000  
G27 159097350.396      274238.497        -779.000          43.000  
G31 161744389.203      725612.864       -1808.000          42.000  
> 2024 12 16  7 23  4.4619999  0  9                     
G 4 160111015.225      113194.373        -401.000          43.000  
G 7 163819771.285     -592048.8831       3610.000          20.000  
G 8 159128398.535     -674258.885        1476.000          44.000  
G 9 161126345.749     -508084.512        1083.000          45.000  
G16 160803021.779      420222.138       -1017.000          40.000  
G21 161939821.195    -1656734.387        4046.000          38.000  
G26 162378840.341      534279.810       -1316.000          34.000  
G27 159097498.969      275019.205        -780.000          43.000  
G31 161744733.407      727421.766       -1808.000          42.000  
> 2024 12 16  7 23  5.4619999  0  9                     
G 4 160111091.771      113596.535        -402.000          43.000  
G 7 163819127.088     -595657.5361       3608.000          21.000  
G 8 159128117.576     -675735.145        1476.000          44.000  
G 9 161126139.724     -509167.317        1082.000          44.000  
G16 160803215.501      421239.864       -1017.000          40.000  
G21 161939051.199    -1660780.643        4046.000          38.000  
G26 162379090.730      535595.852       -1316.000          34.000  
G27 159097647.599      275800.271        -781.000          43.000  
G31 161745077.644      729230.865       -1809.000          42.000  
> 2024 12 16  7 23  6.4619999  0  9                     
G 4 160111168.391      113999.133        -402.000          42.000  
G 7 163818412.057     -599264.7761       3607.000          20.000  
G 8 159127836.693     -677210.977        1475.000          44.000  
G 9 161125933.776     -510249.724        1082.000          44.000  
G16 160803409.193      422257.448       -1017.000          40.000  
G21 161938281.188    -1664827.038        4046.000          38.000  
G26 162379341.144      536911.819       -1315.000          34.000  
G27 159097796.297      276581.741        -781.000          43.000  
G31 161745421.899      731040.067       -1809.000          42.000  
> 2024 12 16  7 23  7.4619999  0  9                     
G 4 160111245.010      114401.756        -402.000          42.000  
G 7 163817736.375     -602878.6791       3613.000          22.000  
G 8 159127555.811     -678686.801        1475.000          44.000  
G 9 161125727.842     -511332.059        1082.000          44.000  
G16 160803602.793      423274.523       -1017.000          40.000  
G21 161937511.085    -1668873.897        4046.000          39.000  
G26 162379591.443      538227.213       -1315.000          34.000  
G27 159097944.990      277363.236        -781.000          43.000  
G31 161745766.113      732849.061       -1808.000          41.000  
> 2024 12 16  7 23  8.4619999  0  9                     
G 4 160111321.687      114804.731        -402.000          42.000  
G 7 163817044.671     -606494.0531       3615.000          22.000  
G 8 159127274.977     -680162.311        1475.000          44.000  
G 9 161125521.970     -512414.057        1082.000          44.000  
G16 160803796.353      424291.365       -1016.000          41.000  
G21 161936740.941    -1672920.966        4047.000          39.000  
G26 162379841.694      539542.289       -1315.000          34.000  
G27 159098093.725      278145.007        -781.000          43.000  
G31 161746110.339      734658.118       -1809.000          41.000  
> 2024 12 16  7 23  9.4619999  0  9                     
G 4 160111398.393      115207.901        -403.000          42.000  
G 7 163816384.302     -610112.4211       3618.000          21.000  
G 8 159126994.191     -681637.571        1475.000          43.000  
G 9 161125316.140     -513495.823        1081.000          44.000  
G16 160803989.846      425307.903       -1016.000          41.000  
G21 161935970.738    -1676968.332        4047.000          39.000  
G26 162380091.876      540857.003       -1314.000          32.000  
G27 159098242.488      278926.935        -781.000          43.000  
G31 161746454.562      736467.141       -1809.000          41.000  
> 2024 12 16  7 23 10.4619999  0  9                     
G 4 160111475.151      115611.410        -403.000          41.000  
G 7 163815666.265     -613727.8161       3615.000          21.000  
G 8 159126713.462     -683112.527        1474.000          43.000  
G 9 161125110.380     -514577.215        1081.000          44.000  
G16 160804183.285      426324.189       -1016.000          40.000  
G21 161935200.500    -1681015.906        4047.000          39.000  
G26 162380341.966      542171.475       -1314.000          33.000  
G27 159098391.300      279709.190        -782.000          42.000  
G31 161746798.800      738276.187       -1809.000          41.000  
> 2024 12 16  7 23 11.4619999  0  9                     
G 4 160111552.089      116015.909        -404.000          41.000  
G 7 163814993.302     -617339.5691       3611.000          23.000  
G 8 159126432.931     -684586.478        1473.000          43.000  
G 9 161124904.804     -515657.587        1080.000          44.000  
G16 160804376.805      427340.933       -1016.000          41.000  
G21 161934430.361    -1685063.000        4047.000          39.000  
G26 162380592.143      543486.350       -1314.000          33.000  
G27 159098540.294      280492.402        -783.000          42.000  
G31 161747143.190      740085.981       -1809.000          42.000  
> 2024 12 16  7 23 12.4619999  0  9                     
G 4 160111629.135      116421.006        -405.000          41.000  
G 7 163814321.058     -620953.3311       3613.000          22.000  
G 8 159126152.506     -686059.884        1473.000          43.000  
G 9 161124699.327     -516737.413        1079.000          44.000  
G16 160804570.325      428357.679       -1016.000          40.000  
G21 161933660.229    -1689110.061        4047.000          39.000  
G26 162380842.294      544801.200       -1314.000          33.000  
G27 159098689.396      281276.148        -783.000          43.000  
G31 161747487.647      741896.089       -1810.000          41.000  
> 2024 12 16  7 23 13.4619999  0  9                     
G 4 160111706.306      116826.741        -405.000          42.000  
G 7 163813610.036     -624568.2811       3614.000          23.000  
G 8 159125872.220     -687532.608        1472.000          44.000  
G 9 161124493.970     -517816.544        1079.000          44.000  
G16 160804763.867      429374.543       -1016.000          40.000  
G21 161932890.139    -1693156.962        4046.000          39.000  
G26 162381092.468      546116.128       -1314.000          34.000  
G27 159098838.632      282060.545        -784.000          43.000  
G31 161747832.184      743706.590       -1810.000          42.000  
> 2024 12 16  7 23 14.4619999  0  9                     
G 4 160111783.654      117233.388        -406.000          42.000  
G 7 163812897.578     -628182.0371       3613.000          19.000  
G 8 159125592.115     -689004.447        1471.000          44.000  
G 9 161124288.783     -518894.735        1078.000          44.000  
G16 160804957.472      430391.777       -1017.000          40.000  
G21 161932120.139    -1697203.468        4046.000          39.000  
G26 162381342.715      547431.404       -1315.000          34.000  
G27 159098988.034      282845.755        -785.000          43.000  
G31 161748176.842      745517.724       -1811.000          42.000  
> 2024 12 16  7 23 15.4619999  0  9                     
G 4 160111861.165      117640.862        -407.000          42.000  
G 7 163812177.827     -631793.7021       3611.000          17.000  
G 8 159125312.174     -690475.506        1471.000          44.000  
G 9 161124083.742     -519972.112        1077.000          44.000  
G16 160805151.125      431409.232       -1017.000          41.000  
G21 161931350.194    -1701249.725        4046.000          39.000  
G26 162381593.041      548746.843       -1315.000          34.000  
G27 159099137.594      283631.765        -786.000          43.000  
G31 161748521.602      747329.385       -1811.000          42.000  
> 2024 12 16  7 23 16.4619999  0  9                     
G 4 160111938.728      118048.583        -407.000          42.000  
G 7 163811529.049     -635402.5481       3608.000          19.000  
G 8 159125032.295     -691946.271        1470.000          44.000  
G 9 161123878.762     -521049.158        1077.000          44.000  
G16 160805344.726      432426.426       -1017.000          40.000  
G21 161930580.219    -1705296.195        4046.000          39.000  
G26 162381843.306      550062.011       -1315.000          34.000  
G27 159099287.211      284418.029        -786.000          43.000  
G31 161748866.377      749141.112       -1811.000          42.000  
> 2024 12 16  7 23 17.4619999  0  9                     
G 4 160112016.338      118456.512        -407.000          42.000  
G 7 163810830.762     -639019.9221       3617.000          21.000  
G 8 159124752.467     -693416.824        1470.000          44.000  
G 9 161123673.810     -522126.028        1076.000          44.000  
G16 160805538.249      433443.275       -1016.000          40.000  
G21 161929810.182    -1709343.008        4046.000          39.000  
G26 162382093.476      551376.747       -1314.000          35.000  
G27 159099436.870      285204.451        -786.000          43.000  
G31 161749211.135      750952.742       -1811.000          42.000  
> 2024 12 16  7 23 18.4619999  0  9                     
G 4 160112094.231      118865.906        -409.000          42.000  
G 7 163810142.202     -642632.5811       3612.000          24.000  
G 8 159124472.916     -694885.936        1469.000          44.000  
G 9 161123469.137     -523201.416        1075.000          44.000  
G16 160805731.943      434461.034       -1017.000          40.000  
G21 161929040.331    -1713388.858        4045.000          39.000  
G26 162382343.815      552692.371       -1315.000          35.000  
G27 159099586.807      285992.292        -787.000          43.000  
G31 161749556.120      752765.557       -1812.000          42.000  
> 2024 12 16  7 23 19.4619999  0  9                     
G 4 160112172.274      119276.060        -410.000          42.000  
G 7 163809453.787     -646247.1631       3614.000          21.000  
G 8 159124193.516     -696354.294        1468.000          44.000  
G 9 161123264.617     -524275.991        1074.000          44.000  
G16 160805925.678      435478.981       -1017.000          40.000  
G21 161928270.525    -1717434.480        4045.000          39.000  
G26 162382594.232      554008.143       -1315.000          35.000  
G27 159099736.887      286780.854        -788.000          43.000  
G31 161749901.196      754578.890       -1813.000          42.000  
> 2024 12 16  7 23 20.4619999  0  9                     
G 4 160112250.564      119687.477        -411.000          42.000  
G 7 163808707.847     -649859.9851       3612.000          18.000  
G 8 159123914.366     -697821.391        1467.000          44.000  
G 9 161123060.340     -525349.328        1073.000          44.000  
G16 160806119.542      436497.641       -1018.000          40.000  
G21 161927500.862    -1721479.401        4044.000          39.000  
G26 162382844.714      555324.614       -1316.000          35.000  
G27 159099887.192      287570.639        -789.000          43.000  
G31 161750246.458      756393.209       -1814.000          42.000  
> 2024 12 16  7 23 21.4619999  0  9                     
G 4 160112328.875      120098.979        -411.000          42.000  
G 7 163808018.000     -653462.3551       3602.000          17.000  
G 8 159123635.232     -699288.391        1467.000          44.000  
G 9 161122856.095     -526422.536        1073.000          44.000  
G16 160806313.316      437515.855       -1018.000          40.000  
G21 161926731.130    -1725524.718        4045.000          39.000  
G26 162383095.084      556640.563       -1315.000          35.000  
G27 159100037.509      288360.496        -789.000          43.000  
G31 161750591.690      758207.338       -1814.000          42.000  
> 2024 12 16  7 23 22.4619999  0  9                     
G 4 160112407.462      120511.868        -412.000          43.000  
G 7 163807337.455     -657064.7881       3602.000          17.000  
G 8 159123356.358     -700754.036        1465.000          44.000  
G 9 161122652.122     -527494.354        1071.000          44.000  
G16 160806507.240      438534.881       -1019.000          40.000  
G21 161925961.570    -1729569.172        4044.000          39.000  
G26 162383345.627      557957.311       -1316.000          35.000  
G27 159100188.089      289151.690        -791.000          43.000  
G31 161750937.134      760022.575       -1815.000          42.000  
> 2024 12 16  7 23 23.4619999  0 10                     
G 4 160112486.458      120926.880        -415.000          43.000  
G 7 163806664.352     -660674.5471       3609.000          20.000  
G 8 159123077.886     -702217.521        1463.000          44.000  
G 9 161122448.568     -528563.987        1069.000          45.000  
G16 160806701.451      439555.460       -1020.000          40.000  
G21 161925192.311    -1733612.027        4042.000          39.000  
G26 162383596.504      559275.612       -1318.000          35.000  
G27 159100339.081      289944.978        -793.000          43.000  
G28 164016682.155        7040.9061      -2524.000          20.000  
G31 161751282.944      761839.700       -1817.000          42.000  
> 2024 12 16  7 23 24.4619999  0  9                     
G 4 160112565.319      121341.152        -414.000          43.000  
G 7 163805981.233     -664288.8971       3614.000          19.000  
G 8 159122799.249     -703681.820        1464.000          44.000  
G 9 161122244.872     -529634.409        1070.000          45.000  
G16 160806895.415      440574.779       -1019.000          40.000  
G21 161924422.810    -1737656.135        4044.000          39.000  
G26 162383847.147      560592.550       -1316.000          34.000  
G27 159100489.929      290737.473        -792.000          43.000  
G31 161751628.557      763655.801       -1816.000          42.000  
> 2024 12 16  7 23 25.4619999  0  9                     
G 4 160112644.231      121755.688        -414.000          43.000  
G 7 163805286.090     -667903.2201       3614.000          19.000  
G 8 159122520.662     -705145.830        1464.000          44.000  
G 9 161122041.244     -530704.512        1070.000          45.000  
G16 160807089.318      441593.788       -1019.000          40.000  
G21 161923653.249    -1741700.551        4044.000          39.000  
G26 162384097.729      561909.229       -1316.000          35.000  
G27 159100640.819      291530.195        -792.000          43.000  
G31 161751974.162      765471.883       -1816.000          42.000  
> 2024 12 16  7 23 26.4619999  0 10                     
G 4 160112723.219      122170.586        -414.000          43.000  
G 7 163804602.827     -671518.1331       3614.000          18.000  
G 8 159122242.146     -706609.469        1463.000          44.000  
G 9 161121837.689     -531774.246        1069.000          45.000  
G16 160807283.180      442612.605       -1018.000          40.000  
G21 161922883.660    -1745745.081        4044.000          39.000  
G26 162384348.263      563225.606       -1316.000          35.000  
G27 159100791.773      292323.261        -793.000          43.000  
G28 164018099.265       14619.5631      -2524.000          17.000  
G31 161752319.783      767288.081       -1816.000          42.000  
> 2024 12 16  7 23 27.4619999  0 10                     
G 4 160112802.745      122588.272        -417.000          43.000  
G 7 163803958.482     -675131.9841       3613.000          19.000  
G 8 159121964.154     -708070.327        1460.000          44.000  
G 9 161121634.676     -532841.151        1066.000          45.000  
G16 160807477.465      443633.670       -1021.000          40.000  
G21 161922114.516    -1749787.334        4042.000          40.000  
G26 162384599.220      564544.208       -1318.000          36.000  
G27 159100943.237      293119.053        -795.000          43.000  
G28 164018517.525       17150.8491      -2531.000          21.000  
G31 161752665.880      769106.795       -1818.000          42.000  
> 2024 12 16  7 23 28.4619999  0  9                     
G 4 160112882.480      123007.012        -418.000          43.000  
G 7 163803252.468     -678745.0521       3613.000          19.000  
G 8 159121686.349     -709530.127        1459.000          43.000  
G 9 161121431.874     -533906.989        1065.000          45.000  
G16 160807671.847      444655.263       -1021.000          40.000  
G21 161921345.473    -1753829.068        4041.000          40.000  
G26 162384850.319      565863.289       -1319.000          36.000  
G27 159101094.893      293915.890        -796.000          42.000  
G31 161753012.126      770926.335       -1819.000          42.000  
> 2024 12 16  7 23 29.4619999  0  9                     
G 4 160112962.147      123425.372        -418.000          43.000  
G 7 163802552.893     -682360.1471       3615.000          17.000  
G 8 159121408.452     -710990.345        1460.000          43.000  
G 9 161121229.001     -534973.213        1066.000          45.000  
G16 160807866.039      445675.867       -1020.000          40.000  
G21 161920576.252    -1757871.688        4042.000          39.000  
G26 162385101.242      567181.388       -1318.000          36.000  
G27 159101246.457      294712.312        -796.000          42.000  
G31 161753358.231      772745.163       -1818.000          42.000  
> 2024 12 16  7 23 30.4619999  0  9                     
G 4 160113041.845      123843.874        -418.000          43.000  
G 7 163801835.859     -685974.9731       3614.000          18.000  
G 8 159121130.578     -712450.406        1460.000          43.000  
G 9 161121026.163     -536039.257        1066.000          45.000  
G16 160808060.159      446696.092       -1020.000          40.000  
G21 161919806.946    -1761914.705        4043.000          39.000  
G26 162385352.083      568499.062       -1317.000          36.000  
G27 159101398.029      295508.823        -796.000          43.000  
G31 161753704.314      774563.894       -1818.000          42.000  
> 2024 12 16  7 23 31.4619999  0  9                     
G 4 160113121.497      124262.149        -418.000          43.000  
G 7 163801116.963     -689588.4991       3613.000          18.000  
G 8 159120852.654     -713910.675        1460.000          43.000  
G 9 161120823.278     -537105.541        1066.000          45.000  
G16 160808254.133      447715.556       -1019.000          39.000  
G21 161919037.494    -1765958.464        4043.000          40.000  
G26 162385602.603      569815.887       -1316.000          36.000  
G27 159101549.535      296305.053        -796.000          42.000  
G31 161754050.308      776382.129       -1818.000          43.000  
> 2024 12 16  7 23 32.4619999  0  9                     
G 4 160113201.363      124681.596        -419.000          43.000  
G 7 163800422.684     -693199.7411       3611.000          15.000  
G 8 159120574.938     -715369.804        1459.000          44.000  
G 9 161120620.618     -538170.619        1065.000          45.000  
G16 160808448.211      448735.589       -1020.000          40.000  
G21 161918268.163    -1770001.572        4043.000          40.000  
G26 162385853.381      571133.285       -1317.000          36.000  
G27 159101701.255      297102.454        -797.000          43.000  
G31 161754396.469      778201.260       -1819.000          43.000  
> 2024 12 16  7 23 33.4619999  0  9                     
G 4 160113281.710      125103.632        -422.000          42.000  
G 7 163799758.162     -696804.7571       3605.000          18.000  
G 8 159120297.709     -716826.311        1456.000          43.000  
G 9 161120418.465     -539233.028        1062.000          45.000  
G16 160808642.684      449757.725       -1022.000          40.000  
G21 161917499.233    -1774042.587        4041.000          40.000  
G26 162386104.551      572452.738       -1319.000          36.000  
G27 159101853.447      297902.409        -799.000          42.000  
G31 161754743.069      780022.742       -1821.000          42.000  
> 2024 12 16  7 23 34.4619999  0  9                     
G 4 160113362.733      125529.311        -425.000          42.000  
G 8 159120021.149     -718279.275        1452.000          43.000  
G 9 161120216.987     -540291.855        1058.000          45.000  
G16 160808837.733      450782.896       -1025.000          40.000  
G21 161916730.882    -1778080.520        4037.000          39.000  
G26 162386356.297      573775.189       -1322.000          36.000  
G27 159102006.313      298705.937        -803.000          43.000  
G28 164021862.727       14612.3211      -2526.000          15.000  
G31 161755090.310      781847.566       -1824.000          42.000  
> 2024 12 16  7 23 35.4619999  0  9                     
G 4 160113443.730      125954.914        -425.000          42.000  
G 7 163798464.900     -704033.6241       3612.000          19.000  
G 8 159119744.597     -719732.215        1452.000          44.000  
G 9 161120015.505     -541350.709        1058.000          45.000  
G16 160809032.658      451807.430       -1024.000          40.000  
G21 161915962.421    -1782119.014        4038.000          39.000  
G26 162386607.917      575096.979       -1321.000          36.000  
G27 159102159.156      299509.348        -803.000          43.000  
G31 161755437.484      783672.045       -1824.000          42.000  
> 2024 12 16  7 23 36.4619999  0  9                     
G 4 160113525.009      126382.047        -427.000          42.000  
G 7 163797780.346     -707641.2781       3607.000          21.000  
G 8 159119468.342     -721183.654        1451.000          44.000  
G 9 161119814.313     -542407.995        1057.000          45.000  
G16 160809227.778      452832.971       -1025.000          40.000  
G21 161915194.142    -1786156.536        4037.000          40.000  
G26 162386859.658      576419.726       -1322.000          36.000  
G27 159102312.299      300314.293        -804.000          43.000  
G31 161755784.908      785497.830       -1825.000          42.000  
> 2024 12 16  7 23 37.4619999  0  9                     
G 4 160113605.929      126807.340        -425.000          42.000  
G 7 163797083.777     -711251.1621       3609.000          19.000  
G 8 159119191.740     -722636.957        1453.000          44.000  
G 9 161119612.759     -543467.160        1059.000          45.000  
G16 160809422.448      453856.132       -1023.000          40.000  
G21 161914425.427    -1790196.399        4039.000          40.000  
G26 162387110.915      577740.041       -1320.000          35.000  
G27 159102465.074      301117.310        -803.000          43.000  
G31 161756131.923      787321.454       -1823.000          42.000  
> 2024 12 16  7 23 38.4619999  0 10                     
G 4 160113686.586      127231.311        -423.000          42.000  
G 7 163796438.001     -714865.2821       3614.000          21.000  
G 8 159118914.892     -724091.625        1454.000          44.000  
G 9 161119410.963     -544527.576        1060.000          45.000  
G16 160809616.761      454877.367       -1021.000          40.000  
G21 161913656.363    -1794238.119        4041.000          40.000  
G26 162387361.816      579058.422       -1318.000          35.000  
G27 159102617.596      301918.994        -801.000          43.000  
G28 164024108.841        7044.2911      -2527.000          18.000  
G31 161756478.634      789143.504       -1822.000          42.000  
> 2024 12 16  7 23 39.4619999  0 10                     
G 4 160113767.306      127655.657        -424.000          42.000  
G 7 163795713.668     -718489.6591       3624.000          15.000  
G 8 159118638.136     -725545.876        1454.000          44.000  
G 9 161119209.223     -545587.647        1060.000          44.000  
G16 160809811.043      455898.446       -1021.000          40.000  
G21 161912887.282    -1798279.963        4041.000          40.000  
G26 162387612.716      580376.613       -1318.000          35.000  
G27 159102770.184      302721.014        -802.000          43.000  
G28 164024582.117        9574.8901      -2530.000          19.000  
G31 161756825.359      790965.641       -1822.000          42.000  
> 2024 12 16  7 23 40.4619999  0 10                     
G 4 160113848.115      128080.492        -424.000          42.000  
G 7 163795053.588     -722109.7441       3620.000          20.000  
G 8 159118361.487     -726999.622        1453.000          44.000  
G 9 161119007.583     -546647.166        1059.000          44.000  
G16 160810005.318      456919.483       -1021.000          40.000  
G21 161912118.193    -1802321.840        4041.000          40.000  
G26 162387863.558      581694.693       -1318.000          35.000  
G27 159102922.865      303523.503        -802.000          43.000  
G28 164025044.447       12108.5581      -2533.000          20.000  
G31 161757172.139      792788.069       -1822.000          42.000  
> 2024 12 16  7 23 41.4619999  0  9                     
G 4 160113929.122      128506.387        -425.000          42.000  
G 7 163794383.918     -725725.1511       3615.000          21.000  
G 8 159118085.045     -728452.331        1452.000          44.000  
G 9 161118806.140     -547705.596        1058.000          44.000  
G16 160810199.697      457941.031       -1021.000          40.000  
G21 161911349.216    -1806363.159        4041.000          39.000  
G26 162388114.499      583013.257       -1318.000          36.000  
G27 159103075.744      304326.995        -803.000          43.000  
G31 161757519.064      794611.241       -1823.000          42.000  
> 2024 12 16  7 23 42.4619999  0  9                     
G 4 160114010.302      128933.173        -426.000          42.000  
G 7 163793693.356     -729336.9411       3611.000          20.000  
G 8 159117808.772     -729904.190        1451.000          44.000  
G 9 161118604.854     -548763.156        1057.000          44.000  
G16 160810394.141      458962.881       -1021.000          40.000  
G21 161910580.311    -1810404.136        4040.000          40.000  
G26 162388365.500      584332.130       -1318.000          35.000  
G27 159103228.798      305131.339        -804.000          43.000  
G31 161757866.092      796435.030       -1823.000          42.000  
> 2024 12 16  7 23 43.4619999  0  9                     
G 4 160114091.591      129360.567        -427.000          42.000  
G 7 163792972.601     -732950.9551       3613.000          21.000  
G 8 159117532.634     -731355.405        1451.000          44.000  
G 9 161118403.689     -549820.069        1056.000          44.000  
G16 160810588.601      459984.786       -1021.000          40.000  
G21 161909811.422    -1814445.025        4040.000          40.000  
G26 162388616.470      585650.956       -1318.000          35.000  
G27 159103381.976      305936.254        -804.000          43.000  
G31 161758213.182      798259.160       -1824.000          42.000  
> 2024 12 16  7 23 44.4619999  0  9                     
G 4 160114173.051      129788.835        -428.000          42.000  
G 7 163792320.391     -736567.5731       3616.000          22.000  
G 8 159117256.668     -732805.746        1450.000          44.000  
G 9 161118202.701     -550876.063        1055.000          44.000  
G16 160810783.130      461007.063       -1022.000          40.000  
G21 161909042.617    -1818485.522        4040.000          40.000  
G26 162388867.523      586970.159       -1319.000          35.000  
G27 159103535.329      306742.041        -805.000          43.000  
G31 161758560.399      800083.962       -1824.000          43.000  
> 2024 12 16  7 23 45.4619999  0  9                     
G 4 160114254.953      130219.369        -430.000          42.000  
G 7 163791587.185     -740180.8831       3613.000          19.000  
G 8 159116981.132     -734253.841        1448.000          44.000  
G 9 161118002.147     -551929.807        1053.000          44.000  
G16 160810977.971      462031.009       -1023.000          40.000  
G21 161908274.153    -1822524.298        4038.000          40.000  
G26 162389118.849      588290.980       -1320.000          35.000  
G27 159103689.104      307550.021        -807.000          43.000  
G31 161758907.999      801910.726       -1826.000          42.000  
> 2024 12 16  7 23 46.4619999  0  9                     
G 4 160114336.790      130649.497        -430.000          42.000  
G 7 163790911.076     -743792.0321       3611.000          21.000  
G 8 159116705.532     -735702.322        1448.000          44.000  
G 9 161117801.526     -552983.928        1054.000          45.000  
G16 160811172.641      463054.045       -1023.000          40.000  
G21 161907505.526    -1826563.971        4039.000          40.000  
G26 162389370.009      589610.843       -1319.000          35.000  
G27 159103842.801      308357.563        -807.000          43.000  
G31 161759255.476      803736.824       -1826.000          42.000  
> 2024 12 16  7 23 47.4619999  0  9                     
G 4 160114418.934      131081.167        -431.000          42.000  
G 7 163790243.121     -747402.8921       3610.000          24.000  
G 8 159116430.223     -737149.302        1446.000          44.000  
G 9 161117601.211     -554036.494        1052.000          45.000  
G16 160811367.487      464078.008       -1023.000          40.000  
G21 161906737.085    -1830602.666        4038.000          40.000  
G26 162389621.330      590931.627       -1320.000          35.000  
G27 159103996.786      309166.624        -809.000          43.000  
G31 161759603.210      805564.193       -1827.000          42.000  
> 2024 12 16  7 23 48.4619999  0  9                     
G 4 160114501.474      131514.866        -433.000          42.000  
G 7 163789566.873     -751014.0331       3611.000          24.000  
G 8 159116155.311     -738594.222        1444.000          44.000  
G 9 161117401.289     -555087.029        1050.000          44.000  
G16 160811562.623      465103.493       -1025.000          40.000  
G21 161905968.937    -1834639.821        4037.000          40.000  
G26 162389872.955      592253.885       -1322.000          35.000  
G27 159104151.141      309977.640        -811.000          43.000  
G31 161759951.283      807393.310       -1829.000          42.000  
> 2024 12 16  7 23 49.4619999  0  9                     
G 4 160114584.418      131950.686        -435.000          42.000  
G 7 163788888.613     -754623.0741       3609.000          22.000  
G 8 159115880.796     -740037.039        1442.000          44.000  
G 9 161117201.792     -556135.372        1048.000          44.000  
G16 160811758.064      466130.554       -1027.000          40.000  
G21 161905201.091    -1838675.354        4035.000          41.000  
G26 162390124.868      593577.724       -1323.000          34.000  
G27 159104305.898      310790.790        -813.000          43.000  
G31 161760299.712      809224.296       -1830.000          42.000  
> 2024 12 16  7 23 50.4619999  0  9                     
G 4 160114667.679      132388.153        -437.000          43.000  
G 7 163788202.920     -758231.1271       3608.000          23.000  
G 8 159115606.583     -741478.228        1441.000          44.000  
G 9 161117002.612     -557182.087        1046.000          45.000  
G16 160811953.707      467158.668       -1028.000          40.000  
G21 161904433.454    -1842709.802        4034.000          40.000  
G26 162390376.956      594902.501       -1324.000          34.000  
G27 159104460.953      311605.552        -814.000          43.000  
G31 161760648.402      811056.648       -1832.000          42.000  
> 2024 12 16  7 23 51.4619999  0  9                     
G 4 160114750.638      132823.999        -435.000          43.000  
G 7 163787514.073     -761841.0521       3609.000          21.000  
G 8 159115332.054     -742921.017        1442.000          44.000  
G 9 161116803.137     -558230.380        1048.000          45.000  
G16 160812148.935      468184.665       -1025.000          39.000  
G21 161903665.421    -1846746.328        4036.000          40.000  
G26 162390628.670      596225.152       -1322.000          34.000  
G27 159104615.676      312418.621        -813.000          43.000  
G31 161760996.745      812887.150       -1830.000          42.000  
> 2024 12 16  7 23 52.4619999  0  9                     
G 4 160114833.071      133257.003        -432.000          43.000  
G 7 163786860.431     -765453.9581       3612.000          22.000  
G 8 159115056.971     -744366.657        1445.000          44.000  
G 9 161116603.127     -559281.540        1051.000          45.000  
G16 160812343.497      469207.192       -1022.000          39.000  
G21 161902896.737    -1850786.266        4039.000          40.000  
G26 162390879.735      597544.343       -1319.000          35.000  
G27 159104769.850      313228.814        -810.000          43.000  
G31 161761344.492      814714.482       -1827.000          42.000  
