     2.11           OBSERVATION DATA    G                   RINEX VERSION / TYPE
cnvtToRINEX 3.08.0  convertToRINEX OPR  10-Mar-23 03:47 UTC PGM / RUN BY / DATE 
gfzrnx-1.13-7761    FILE PROCESSING     20230313 064722 UTC COMMENT             
GF04                                                        MARKER NAME         
GF04                                                        MARKER NUMBER       
GNSS Observer       Trimble                                 OBSERVER / AGENCY   
5949R91176          TRIMBLE R8s LT      5.52                REC # / TYPE / VERS 
                    TRMR8S          NONE                    ANT # / TYPE        
        1.7930        0.0000        0.0000                  ANTENNA: DELTA H/E/N
 -2956286.5606  5076152.6552  2476497.6482                  APPROX POSITION XYZ 
     5    C1    C2    L1    L2    P2                        # / TYPES OF OBSERV 
----------------------------------------------------------- COMMENT             
     1     1     0                                          WAVELENGTH FACT L1/2
     0                                                      RCV CLOCK OFFS APPL 
    18                                                      LEAP SECONDS        
CARRIER PHASE MEASUREMENTS: PHASE SHIFTS REMOVED            COMMENT             
     8                                                      # OF SATELLITES     
   G04  1815  1815  1815  1815  1815                        PRN / # OF OBS      
   G08  1815  1815  1815  1815  1815                        PRN / # OF OBS      
   G09   501   501   501   501   501                        PRN / # OF OBS      
   G16  1815        1815  1815  1815                        PRN / # OF OBS      
   G26  1815  1815  1815  1815  1815                        PRN / # OF OBS      
   G27  1815  1815  1815  1815  1815                        PRN / # OF OBS      
   G28     7           4                                    PRN / # OF OBS      
   G31   624   311   492   310    35                        PRN / # OF OBS      
     1.000                                                  INTERVAL            
  2023     3    10     2    56    4.0000000     GPS         TIME OF FIRST OBS   
  2023     3    10     3    27    3.0000000     GPS         TIME OF LAST OBS    
                                                            END OF HEADER      
 23 03 10 02 56 04.0000000  0  6G04G08G16G26G27G31                  
  21420337.547 6  21420347.316 9 112564631.019 6  87712740.354 9  21420347.16847
  21185442.992 6  21185457.648 9 111330253.049 6  86751036.788 9  21185457.01649
  21297212.688 6                 111917609.381 6  87208558.04647  21297220.97347
  22679274.094 6  22679288.895 9 119180383.383 6  92867673.703 9  22679288.91047
  19988863.633 7  19988874.016 9 105042186.114 7  81851093.861 9  19988873.76249
  23276504.555 2  23276528.402 8 122318899.536 2  95313242.749 8  23276527.72745
 23 03 10 02 56 05.0000000  0  6G04G08G16G26G27G31                  
  21420245.445 6  21420255.363 9 112564147.972 6  87712363.949 9  21420255.28947
  21185056.539 6  21185071.406 9 111328222.903 6  86749454.854 9  21185070.61349
  21297465.953 6                 111918939.485 6  87209594.48647  21297474.18047
  22679668.750 6  22679683.484 9 119182456.947 6  92869289.454 9  22679683.46147
  19988874.266 7  19988884.711 9 105042241.645 7  81851137.127 9  19988884.39849
  23276938.813 1  23276961.789 8 122321177.518 1  95315017.786 8  23276961.16845
 23 03 10 02 56 06.0000000  0  6G04G08G16G26G27G31                  
  21420153.531 6  21420163.520 9 112563665.735 6  87711988.175 9  21420163.48847
  21184670.648 6  21184685.191 9 111326193.480 6  86747873.488 9  21184684.64549
  21297718.797 6                 111920269.926 6  87210631.19447  21297727.18047
  22680063.445 6  22680078.035 8 119184530.647 6  92870905.317 8  22680077.91447
  19988885.133 7  19988895.465 9 105042298.017 7  81851181.057 9  19988895.09849
  23277372.273 1  23277395.172 8 122323455.914 1  95316793.156 8  23277394.71945
 23 03 10 02 56 07.0000000  0  6G04G08G16G26G27G31                  
  21420062.180 6  21420072.063 9 112563184.520 6  87711613.198 9  21420071.93447
  21184284.688 6  21184299.324 9 111324164.959 6  86746292.815 9  21184298.65249
  21297972.094 6                 111921600.886 6  87211668.29847  21297980.25847
  22680457.422 6  22680472.824 8 119186604.727 6  92872521.479 8  22680472.76647
  19988896.016 7  19988906.121 9 105042355.447 7  81851225.806 9  19988906.13749
  23277805.328 2  23277828.684 8 122325734.957 2  95318569.014 8  23277828.41845
 23 03 10 02 56 53.0000000  0  6G04G08G16G26G27G31                  
  21416022.695 6  21416032.301 9 112541955.680 6  87695071.105 9  21416032.28147
  21166676.414 6  21166690.961 9 111231634.520 6  86674191.253 9  21166689.93049
  21309693.750 6                 111983196.816 6  87259664.94247  21309701.80547
  22698652.023 5  22698667.102 8 119282214.865 5  92947022.477 8  22698667.04747
  19989580.484 7  19989591.148 9 105045953.896 7  81854029.718 9  19989591.02349
  23297853.313 1  23297877.824 8 122431089.04311  95400662.83418  23297877.80145
 23 03 10 02 56 54.0000000  0  6G04G08G16G26G27G31                  
  21415938.656 6  21415948.363 9 112541513.984 6  87694726.917 9  21415948.21947
  21166296.656 6  21166311.484 9 111229640.064 6  86672637.135 9  21166310.59849
  21309950.297 6                 111984543.998 6  87260714.69647  21309958.26647
  22699048.320 5  22699063.422 8 119284297.805 5  92948645.518 8  22699063.44147
  19989599.539 7  19989610.098 9 105046052.965 7  81854106.920 9  19989609.89849
  23298291.984 1  23298315.801 8 122433390.586 1  95402456.244 8  23298315.94545
 23 03 10 02 56 55.0000000  0  6G04G08G16G26G27G31                  
  21415854.500 6  21415864.406 9 112541072.854 6  87694383.175 9  21415864.32847
  21165917.313 6  21165931.930 9 111227646.093 6  86671083.388 9  21165930.88349
  21310206.563 6                 111985891.275 6  87261764.51247  21310214.64147
  22699445.125 5  22699460.137 8 119286380.678 5  92950268.533 8  22699459.89547
  19989618.438 7  19989629.230 9 105046152.654 7  81854184.600 9  19989628.85949
  23298729.250 2  23298753.594 8 122435692.405 2  95404249.879 8  23298754.05545
 23 03 10 02 56 56.0000000  0  6G04G08G16G26G27G31                  
  21415770.945 6  21415780.484 9 112540632.626 6  87694040.146 9  21415780.53147
  21165538.031 6  21165552.633 9 111225652.880 6  86669530.237 9  21165551.55949
  21310462.695 6                 111987238.934 6  87262814.63947  21310471.14547
  22699841.195 5  22699856.520 8 119288463.801 5  92951891.742 8  22699856.40247
  19989637.594 7  19989648.234 9 105046253.282 7  81854263.011 9  19989648.05549
  23299167.820 2  23299191.754 8 122437994.723 2  95406043.897 8  23299192.41045
 23 03 10 02 56 57.0000000  0  6G04G08G16G26G27G31                  
  21415687.117 6  21415696.828 9 112540193.163 6  87693697.699 9  21415697.07047
  21165159.086 6  21165173.383 9 111223660.317 6  86667977.586 9  21165172.48049
  21310719.250 6                 111988586.869 6  87263864.96948  21310727.78148
  22700237.750 5  22700253.273 8 119290547.056 5  92953515.046 8  22700252.78547
  19989656.422 7  19989667.613 9 105046354.736 7  81854342.068 9  19989667.38349
  23299606.594 2  23299630.168 8 122440297.499 2  95407838.255 8  23299630.69945
 23 03 10 02 56 58.0000000  0  6G04G08G16G26G27G31                  
  21415603.961 6  21415613.250 9 112539754.499 6  87693355.864 9  21415613.31647
  21164779.945 6  21164794.289 9 111221668.409 6  86666425.449 9  21164793.50049
  21310975.578 6                 111989935.087 6  87264915.52148  21310984.27348
  22700633.977 5  22700649.680 8 119292630.396 5  92955138.417 8  22700649.30947
  19989676.008 7  19989686.809 9 105046457.004 7  81854421.752 9  19989686.88749
  23300044.859 2  23300068.574 8 122442600.628 2  95409632.896 8  23300068.74645
 23 03 10 02 56 59.0000000  0  6G04G08G16G26G27G31                  
  21415520.383 6  21415529.859 9 112539316.626 6  87693014.676 9  21415529.91447
  21164400.922 6  21164415.559 9 111219677.171 6  86664873.833 9  21164414.66849
  21311232.648 6                 111991283.608 6  87265966.31748  21311240.77348
  22701030.484 5  22701046.098 8 119294713.934 5  92956761.944 8  22701045.89847
  19989695.688 7  19989706.395 9 105046560.128 7  81854502.107 9  19989706.47749
  23300484.484 2  23300506.977 8 122444904.318 2  95411427.977 8  23300506.96545
 23 03 10 02 57 00.0000000  0  6G04G08G16G26G27G31                  
  21415437.508 6  21415446.797 9 112538879.622 6  87692674.151 9  21415446.79347
  21164022.000 6  21164036.516 9 111217686.723 6  86663322.829 9  21164035.74249
  21311489.461 6                 111992632.512 6  87267017.40647  21311497.48047
  22701426.625 5  22701442.402 8 119296797.636 5  92958385.591 8  22701442.40647
  19989715.602 7  19989726.457 9 105046664.152 7  81854583.161 9  19989726.56649
  23300923.125 2  23300945.582 8 122447208.468 2  95413223.396 8  23300945.32045
 23 03 10 02 57 01.0000000  0  6G04G08G16G26G27G31                  
  21415354.211 6  21415363.961 9 112538443.542 6  87692334.342 9  21415363.75847
  21163643.766 6  21163658.137 9 111215697.109 6  86661772.473 9  21163657.14149
  21311746.258 6                 111993981.816 6  87268068.80148  21311754.35548
  22701823.156 5  22701839.313 8 119298881.653 5  92960009.515 8  22701838.93447
  19989735.445 7  19989746.516 9 105046769.154 7  81854664.983 9  19989746.33649
  23301361.305 2  23301383.980 8 122449513.108 2  95415019.218 8  23301384.05145
 23 03 10 02 57 02.0000000  0  6G04G08G16G26G27G31                  
  21415271.563 6  21415280.941 9 112538008.189 6  87691995.108 9  21415280.95347
  21163265.008 6  21163279.438 9 111213708.078 6  86660222.594 9  21163278.84449
  21312003.070 6                 111995331.383 6  87269120.41148  21312011.07448
  22702220.320 5  22702235.676 9 119300965.723 5  92961633.457 9  22702235.42647
  19989755.680 7  19989766.457 9 105046874.931 7  81854747.401 9  19989766.58249
  23301800.625 2  23301822.707 8 122451818.211 2  95416815.410 8  23301822.62145
 23 03 10 02 57 03.0000000  0  6G04G08G16G26G27G31                  
  21415188.758 6  21415198.234 9 112537573.599 6  87691656.468 9  21415198.25048
  21162886.867 6  21162900.961 9 111211719.693 6  86658673.205 9  21162900.33249
  21312259.813 6                 111996681.195 6  87270172.21548  21312267.93048
  22702616.914 5  22702632.355 9 119303049.904 5  92963257.488 9  22702632.00847
  19989776.188 7  19989786.816 9 105046981.487 7  81854830.431 9  19989786.88349
  23302240.891 2                                                                
 23 03 10 02 57 04.0000000  0  6G04G08G16G26G27G31                  
  21415106.523 6  21415115.844 9 112537139.711 6  87691318.372 9  21415115.69947
  21162508.164 6  21162522.715 9 111209731.935 6  86657124.302 9  21162521.77349
  21312516.242 6                 111998031.216 6  87271224.16947  21312525.00847
  22703013.844 5  22703029.258 9 119305134.135 5  92964881.550 9  22703028.92647
  19989796.445 7  19989807.477 9 105047088.813 7  81854914.064 9  19989807.27049
  23302679.461 2                                                                
 23 03 10 02 57 05.0000000  0  6G04G08G16G26G27G31                  
  21415024.195 6  21415033.695 9 112536706.634 6  87690980.910 9  21415033.21947
  21162130.180 6  21162144.625 9 111207744.848 6  86655575.927 9  21162143.89549
  21312773.523 6                 111999381.526 6  87272276.35347  21312782.05547
  22703410.164 5  22703425.895 9 119307218.518 5  92966505.732 9  22703425.70347
  19989816.813 7  19989827.766 9 105047196.980 7  81854998.345 9  19989827.75049
  23303116.477 1                                                                
 23 03 10 02 57 06.0000000  0  6G04G08G16G26G27G31                  
  21414941.445 6  21414951.430 9 112536274.476 6  87690644.157 9  21414951.07447
  21161752.438 6  21161766.676 9 111205758.586 6  86654028.193 9  21161765.94149
  21313030.328 6                 112000732.263 6  87273328.87147  21313039.05147
  22703806.836 5  22703822.578 8 119309303.153 5  92968130.104 8  22703822.38747
  19989837.664 7  19989848.406 9 105047306.125 7  81855083.393 9  19989848.83249
  23303555.109 1                                                                
 23 03 10 02 57 07.0000000  0  6G04G08G16G26G27G31                  
  21414859.336 6  21414869.297 9 112535843.000 6  87690307.938 9  21414869.01247
  21161374.375 6  21161388.902 9 111203772.855 6  86652480.869 9  21161387.90249
  21313287.656 6                 112002083.191 6  87274381.54747  21313296.13347
  22704203.320 5  22704219.133 8 119311387.854 5  92969754.550 8  22704219.07047
  19989858.492 7  19989869.410 9 105047415.991 7  81855169.000 9  19989869.59449
  23303993.516 1  23304017.844 8 122463349.61011  95425800.88718  23304016.91045
 23 03 10 02 57 08.0000000  0  6G04G08G16G26G27G31                  
  21414777.219 6  21414787.500 9 112535412.397 6  87689972.405 9  21414787.08247
  21160997.023 6  21161011.352 9 111201787.883 6  86650934.147 9  21161010.03949
  21313544.516 6                 112003434.507 6  87275434.51347  21313553.37947
  22704600.141 5  22704615.699 8 119313472.746 5  92971379.118 8  22704615.91047
  19989879.445 7  19989890.703 9 105047526.761 7  81855255.316 9  19989890.57049
  23304433.164 1  23304457.324 8 122465657.249 1  95427599.066 8  23304456.14145
 23 03 10 02 57 09.0000000  0  6G04G08G16G26G27G31                  
  21414695.422 6  21414705.598 9 112534982.586 6  87689637.477 9  21414705.13747
  21160619.453 6  21160633.727 9 111199803.561 6  86649387.920 9  21160632.70349
  21313801.672 6                 112004786.079 6  87276487.69547  21313810.55147
  22704997.391 5  22705012.559 8 119315557.789 5  92973003.835 8  22705012.73047
  19989900.805 7  19989911.758 9 105047638.377 7  81855342.279 9  19989911.83649
  23304872.539 1  23304896.398 8 122467965.272 1  95429397.530 8  23304895.25445
 23 03 10 02 57 10.0000000  0  6G04G08G16G26G27G31                  
  21414614.195 6  21414624.074 9 112534553.495 6  87689303.120 9  21414623.52047
  21160241.758 6  21160256.184 9 111197819.877 6  86647842.190 9  21160255.00049
  21314058.992 6                 112006137.932 6  87277541.07847  21314067.64547
  22705394.055 5  22705409.426 8 119317642.892 5  92974628.589 8  22705409.50847
  19989922.344 7  19989933.199 9 105047750.746 7  81855429.845 9  19989933.30949
  23305309.977 1                                                                
 23 03 10 02 57 11.0000000  0  6G04G08G16G26G27G31                  
  21414533.148 6  21414542.367 9 112534125.225 6  87688969.399 9  21414542.06647
  21159864.477 6  21159878.992 9 111195836.902 6  86646297.012 9  21159877.75849
  21314316.508 5                 112007490.047 5  87278594.67947  21314324.95747
  22705791.320 5  22705806.293 9 119319728.168 5  92976253.472 9  22705806.19947
  19989943.859 7  19989954.758 9 105047863.996 7  81855518.090 9  19989954.87149
  23305748.156 1  23305774.664 8 122472582.64611  95432995.45218  23305773.95345
 23 03 10 02 57 12.0000000  0  6G04G08G16G26G27G31                  
  21414451.391 6  21414461.012 9 112533697.824 6  87688636.354 9  21414460.75447
  21159487.680 6  21159501.598 9 111193854.701 6  86644752.438 9  21159500.56649
  21314573.359 5                 112008842.569 5  87279648.58247  21314582.35947
  22706187.797 5  22706203.262 9 119321813.658 5  92977878.509 9  22706202.99647
  19989965.273 7  19989976.602 9 105047978.147 7  81855607.036 9  19989976.46949
  23306186.188 1  23306214.035 8 122474891.981 1  95434794.911 8  23306213.43445
 23 03 10 02 57 13.0000000  0  6G04G08G16G26G27G31                  
  21414370.047 6  21414379.898 9 112533271.455 6  87688304.116 9  21414379.48447
  21159110.141 6  21159124.629 9 111191873.434 6  86643208.600 9  21159123.54749
  21314831.344 6                 112010195.629 6  87280702.91248  21314839.92248
  22706584.617 5  22706599.871 8 119323899.536 5  92979503.869 8  22706600.06347
  19989987.289 7  19989998.449 9 105048093.378 7  81855696.822 9  19989998.39149
  23306626.133 1  23306653.301 8 122477202.076 1  95436594.996 8  23306653.10545
 23 03 10 02 57 14.0000000  0  6G04G08G16G26G27G31                  
  21414289.234 6  21414299.039 9 112532845.813 6  87687972.449 9  21414298.69147
  21158733.539 6  21158747.543 9 111189892.738 6  86641665.217 9  21158746.72749
  21315089.031 6                 112011548.911 6  87281757.41247  21315097.39847
  22706981.000 5  22706996.965 8 119325985.464 5  92981129.246 8  22706996.83647
  19990009.297 7  19990020.645 9 105048209.391 7  81855787.222 9  19990020.46549
  23307064.719 1                                                                
 23 03 10 02 57 15.0000000  0  6G04G08G16G26G27G31                  
  21414208.305 6  21414217.891 9 112532421.047 6  87687641.464 9  21414217.98447
  21158356.297 6  21158370.836 9 111187912.805 6  86640122.409 9  21158369.87149
  21315346.078 6                 112012902.569 6  87282812.21348  21315355.16048
  22707378.602 5  22707393.887 8 119328071.645 5  92982754.833 8  22707393.79347
  19990031.523 7  19990042.949 9 105048326.282 7  81855878.311 9  19990042.61349
  23307504.398 1                                                                
 23 03 10 02 57 16.0000000  0  6G04G08G16G26G27G31                  
  21414127.734 6  21414137.191 9 112531996.880 6  87687310.944 9  21414137.20747
  21157979.750 6  21157994.230 9 111185933.360 6  86638579.979 9  21157993.11749
  21315603.914 6                 112014256.323 6  87283867.07847  21315612.66447
  22707775.500 5  22707790.750 9 119330157.730 5  92984380.354 9  22707790.81347
  19990054.063 7  19990065.277 9 105048443.860 7  81855969.924 9  19990064.93449
  23307944.773 1  23307972.031 8 122484134.66811  95441996.95918  23307972.41845
 23 03 10 02 57 17.0000000  0  6G04G08G16G26G27G31                  
  21414047.086 6  21414056.582 9 112531573.588 6  87686981.104 9  21414056.62547
  21157603.227 6  21157617.609 9 111183954.662 6  86637038.140 9  21157616.67649
  21315861.938 6                 112015610.426 6  87284922.21448  21315870.26248
  22708172.180 5  22708187.930 9 119332244.035 5  92986006.024 9  22708187.72347
  19990076.539 7  19990087.727 9 105048562.325 7  81856062.237 9  19990087.50449
  23308384.906 1  23308411.664 8 122486446.271 1  95443798.219 8  23308412.42245
 23 03 10 02 57 18.0000000  0  6G04G08G16G26G27G31                  
  21413966.656 6  21413976.445 9 112531151.224 6  87686651.986 9  21413976.25847
  21157227.000 6  21157241.141 9 111181976.784 6  86635496.939 9  21157240.06649
  21316119.219 6                 112016964.990 6  87285977.71947  21316128.03547
  22708569.430 5  22708585.051 8 119334330.641 5  92987631.934 8  22708584.78147
  19990099.414 7  19990110.453 9 105048681.772 7  81856155.316 9  19990110.25849
  23308824.586 1                                                                
 23 03 10 02 57 19.0000000  0  6G04G08G16G26G27G31                  
  21413886.242 6  21413896.262 9 112530729.740 6  87686323.554 9  21413895.98447
  21156850.664 6  21156864.926 9 111179999.688 6  86633956.344 9  21156863.92249
  21316376.953 5                 112018319.929 5  87287033.49547  21316386.04747
  22708966.641 5  22708982.391 8 119336417.497 5  92989258.059 8  22708981.83247
  19990122.039 7  19990133.352 9 105048802.138 7  81856249.104 9  19990133.14149
  23309266.102 1  23309291.629 7 122491071.34411  95447402.16517  23309292.44545
 23 03 10 02 57 20.0000000  0  6G04G08G16G26G27G31                  
  21413806.211 6  21413816.113 9 112530309.025 6  87685995.726 9  21413815.91047
  21156474.664 6  21156488.957 9 111178023.253 6  86632416.269 9  21156487.83249
  21316635.000 6                 112019675.156 6  87288089.51647  21316643.93847
  22709363.609 5  22709379.254 8 119338504.435 5  92990884.240 8  22709379.13747
  19990145.188 7  19990156.418 9 105048923.338 7  81856343.543 9  19990156.23049
  23309707.695 1  23309731.688 7 122493384.555 1  95449204.664 7  23309732.68845
 23 03 10 02 57 21.0000000  0  6G04G08G16G26G27G31                  
  21413726.188 6  21413736.504 9 112529889.225 6  87685668.604 9  21413735.96547
  21156098.555 6  21156112.949 9 111176047.594 6  86630876.797 9  21156111.99649
  21316892.992 5                 112021030.757 5  87289145.81947  21316901.83247
  22709760.656 5  22709776.566 8 119340591.634 5  92992510.608 8  22709776.41047
  19990168.891 7  19990179.535 9 105049045.476 7  81856438.716 9  19990179.39549
  23310148.609 1  23310172.078 7 122495698.272 1  95451007.538 7  23310172.84045
 23 03 10 02 57 22.0000000  0  6G04G08G16G26G27G31                  
  21413646.703 6  21413656.855 9 112529470.103 6  87685342.013 9  21413656.41447
  21155722.227 6  21155737.148 9 111174072.503 6  86629337.766 9  21155736.18449
  21317151.633 6                 112022386.573 6  87290202.30147  21317159.72747
  22710158.195 5  22710174.066 8 119342678.875 5  92994137.029 8  22710173.53147
  19990191.641 7  19990202.949 9 105049168.342 7  81856534.455 9  19990202.79349
  23310589.930 1  23310611.973 7 122498012.311 1  95452810.670 7  23310613.09445
 23 03 10 02 57 23.0000000  0  6G04G08G16G26G27G31                  
  21413567.156 6  21413577.152 9 112529051.928 6  87685016.151 9  21413576.82448
  21155346.820 6  21155361.496 9 111172098.245 6  86627799.383 9  21155360.45749
  21317409.008 6                 112023742.809 6  87291259.09847  21317417.89847
  22710555.023 5  22710571.145 8 119344766.404 5  92995763.658 8  22710570.65247
  19990215.242 7  19990226.625 9 105049292.179 7  81856630.948 9  19990226.42249
  23311030.445 1  23311052.141 7 122500326.890 1  95454614.244 7  23311053.45745
 23 03 10 02 57 24.0000000  0  6G04G08G16G26G27G31                  
  21413487.578 6  21413497.559 9 112528634.595 6  87684690.952 9  21413497.60547
  21154971.625 6  21154985.891 9 111170124.725 6  86626261.580 9  21154985.05149
  21317667.313 6                 112025099.386 6  87292316.17747  21317676.10547
  22710952.516 5  22710968.352 8 119346854.130 5  92997390.446 8  22710967.85547
  19990239.219 7  19990250.383 9 105049416.909 7  81856728.141 9  19990250.09449
  23311472.500 1  23311492.402 7 122502642.022 1  95456418.241 7  23311493.87545
 23 03 10 02 57 25.0000000  0  6G04G08G16G26G27G31                  
  21413408.313 6  21413418.586 9 112528217.808 6  87684366.180 9  21413418.18847
  21154595.945 6  21154610.410 9 111168151.637 6  86624724.114 9  21154609.31649
  21317925.188 6                 112026456.022 6  87293373.28748  21317934.16848
  22711349.672 5  22711365.520 9 119348941.735 5  92999017.147 9  22711365.00847
  19990263.320 7  19990274.230 9 105049542.241 7  81856825.794 9  19990274.03549
  23311913.352 1  23311932.531 7 122504957.264 1  95458222.354 7  23311934.48845
 23 03 10 02 57 26.0000000  0  6G04G08G16G26G27G31                  
  21413329.438 6  21413339.281 9 112527801.873 6  87684042.075 9  21413338.91847
  21154220.617 6  21154235.262 9 111166179.316 6  86623187.235 9  21154234.15249
  21318183.633 5                 112027813.018 5  87294430.69347  21318192.60247
  22711747.164 5  22711762.863 9 119351029.551 5  93000644.000 9  22711762.49247
  19990286.984 7  19990298.242 9 105049668.484 7  81856924.172 9  19990297.97749
  23312355.445 1  23312373.195 7 122507273.110 1  95460026.912 7  23312375.12145
 23 03 10 02 57 27.0000000  0  6G04G08G16G26G27G31                  
  21413249.820 6  21413260.164 9 112527386.718 6  87683718.577 9  21413259.86348
  21153845.453 6  21153859.746 9 111164207.630 6  86621650.856 9  21153858.98449
  21318441.656 6                 112029170.294 6  87295488.29448  21318450.89848
  22712144.625 5  22712160.512 9 119353117.499 5  93002270.960 9  22712159.81647
  19990311.453 7  19990322.285 9 105049795.518 7  81857023.160 9  19990322.00449
  23312794.617 1  23312813.547 7 122509589.335 1  95461831.755 7  23312815.81645
 23 03 10 02 57 28.0000000  0  6G04G08G16G26G27G31                  
  21413171.078 6  21413181.293 9 112526972.410 6  87683395.733 9  21413181.00847
  21153470.445 6  21153484.703 9 111162236.657 6  86620115.036 9  21153483.83249
  21318700.477 6                 112030527.901 6  87296546.17948  21318709.17648
  22712541.922 5  22712557.668 9 119355205.612 5  93003898.054 9  22712557.19947
  19990335.969 7  19990346.723 9 105049923.466 7  81857122.849 9  19990346.44549
  23313234.078 1  23313254.852 7 122511906.071 1  95463636.957 7  23313256.51644
 23 03 10 02 57 29.0000000  0  6G04G08G16G26G27G31                  
  21413092.461 6  21413102.953 9 112526558.757 6  87683073.409 9  21413102.43047
  21153095.742 6  21153110.039 9 111160266.236 6  86618579.641 9  21153108.94549
  21318958.859 6                 112031885.676 6  87297604.18047  21318967.50447
  22712939.383 5  22712955.059 8 119357293.729 5  93005525.159 8  22712954.52747
  19990360.523 7  19990370.996 9 105050052.093 7  81857223.083 9  19990370.82849
  23313674.992 1  23313695.367 7 122514222.933 1  95465442.284 7  23313697.15645
 23 03 10 02 57 30.0000000  0  6G04G08G16G26G27G31                  
  21413014.313 6  21413024.559 9 112526146.229 6  87682751.958 9  21413024.11347
  21152720.992 6  21152735.211 9 111158296.822 6  86617045.035 9  21152734.19549
  21319217.438 6                 112033244.114 6  87298662.68947  21319225.96547
  22713337.063 5  22713352.574 8 119359382.377 5  93007152.663 8  22713351.89847
  19990385.320 7  19990395.902 9 105050181.898 7  81857324.225 9  19990395.68449
  23314114.742 1                                                                
 23 03 10 02 57 31.0000000  0  6G04G08G16G26G27G31                  
  21412936.008 6  21412946.160 9 112525734.490 6  87682431.118 9  21412945.78947
  21152346.398 6  21152360.383 9 111156328.077 6  86615510.942 9  21152359.42649
  21319475.852 6                 112034602.791 6  87299721.39847  21319484.57047
  22713734.141 5  22713749.754 8 119361471.083 5  93008780.216 8  22713749.43447
  19990410.133 7  19990420.801 9 105050312.515 7  81857426.007 9  19990420.41449
  23314554.375 1  23314577.340 7 122518858.96611  95469054.76117  23314579.01644
 23 03 10 02 57 32.0000000  0  6G04G08G16G26G27G31                  
  21412857.594 6  21412868.031 9 112525323.579 6  87682110.918 9  21412867.48447
  21151972.047 6  21151985.840 9 111154360.070 6  86613977.432 9  21151985.16449
  21319734.922 5                 112035961.791 5  87300780.35547  21319743.33247
  22714131.844 5  22714147.449 8 119363559.988 5  93010407.918 8  22714146.85247
  19990435.070 7  19990445.734 9 105050444.019 7  81857528.476 9  19990445.49649
  23314994.898 1                                                                
 23 03 10 02 57 33.0000000  0  6G04G08G16G26G27G31                  
  21412779.617 5  21412790.141 9 112524913.497 5  87681791.376 9  21412789.45347
  21151597.633 6  21151611.719 9 111152392.765 6  86612444.465 9  21151610.78549
  21319993.141 5                 112037321.153 5  87301839.58947  21320002.02047
  22714529.563 5  22714544.789 8 119365649.069 5  93012035.769 8  22714544.50047
  19990460.211 6  19990471.008 9 105050576.407 6  81857631.628 9  19990470.64849
  23315435.633 1                                                                
 23 03 10 02 57 34.0000000  0  6G04G08G16G26G27G31                  
  21412701.336 6  21412712.176 9 112524504.195 6  87681472.437 9  21412711.67247
  21151223.398 6  21151237.270 9 111150426.122 6  86610912.013 9  21151236.59449
  21320251.695 6                 112038680.764 6  87302899.02947  21320260.58247
  22714926.922 5  22714942.684 8 119367738.285 5  93013663.719 8  22714942.21147
  19990485.375 6  19990496.273 9 105050709.593 6  81857735.407 9  19990496.01649
  23315875.898 1                                                                
 23 03 10 02 57 35.0000000  0  6G04G08G16G26G27G31                  
  21412623.500 5  21412634.148 9 112524095.571 5  87681154.024 9  21412633.85947
  21150849.539 6  21150863.270 9 111148460.059 6  86609380.015 9  21150862.62149
  21320510.758 5                 112040040.566 5  87303958.61047  21320519.32047
  22715324.773 5  22715340.461 8 119369827.516 5  93015291.680 8  22715339.73047
  19990510.867 6  19990521.750 9 105050843.520 6  81857839.768 9  19990521.53549
  23316316.344 1                                                                
 23 03 10 02 57 36.0000000  0  6G04G08G16G26G27G31                  
  21412546.117 5  21412556.809 9 112523687.820 5  87680836.292 9  21412556.32447
  21150475.195 6  21150489.254 9 111146494.744 6  86607848.607 9  21150488.57849
  21320769.352 5                 112041400.727 5  87305018.46147  21320778.09447
  22715721.891 4  22715738.121 8 119371916.935 4  93016919.794 8  22715737.27346
  19990536.547 6  19990547.379 9 105050978.336 6  81857944.813 9  19990547.20349
  23316758.109 1                                                                
 23 03 10 02 57 37.0000000  0  6G04G08G16G26G27G31                  
  21412469.133 5  21412479.230 9 112523280.823 5  87680519.148 9  21412478.93447
  21150101.391 6  21150115.316 9 111144530.066 6  86606317.687 9  21150114.60549
  21321028.016 5                 112042761.150 5  87306078.53047  21321036.93847
  22716119.180 4  22716135.410 9 119374006.505 4  93018548.020 9  22716134.82847
  19990562.063 6  19990573.438 9 105051113.966 6  81858050.499 9  19990573.06349
  23317200.008 1  23317225.094 7 122532777.03411  95479899.97917  23317226.71945
 23 03 10 02 57 38.0000000  0  6G04G08G16G26G27G31                  
  21412391.781 3  21412401.852 9 112522874.463 3  87680202.495 9  21412401.55147
  21149727.961 5  21149741.699 9 111142565.911 5  86604787.179 9  21149741.12148
  21321288.172 3                 112044121.712 3  87307138.70047  21321295.80147
  22716517.414 2  22716533.156 9 119376096.019 2  93020176.206 9  22716532.46146
  19990588.664 5  19990599.355 9 105051250.261 5  81858156.707 9  19990598.99249
  23317643.148 1  23317666.629 7 122535098.045 1  95481708.554 7                
 23 03 10 02 57 39.0000000  0  6G04G08G16G26G27G31                  
  21412314.242 5  21412324.703 9 112522468.924 5  87679886.483 9  21412324.50447
  21149353.773 5  21149367.988 9 111140602.509 5  86603257.253 9  21149367.35549
  21321546.078 5                 112045482.624 5  87308199.14647  21321554.90647
  22716914.844 4  22716930.664 9 119378185.761 4  93021804.566 9  22716930.11346
  19990614.781 6  19990625.477 9 105051387.471 6  81858263.616 9  19990625.23049
  23318084.227 1  23318108.418 7 122537419.547 1  95483517.538 7                
 23 03 10 02 57 40.0000000  0  6G04G08G16G26G27G31                  
  21412237.031 4  21412247.605 9 112522064.272 4  87679571.165 9  21412247.44547
  21148980.328 5  21148994.895 9 111138639.822 5  86601727.885 9  21148993.98048
  21321805.484 4                 112046843.876 4  87309259.86947  21321813.93447
  22717312.500 3  22717328.492 9 119380275.674 3  93023433.061 9  22717327.82446
  19990640.586 5  19990651.688 9 105051525.559 5  81858371.217 9  19990651.50049
  23318526.313 1                                                                
 23 03 10 02 57 41.0000000  0  6G04G08G16G26G27G31                  
  21412160.328 5  21412170.629 9 112521660.365 5  87679256.427 9  21412170.68447
  21148607.008 6  21148621.250 9 111136677.731 6  86600198.985 9  21148620.51249
  21322064.852 5                 112048205.361 5  87310320.76347  21322073.01647
  22717710.391 4  22717726.156 8 119382365.670 4  93025061.621 8  22717725.46146
  19990667.352 6  19990678.043 9 105051664.409 6  81858479.415 9  19990678.00849
  23318969.320 1                                                                
 23 03 10 02 57 42.0000000  0  6G04G08G16G26G27G31                  
  21412083.719 6  21412094.016 9 112521257.255 6  87678942.315 9  21412094.00447
  21148234.102 6  21148247.895 9 111134716.386 6  86598670.661 9  21148247.30949
  21322323.641 5                 112049567.198 5  87311381.92547  21322332.13747
  22718108.586 5  22718123.641 8 119384455.871 5  93026690.345 8  22718123.09847
  19990694.172 6  19990704.504 9 105051804.166 6  81858588.312 9  19990704.37949
  23319413.914 1                                                                
 23 03 10 02 57 43.0000000  0  6G04G08G16G26G27G31                  
  21412007.328 4  21412017.656 9 112520854.845 4  87678628.746 9  21412017.55947
  21147860.586 5  21147874.805 9 111132755.613 5  86597142.790 9  21147874.26648
  21322583.336 4                 112050929.229 4  87312443.25147  21322591.47347
  22718505.813 3  22718521.594 8 119386546.077 3  93028319.069 8  22718521.03146
  19990721.125 5  19990731.383 9 105051944.633 5  81858697.769 9  19990731.12949
  23319858.602 1  23319875.977 7 122546709.78411  95490756.68117                
 23 03 10 02 57 44.0000000  0  6G04G08G16G26G27G31                  
  21411930.586 4  21411941.391 9 112520453.435 4  87678315.953 9  21411941.15247
  21147487.672 5  21147501.730 9 111130795.735 5  86595615.612 9  21147501.30548
  21322841.938 4                 112052291.729 4  87313504.92747  21322850.73047
  22718903.836 3  22718919.863 8 119388636.637 3  93029948.075 8  22718918.98446
  19990747.742 5  19990758.258 9 105052086.133 5  81858808.029 9  19990758.09849
  23320301.773 1  23320318.457 7 122549033.604 1  95492567.457 7                
 23 03 10 02 57 45.0000000  0  6G04G08G16G26G27G31                  
  21411855.766 2  21411864.820 9 112520052.752 2  87678003.732 9  21411865.07447
  21147115.688 3  21147129.047 9 111128836.468 3  86594088.904 9  21147128.44948
  21323101.984 2                 112053654.488 2  87314566.81747  21323109.99247
  22719301.336 1  22719317.547 8 119390727.248 1  93031577.111 8  22719316.98046
  19990775.188 4  19990785.375 9 105052228.419 4  81858918.896 9  19990785.18049
  23320744.695 1  23320760.660 7 122551357.701 1  95494378.440 7                
 23 03 10 02 57 46.0000000  0  6G04G08G16G26G27G31                  
  21411779.188 5  21411788.816 9 112519652.825 5  87677692.104 9  21411789.01647
  21146742.000 5  21146756.344 9 111126877.849 5  86592562.710 9  21146755.75049
  21323360.875 5                 112055017.489 5  87315628.88947  21323369.50847
  22719698.953 3  22719715.477 8 119392817.983 3  93033206.241 8  22719714.77046
  19990802.281 5  19990812.574 9 105052371.491 5  81859030.378 9  19990812.35549
  23321188.234 1  23321203.000 7 122553682.282 1  95496189.803 7                
 23 03 10 02 57 47.0000000  0  6G04G08G16G26G27G31                  
  21411703.203 4  21411712.969 9 112519253.701 4  87677381.097 9  21411713.06347
  21146370.023 5  21146383.988 9 111124919.916 5  86591037.053 9  21146383.13748
  21323620.156 4                 112056380.750 4  87316691.16947  21323628.93047
  22720096.773 3  22720113.547 8 119394908.875 3  93034835.503 8  22720112.77046
  19990829.563 5  19990839.945 9 105052515.415 5  81859142.524 9  19990839.71149
  23321630.445 1  23321645.578 7 122556007.24511  95498001.45217                
 23 03 10 02 57 48.0000000  0  6G04G08G16G26G27G31                  
  21411626.820 2  21411637.199 9 112518855.427 2  87677070.740 9  21411637.24647
  21145997.250 2  21146011.434 9 111122962.719 2  86589511.968 9  21146010.68448
  21323880.289 2                 112057744.396 2  87317753.73846  21323888.30146
  22720495.133 1  22720511.297 8 119396999.921 1  93036464.886 8  22720510.73846
  19990857.164 4  19990867.594 9 105052660.216 4  81859255.355 9  19990867.38749
  23322072.664 1  23322088.266 7 122558332.73911  95499813.51517                
 23 03 10 02 57 49.0000000  0  6G04G08G16G26G27G31                  
  21411551.563 1  21411561.629 9 112518458.066 1  87676761.112 9  21411561.71547
  21145625.203 2  21145639.195 9 111121006.307 2  86587987.495 9  21145638.53948
  21324140.086 1                 112059108.456 1  87318816.65246  21324147.87546
  22720892.945 1  22720909.254 9 119399091.319 1  93038094.532 9  22720908.62146
  19990885.625 3  19990895.109 9 105052806.003 3  81859368.955 9  19990894.98849
  23322515.641 1  23322530.797 7 122560658.75611  95501625.97417                
 23 03 10 02 57 50.0000000  0  6G04G08G16G26G27G31                  
  21411474.484 1  21411486.219 9 112518061.434 1  87676452.038 9  21411486.12546
  21145252.570 1  21145267.047 9 111119050.526 1  86586463.514 9  21145266.33247
  21324398.977 1                 112060472.758 1  87319879.73546  21324407.43446
  22721290.414 1  22721307.113 9 119401182.713 1  93039724.182 9  22721306.71946
  19990913.703 2  19990923.145 9 105052952.504 2  81859483.112 9  19990922.92648
  23322957.664 1                                                                
 23 03 10 02 57 51.0000000  0  5G04G08G16G26G27                     
  21411400.133 3  21411411.047 9 112517665.653 3  87676143.633 9  21411410.82446
  21144880.656 3  21144895.039 9 111117095.521 3  86584940.136 9  21144894.33648
  21324659.289 3                 112061837.351 3  87320943.03546  21324667.15246
  22721687.766 1  22721705.223 9 119403274.303 1  93041353.979 9  22721704.81646
  19990941.063 4  19990951.195 9 105053099.958 4  81859598.008 9  19990950.93849
 23 03 10 02 57 52.0000000  0  5G04G08G16G26G27                     
  21411325.195 3  21411335.664 9 112517270.495 3  87675835.714 9  21411335.64846
  21144509.492 3  21144523.059 9 111115141.045 3  86583417.161 9  21144522.35248
  21324918.883 3                 112063202.132 3  87322006.50046  21324926.75446
  22722086.547 1  22722103.195 9 119405365.910 1  93042983.806 9  22722102.84446
  19990968.539 3  19990979.375 9 105053248.068 3  81859713.417 9  19990979.09449
 23 03 10 02 57 53.0000000  0  5G04G08G16G26G27                     
  21411249.930 1  21411260.770 9 112516876.331 1  87675528.566 9  21411260.66846
  21144138.297 1  21144151.293 9 111113187.395 1  86581894.834 9  21144150.60247
  21325178.070 1                 112064567.351 1  87323070.31346  21325186.52346
  22722484.586 1  22722501.172 8 119407457.817 1  93044613.861 8  22722500.78146
  19990998.055 1  19991007.527 9 105053397.201 1  81859829.624 9  19991007.48848
 23 03 10 02 57 54.0000000  0  5G04G08G16G26G27                     
  21411175.164 1  21411185.723 9 112516482.883 1  87675221.979 9  21411185.88346
  21143764.891 1  21143779.652 9 111111234.326 1  86580372.961 9  21143778.90647
  21325438.250 1                 112065932.810 1  87324134.33746  21325446.33646
  22722882.016 1  22722899.469 8 119409549.768 1  93046243.950 8  22722898.93845
  19991026.406 1  19991036.320 9 105053547.037 1  81859946.381 9  19991036.02347
 23 03 10 02 57 55.0000000  0  5G04G08G16G26G27                     
  21411100.078 1  21411111.051 9 112516090.089 1  87674915.901 9  21411111.13745
  21143393.656 1  21143408.074 9 111109281.803 1  86578851.521 9  21143407.41047
  21325698.156 1                 112067298.356 1  87325198.33046  21325706.25046
  22723281.781 1  22723297.559 8 119411641.688 1  93047874.002 8  22723297.16445
  19991054.289 1  19991064.750 9 105053697.630 1  81860063.722 9  19991064.68047
 23 03 10 02 57 56.0000000  0  5G04G08G16G26G27                     
  21411025.461 1  21411036.500 9 112515698.034 1  87674610.401 9  21411036.64846
  21143022.258 2  21143036.754 9 111107330.038 2  86577330.668 9  21143036.02047
  21325957.047 1                 112068664.261 1  87326262.70946  21325966.10546
  22723679.391 1  22723696.047 8 119413733.818 1  93049504.227 8  22723695.32445
  19991082.883 2  19991093.887 9 105053849.032 2  81860181.693 9  19991093.34848
 23 03 10 02 57 57.0000000  0  5G04G08G16G26G27                     
  21410950.945 3  21410961.980 9 112515306.870 3  87674305.603 9  21410962.30546
  21142650.602 4  21142665.301 9 111105379.004 4  86575810.390 9  21142664.77348
  21326218.219 3                 112070030.545 3  87327327.33546  21326225.94546
  22724077.313 2  22724093.988 9 119415826.131 2  93051134.597 9  22724093.45345
  19991112.844 4  19991122.688 9 105054001.359 4  81860300.388 9  19991122.41048
 23 03 10 02 57 58.0000000  0  5G04G08G16G26G27                     
  21410877.156 5  21410887.703 9 112514916.452 5  87674001.376 9  21410888.02747
  21142279.430 4  21142294.383 9 111103428.514 4  86574290.521 9  21142293.46548
  21326477.289 5                 112071396.988 5  87328392.08247  21326485.97347
  22724475.742 4  22724492.441 9 119417918.498 4  93052764.998 9  22724491.57046
  19991142.008 5  19991151.609 9 105054154.438 5  81860419.672 9  19991151.43449
 23 03 10 02 57 59.0000000  0  5G04G08G16G26G27                     
  21410802.727 1  21410813.449 9 112514526.838 1  87673697.778 9  21410814.02046
  21141908.781 2  21141923.090 9 111101478.747 2  86572771.228 9  21141922.47348
  21326737.281 2                 112072763.781 2  87329457.11946  21326745.99646
  22724874.586 1  22724890.348 9 119420011.062 1  93054395.554 9  22724889.66046
  19991170.813 3  19991181.195 9 105054308.360 3  81860539.612 9  19991180.72349
 23 03 10 02 58 00.0000000  0  5G04G08G16G26G27                     
  21410728.984 3  21410739.535 9 112514137.987 3  87673394.767 9  21410739.93847
  21141538.344 3  21141552.000 9 111099529.648 3  86571252.452 9  21141551.64548
  21326998.063 3                 112074130.810 3  87330522.33347  21327006.17247
  22725272.594 3  22725288.582 9 119422103.674 3  93056026.153 9  22725287.92246
  19991200.047 5  19991210.215 9 105054463.089 5  81860660.179 9  19991210.05149
 23 03 10 02 58 01.0000000  0  5G04G08G16G26G27                     
  21410654.984 3  21410665.762 9 112513749.874 3  87673092.337 9  21410665.87547
  21141167.070 4  21141181.434 9 111097581.155 4  86569734.141 9  21141180.90648
  21327257.734 3                 112075498.064 3  87331587.72847  21327266.23447
  22725671.398 2  22725686.902 9 119424196.406 2  93057656.861 9  22725686.25046
  19991229.875 5  19991240.074 9 105054618.604 5  81860781.354 9  19991239.68049
 23 03 10 02 58 02.0000000  0  5G04G08G16G26G27                     
  21410581.328 4  21410592.121 9 112513362.562 4  87672790.534 9  21410592.26647
  21140796.438 5  21140810.996 9 111095633.369 5  86568216.388 9  21140810.12549
  21327518.305 4                 112076865.667 4  87332653.38147  21327526.48447
  22726068.117 4  22726085.305 9 119426289.280 4  93059287.657 9  22726084.60547
  19991259.930 6  19991269.766 9 105054774.963 6  81860903.193 9  19991269.39849
 23 03 10 02 58 03.0000000  0  5G04G08G16G26G27                     
  21410508.016 3  21410518.449 9 112512976.118 3  87672489.408 9  21410518.83247
  21140425.898 4  21140440.332 9 111093686.345 4  86566699.232 9  21140439.74249
  21327778.016 4                 112078233.614 4  87333719.31347  21327786.69947
  22726466.867 3  22726483.559 9 119428382.365 3  93060918.620 9  22726483.01646
  19991289.484 5  19991299.719 9 105054932.244 5  81861025.748 9  19991299.39149
 23 03 10 02 58 04.0000000  0  5G04G08G16G26G27                     
  21410434.406 4  21410445.012 9 112512590.360 4  87672188.812 9  21410445.48447
  21140055.656 5  21140070.039 9 111091739.891 5  86565182.515 9  21140069.34449
  21328038.852 5                 112079601.739 5  87334785.37647  21328047.14147
  22726864.695 4  22726881.938 9 119430475.494 4  93062549.615 9  22726881.34846
  19991319.719 6  19991329.656 9 105055090.242 6  81861148.862 9  19991329.40249
 23 03 10 02 58 05.0000000  0  6G04G08G16G26G27G31                  
  21410361.563 5  21410371.758 9 112512205.347 5  87671888.795 9  21410372.16847
  21139685.328 5  21139699.879 9 111089794.058 5  86563666.290 9  21139699.02749
  21328299.531 5                 112080970.111 5  87335851.64247  21328307.46147
  22727263.367 4  22727279.668 9 119432568.696 4  93064180.670 9  22727279.68447
  19991349.945 6  19991359.828 9 105055249.035 6  81861272.593 9  19991359.50449
  23329606.844 1                                                                
 23 03 10 02 58 06.0000000  0  6G04G08G16G26G27G31                  
  21410288.359 5  21410298.711 9 112511821.134 5  87671589.407 9  21410298.91447
  21139315.688 5  21139329.672 9 111087848.901 5  86562150.586 9  21139328.87149
  21328559.859 5                 112082338.759 5  87336918.11747  21328567.87947
  22727661.742 4  22727678.184 8 119434662.066 4  93065811.859 8  22727678.05147
  19991380.125 6  19991390.348 9 105055408.649 6  81861396.973 9  19991390.02049
  23330051.086 1                                                                
 23 03 10 02 58 07.0000000  0  6G04G08G16G26G27G31                  
  21410215.227 5  21410225.785 9 112511437.781 5  87671290.681 9  21410225.86347
  21138945.313 6  21138959.727 9 111085904.476 6  86560635.440 9  21138958.97749
  21328820.984 5                 112083707.799 5  87337984.89647  21328828.37147
  22728059.570 4  22728076.941 8 119436755.586 4  93067443.162 8  22728076.42247
  19991410.500 6  19991421.172 9 105055569.174 6  81861522.054 9  19991420.43849
  23330495.531 1                 122602594.22611                                
 23 03 10 02 58 08.0000000  0  6G04G08G16G26G27G31                  
  21410142.633 5  21410152.758 9 112511055.206 5  87670992.572 9  21410153.09047
  21138575.352 6  21138589.801 9 111083960.737 6  86559120.848 9  21138588.96549
  21329080.891 5                 112085077.096 5  87339051.87747  21329088.91047
  22728457.969 4  22728474.988 8 119438849.310 4  93069074.622 8  22728474.85547
  19991441.047 6  19991451.543 9 105055730.529 6  81861647.782 9  19991451.22349
  23330939.758 1                                                                
 23 03 10 02 58 09.0000000  0  6G04G08G16G26G27G31                  
  21410069.750 5  21410080.289 9 112510673.463 5  87670695.111 9  21410080.27747
  21138205.914 6  21138220.125 9 111082017.720 6  86557606.813 9  21138219.19949
  21329341.742 6                 112086446.741 6  87340119.12647  21329349.60247
  22728856.586 4  22728873.270 8 119440943.151 4  93070706.178 8  22728873.29747
  19991472.109 6  19991482.535 9 105055892.736 6  81861774.174 9  19991482.16049
  23331383.531 1  23331402.625 7 122607262.54111                                
 23 03 10 02 58 10.0000000  0  6G04G08G16G26G27G31                  
  21409996.891 5  21410007.695 9 112510292.362 5  87670398.144 9  21410007.78147
  21137835.789 6  21137850.234 9 111080075.261 6  86556093.211 9  21137849.44549
  21329602.461 5                 112087816.498 5  87341186.45747  21329610.16847
  22729255.391 4  22729271.734 9 119443036.983 4  93072337.728 9  22729271.74247
  19991503.359 6  19991513.324 9 105056055.636 6  81861901.107 9  19991512.93449
  23331826.453 1  23331846.758 7 122609597.144 1  95540010.94117                
 23 03 10 02 58 11.0000000  0  6G04G08G16G26G27G31                  
  21409924.766 5  21409935.094 9 112509911.874 5  87670101.653 9  21409935.31647
  21137466.477 6  21137480.609 9 111078133.279 6  86554579.980 9  21137480.01649
  21329862.367 6                 112089186.396 6  87342253.91547  21329870.77347
  22729653.945 5  22729670.055 9 119445130.804 5  93073969.251 9  22729670.22747
  19991534.352 6  19991544.484 9 105056219.169 6  81862028.536 9  19991544.04749
  23332271.172 1  23332291.109 7 122611932.095 1  95541830.394 7                
 23 03 10 02 58 12.0000000  0  6G04G08G16G26G27G31                  
  21409852.586 5  21409862.973 9 112509532.218 5  87669805.810 9  21409863.00847
  21137097.203 6  21137111.250 9 111076192.020 6  86553067.309 9  21137110.43849
  21330123.789 6                 112090556.578 6  87343321.58947  21330131.63747
  22730052.313 4  22730068.691 9 119447224.775 4  93075600.915 9  22730068.55947
  19991565.523 6  19991575.949 9 105056383.595 6  81862156.656 9  19991575.56349
  23332715.094 1  23332735.621 7 122614267.480 1  95543650.170 7                
 23 03 10 02 58 13.0000000  0  6G04G08G16G26G27G31                  
  21409780.766 5  21409790.801 9 112509153.471 5  87669510.682 9  21409791.03147
  21136728.250 6  21136741.691 9 111074251.559 6  86551555.271 9  21136741.16449
  21330384.688 5                 112091927.221 5  87344389.61947  21330392.52747
  22730450.734 4  22730467.516 9 119449319.015 4  93077232.786 9  22730467.09846
  19991597.125 6  19991607.418 9 105056548.990 6  81862285.536 9  19991606.90249
  23333159.211 1  23333179.887 7 122616603.371 1  95545470.351 7                
 23 03 10 02 58 14.0000000  0  6G04G08G16G26G27G31                  
  21409708.523 5  21409718.820 9 112508775.402 5  87669216.082 9  21409719.04347
  21136358.375 6  21136372.641 9 111072311.655 6  86550043.657 9  21136371.87549
  21330645.773 5                 112093298.000 5  87345457.75647  21330653.43847
  22730849.492 5  22730865.742 9 119451413.262 5  93078864.650 9  22730865.70747
  19991628.695 6  19991638.941 9 105056715.071 6  81862414.945 9  19991638.52049
  23333603.375 1  23333624.828 7 122618939.655 1  95547290.831 7                
 23 03 10 02 58 15.0000000  0  6G04G08G16G26G27G31                  
  21409636.844 6  21409647.137 9 112508398.012 6  87668922.013 9  21409647.23847
  21135988.914 6  21136003.723 9 111070372.305 6  86548532.478 9  21136002.89149
  21330906.516 6                 112094668.971 6  87346526.04047  21330914.28147
  22731247.625 4  22731264.328 9 119453507.541 4  93080496.555 9  22731264.19947
  19991660.500 6  19991670.652 9 105056881.890 6  81862544.936 9  19991670.24649
  23334046.586 1  23334069.285 7 122621276.242 1  95549111.510 7                
 23 03 10 02 58 16.0000000  0  6G04G08G16G26G27G31                  
  21409565.492 6  21409575.430 9 112508021.435 6  87668628.569 9  21409575.49647
  21135620.516 6  21135634.625 9 111068433.668 6  86547021.847 9  21135633.93449
  21331167.391 6                 112096040.263 6  87347594.57047  21331175.16047
  22731646.023 5  22731662.965 9 119455601.997 5  93082128.591 9  22731662.76647
  19991692.430 6  19991702.387 9 105057049.572 6  81862675.589 9  19991701.96949
  23334488.703 1  23334513.867 7 122623613.192 1  95550932.496 7                
 23 03 10 02 58 17.0000000  0  6G04G08G16G26G27G31                  
  21409493.789 6  21409503.840 9 112507645.577 6  87668335.690 9  21409503.89147
  21135251.594 6  21135265.996 9 111066495.597 6  86545511.664 9  21135265.11749
  21331428.188 6                 112097411.748 6  87348663.26547  21331436.16047
  22732044.461 4  22732061.402 9 119457696.505 4  93083760.666 9  22732061.25047
  19991724.117 7  19991734.457 9 105057217.979 7  81862806.816 9  19991734.02349
  23334934.055 1                                                                
 23 03 10 02 58 18.0000000  0  6G04G08G16G26G27G31                  
  21409422.203 6  21409432.344 9 112507270.527 6  87668043.439 9  21409432.44947
  21134882.797 6  21134897.332 9 111064558.243 6  86544002.041 9  21134896.24249
  21331689.375 6                 112098783.540 6  87349732.18447  21331697.23847
  22732443.344 4  22732459.945 8 119459791.157 4  93085392.851 8  22732459.89147
  19991756.672 7  19991766.711 9 105057387.264 7  81862938.727 9  19991766.28949
  23335377.922 1  23335403.223 7 122628288.41411  95554575.50817                
 23 03 10 02 58 19.0000000  0  6G04G08G16G26G27G31                  
  21409351.523 6  21409361.027 9 112506896.354 6  87667751.880 9  21409361.19147
  21134514.047 6  21134528.887 9 111062621.625 6  86542492.990 9  21134527.92249
  21331950.367 6                 112100155.718 6  87350801.41347  21331958.31347
  22732842.445 5  22732858.758 8 119461886.005 5  93087025.192 8  22732858.56347
  19991788.852 7  19991799.207 9 105057557.443 7  81863071.327 9  19991798.57849
  23335822.406 1  23335847.848 7 122630626.77411  95556397.58817                
 23 03 10 02 58 20.0000000  0  6G04G08G16G26G27G31                  
  21409279.898 6  21409290.094 9 112506522.974 6  87667460.931 9  21409290.07847
  21134145.883 6  21134160.152 9 111060685.724 6  86540984.499 9  21134159.43449
  21332211.844 6                 112101528.194 6  87351870.87547  21332219.50847
  22733241.031 5  22733257.070 8 119463981.029 5  93088657.673 8  22733257.35947
  19991821.813 7  19991831.629 9 105057728.501 7  81863204.610 9  19991831.19149
  23336269.031 1  23336292.766 7 122632965.416 1  95558219.904 7                
 23 03 10 02 58 21.0000000  0  6G04G08G16G26G27G31                  
  21409209.000 6  21409218.918 9 112506150.382 6  87667170.587 9  21409219.12547
  21133777.781 6  21133792.082 9 111058750.506 6  86539476.535 9  21133791.03549
  21332472.469 6                 112102900.938 6  87352940.53847  21332480.96547
  22733639.594 5  22733655.949 9 119466076.156 5  93090290.220 9  22733656.10547
  19991854.164 7  19991864.477 9 105057900.342 7  81863338.513 9  19991864.05549
  23336715.039 1                                                                
 23 03 10 02 58 22.0000000  0  6G04G08G16G26G27G31                  
  21409138.305 6  21409148.504 9 112505778.571 6  87666880.861 9  21409148.19147
  21133409.578 6  21133423.926 9 111056815.930 6  86537969.080 9  21133422.86349
  21332734.250 6                 112104273.951 6  87354010.42447  21332742.13747
  22734038.125 5  22734055.121 9 119468171.443 5  93091922.906 9  22734055.11747
  19991887.070 7  19991897.383 9 105058073.009 7  81863473.063 9  19991896.94149
  23337160.469 1                                                                
 23 03 10 02 58 23.0000000  0  6G04G08G16G26G27G31                  
  21409067.695 6  21409077.824 9 112505407.609 6  87666591.805 9  21409077.49647
  21133041.594 6  21133056.223 9 111054882.114 6  86536462.212 9  21133055.03549
  21332995.758 6                 112105647.309 6  87355080.56447  21333003.38747
  22734437.203 5  22734453.828 9 119470266.888 5  93093555.715 9  22734453.90247
  19991920.047 7  19991930.309 9 105058246.577 7  81863608.305 9  19991929.98049
  23337607.398 1                                                                
 23 03 10 02 58 24.0000000  0  6G04G08G16G26G27G31                  
  21408997.180 6  21409007.598 9 112505037.426 6  87666303.353 9  21409006.99247
  21132673.898 6  21132688.230 9 111052949.014 6  86534955.903 9  21132686.91049
  21333257.273 6                 112107020.960 6  87356150.94247  21333264.80547
  22734836.805 5  22734852.527 9 119472362.474 5  93095188.629 9  22734852.80547
  19991953.477 7  19991963.516 9 105058420.973 7  81863744.195 9  19991963.07449
  23338053.289 1                                                                
 23 03 10 02 58 25.0000000  0  6G04G08G16G26G27G31                  
  21408927.602 6  21408937.309 9 112504668.051 6  87666015.527 9  21408936.79347
  21132306.430 6  21132320.355 9 111051016.568 6  86533450.102 9  21132319.09049
  21333518.500 6                 112108394.898 6  87357221.54447  21333526.28947
  22735234.977 5  22735251.453 9 119474458.213 5  93096821.674 9  22735251.58647
  19991986.516 6  19991996.961 9 105058596.196 6  81863880.736 9  19991996.40249
  23338499.750 1  23338516.621 7 122644665.65711  95567337.01517                
 23 03 10 02 58 26.0000000  0  6G04G08G16G26G27G31                  
  21408857.555 6  21408866.934 9 112504299.497 6  87665728.341 9  21408866.63347
  21131938.367 6  21131952.730 9 111049084.860 6  86531944.874 9  21131951.51249
  21333780.227 6                 112109769.185 6  87358292.40647  21333787.87547
  22735633.852 5  22735650.277 9 119476554.129 5  93098454.842 9  22735650.27747
  19992019.805 7  19992030.430 9 105058772.306 7  81864017.960 9  19992029.93449
  23338946.750 1  23338961.926 7 122647007.115 1  95569161.537 7                
 23 03 10 02 58 27.0000000  0  6G04G08G16G26G27G31                  
  21408787.172 6  21408797.031 9 112503931.791 6  87665441.817 9  21408796.53547
  21131571.117 6  21131585.141 9 111047153.839 6  86530440.175 9  21131584.00049
  21334041.703 6                 112111143.771 6  87359363.51647  21334049.35247
  22736032.336 5  22736049.277 9 119478650.236 5  93100088.161 9  22736049.22347
  19992054.047 7  19992064.195 9 105058949.279 7  81864155.862 9  19992063.59849
  23339393.281 1  23339407.492 7 122649349.021 1  95570986.393 7                
 23 03 10 02 58 28.0000000  0  6G04G08G16G26G27G31                  
  21408717.711 6  21408727.176 9 112503564.729 6  87665155.796 9  21408726.64147
  21131203.641 6  21131217.816 9 111045223.384 6  86528935.923 9  21131216.48049
  21334302.898 6                 112112518.550 6  87360434.75948  21334310.89148
  22736431.227 5  22736447.852 9 119480746.324 5  93101721.466 9  22736448.02747
  19992087.469 6  19992097.668 9 105059126.969 6  81864294.317 9  19992097.44549
  23339838.063 1  23339853.258 7 122651691.121 1  95572811.406 7                
 23 03 10 02 58 29.0000000  0  6G04G08G16G26G27G31                  
  21408647.984 6  21408657.430 9 112503198.491 6  87664870.405 9  21408657.02347
  21130836.086 6  21130850.375 9 111043293.614 6  86527432.214 9  21130849.31349
  21334564.805 6                 112113893.632 6  87361506.24647  21334572.46947
  22736830.219 5  22736846.781 9 119482842.588 5  93103354.907 9  22736846.76247
  19992121.563 6  19992131.820 9 105059305.492 6  81864433.427 9  19992131.62949
  23340284.492 1  23340299.020 7 122654033.710 1  95574636.832 7                
 23 03 10 02 58 30.0000000  0  6G04G08G16G26G27G31                  
  21408578.102 6  21408588.012 9 112502833.021 6  87664585.619 9  21408587.35247
  21130469.281 6  21130483.453 9 111041364.521 6  86525929.021 9  21130482.14849
  21334826.086 6                 112115268.941 6  87362577.92147  21334834.32047
  22737229.930 5  22737245.770 9 119484938.953 5  93104988.426 9  22737245.76647
  19992155.906 6  19992166.023 9 105059484.827 6  81864573.169 9  19992165.66849
  23340730.789 1  23340744.832 7 122656376.750 1  95576462.570 7                
 23 03 10 02 58 31.0000000  0  6G04G08G16G26G27G31                  
  21408508.867 6  21408518.777 9 112502468.401 6  87664301.495 9  21408517.86747
  21130102.273 6  21130116.371 9 111039436.188 6  86524426.429 9  21130115.29349
  21335088.305 6                 112116644.636 6  87363649.88647  21335096.09847
  22737627.945 5  22737644.754 9 119487035.535 5  93106622.121 9  22737644.77047
  19992189.891 6  19992200.238 9 105059665.064 6  81864713.606 9  19992199.93049
  23341175.063 1  23341190.965 7 122658720.236 1  95578288.663 7                
 23 03 10 02 58 32.0000000  0  6G04G08G16G26G27G31                  
  21408439.602 6  21408449.215 9 112502104.542 6  87664017.960 9  21408448.65647
  21129735.453 6  21129749.801 9 111037508.460 6  86522924.293 9  21129748.52049
  21335349.867 6                 112118020.563 6  87364722.03047  21335357.87547
  22738027.195 5  22738044.000 9 119489132.191 5  93108255.872 9  22738043.84047
  19992224.516 6  19992234.895 9 105059846.077 6  81864854.660 9  19992234.38749
  23341619.867 1  23341637.195 7 122661064.186 1  95580115.125 7                
 23 03 10 02 58 33.0000000  0  6G04G08G16G26G27G31                  
  21408370.609 6  21408380.398 9 112501741.418 6  87663735.007 9  21408379.59847
  21129368.688 6  21129382.691 9 111035581.409 6  86521422.700 9  21129381.71949
  21335612.398 6                 112119396.749 6  87365794.38347  21335619.69547
  22738426.648 5  22738443.000 9 119491228.954 5  93109889.701 9  22738442.97747
  19992259.188 6  19992269.422 9 105060027.887 6  81864996.327 9  19992269.12949
  23342064.367 1  23342083.492 7 122663408.480 1  95581941.839 7                
 23 03 10 02 58 34.0000000  0  6G04G08G16G26G27G31                  
  21408301.367 6  21408311.230 9 112501378.951 6  87663452.566 9  21408310.55947
  21129002.516 6  21129016.016 9 111033654.881 6  86519921.511 9  21129015.05949
  21335873.953 6                 112120773.063 6  87366866.83347  21335881.57047
  22738825.148 5  22738841.930 9 119493325.694 5  93111523.508 9  22738841.87947
  19992293.758 7  19992304.148 9 105060210.402 7  81865138.550 9  19992303.85949
  23342509.094 1                                                                
 23 03 10 02 58 35.0000000  0  6G04G08G16G26G27G31                  
  21408232.617 6  21408242.492 9 112501017.207 6  87663170.687 9  21408241.63347
  21128636.047 6  21128649.832 9 111031728.984 6  86518420.806 9  21128648.46949
  21336136.297 6                 112122149.615 6  87367939.46147  21336143.60947
  22739224.633 5  22739240.859 9 119495422.552 5  93113157.406 9  22739240.80147
  19992328.648 6  19992339.184 9 105060393.679 6  81865281.362 9  19992338.70349
  23342954.766 1                                                                
 23 03 10 02 58 36.0000000  0  6G04G08G16G26G27G31                  
  21408163.781 6  21408173.773 9 112500656.254 6  87662889.425 9  21408172.96147
  21128269.648 6  21128283.578 9 111029803.729 6  86516920.614 9  21128282.05949
  21336397.992 6                 112123526.443 6  87369012.31447  21336405.73047
  22739623.125 5  22739640.047 9 119497519.481 5  93114791.369 9  22739639.85247
  19992363.758 7  19992374.066 9 105060577.773 7  81865424.808 9  19992373.65649
  23343401.422 1                                                                
 23 03 10 02 58 37.0000000  0  6G04G08G16G26G27G31                  
  21408095.328 6  21408105.145 9 112500295.962 6  87662608.668 9  21408104.31648
  21127903.227 6  21127917.426 9 111027879.041 6  86515420.854 9  21127915.93049
  21336659.836 6                 112124903.441 6  87370085.29847  21336667.83247
  22740022.477 5  22740039.281 9 119499616.423 5  93116425.340 9  22740038.97747
  19992398.867 6  19992409.246 9 105060762.571 6  81865568.813 9  19992408.82449
  23343847.484 1  23343868.980 7 122672788.89611  95589251.23317                
 23 03 10 02 58 38.0000000  0  6G04G08G16G26G27G31                  
  21408027.313 6  21408036.699 9 112499936.661 6  87662328.694 9  21408035.82447
  21127537.055 6  21127551.320 9 111025955.239 6  86513921.789 9  21127549.81349
  21336922.250 6                 112126280.939 6  87371158.66547  21336930.09447
  22740421.336 5  22740438.391 9 119501713.728 5  93118059.599 9  22740438.12947
  19992434.227 6  19992444.457 9 105060948.413 6  81865713.622 9  19992444.27049
  23344294.992 1  23344315.527 7 122675135.188 1  95591079.501 7                
 23 03 10 02 58 39.0000000  0  6G04G08G16G26G27G31                  
  21407959.133 6  21407968.824 9 112499578.039 6  87662049.243 9  21407967.72747
  21127171.000 6  21127185.398 9 111024031.973 6  86512423.139 9  21127183.76249
  21337184.344 6                 112127658.572 6  87372232.15048  21337192.23448
  22740820.813 5  22740837.539 9 119503811.049 5  93119693.867 9  22740837.35947
  19992469.867 6  19992480.012 9 105061134.944 6  81865858.969 9  19992479.85549
  23344742.703 1  23344762.258 7 122677481.789 1  95592908.030 7                
 23 03 10 02 58 40.0000000  0  6G04G08G16G26G27G31                  
  21407890.688 6  21407900.422 9 112499220.057 6  87661770.291 9  21407899.68047
  21126804.953 6  21126819.492 9 111022109.303 6  86510924.959 9  21126817.98449
  21337446.594 6                 112129036.382 6  87373305.76148  21337454.32448
  22741219.836 5  22741236.480 9 119505908.376 5  93121328.133 9  22741236.48847
  19992505.094 7  19992515.688 9 105061322.194 7  81866004.881 9  19992515.57449
  23345188.883 1  23345208.941 7 122679828.616 1  95594736.722 7                
 23 03 10 02 58 41.0000000  0  6G04G08G16G26G27G31                  
  21407822.227 6  21407832.617 9 112498862.925 6  87661492.008 9  21407831.76647
  21126439.570 6  21126453.969 9 111020187.327 6  86509427.315 9  21126452.21549
  21337709.281 6                 112130414.514 6  87374379.63447  21337716.54747
  22741618.867 5  22741635.223 9 119508005.864 5  93122962.538 9  22741635.60247
  19992541.172 7  19992551.438 9 105061510.305 7  81866151.462 9  19992551.41849
  23345636.336 1                                                                
 23 03 10 02 58 42.0000000  0  6G04G08G16G26G27G31                  
  21407754.797 6  21407764.496 9 112498506.590 6  87661214.337 9  21407763.85547
  21126073.953 6  21126088.074 9 111018266.050 6  86507930.209 9  21126086.63349
  21337971.258 6                 112131792.936 6  87375453.72347  21337978.87147
  22742017.836 5  22742034.547 9 119510103.486 5  93124597.035 9  22742034.73047
  19992576.938 7  19992587.523 9 105061699.260 7  81866298.694 9  19992587.38749
  23346084.539 1  23346102.789 7 122684523.70511  95598395.26017                
 23 03 10 02 58 43.0000000  0  6G04G08G16G26G27G31                  
  21407686.953 6  21407696.906 9 112498151.074 6  87660937.313 9  21407696.43847
  21125707.953 6  21125722.598 9 111016345.480 6  86506433.660 9  21125721.16849
  21338233.469 6                 112133171.680 6  87376528.06547  21338241.29747
  22742417.445 5  22742434.195 9 119512201.310 5  93126231.690 9  22742433.77047
  19992612.984 7  19992623.621 9 105061889.078 7  81866446.604 9  19992623.48849
  23346531.258 1  23346549.953 7 122686871.951 1  95600225.062 7                
 23 03 10 02 58 44.0000000  0  6G04G08G16G26G27G31                  
  21407619.547 6  21407629.617 9 112497796.349 6  87660660.901 9  21407628.88347
  21125342.859 6  21125357.270 9 111014425.562 6  86504937.627 9  21125355.83249
  21338495.820 6                 112134550.690 6  87377602.61647  21338503.74247
  22742816.414 5  22742833.371 9 119514299.213 5  93127866.411 9  22742833.08247
  19992649.703 7  19992659.973 9 105062079.708 7  81866595.145 9  19992659.68849
  23346978.945 1  23346997.047 7 122689220.596 1  95602055.198 7                
 23 03 10 02 58 45.0000000  0  6G04G08G16G26G27G31                  
  21407552.164 6  21407561.965 9 112497442.256 6  87660384.982 9  21407561.56647
  21124977.867 6  21124992.023 9 111012506.198 6  86503442.010 9  21124990.79349
  21338758.727 6                 112135929.850 6  87378677.28547  21338766.12147
  22743216.000 5  22743232.516 9 119516397.141 5  93129501.154 9  22743232.26647
  19992685.820 7  19992696.551 9 105062271.039 7  81866744.239 9  19992696.05949
  23347425.742 1  23347444.004 7 122691569.526 1  95603885.539 7                
 23 03 10 02 58 46.0000000  0  6G04G08G16G26G27G31                  
  21407485.461 6  21407494.996 9 112497088.953 6  87660109.681 9  21407494.16447
  21124612.422 6  21124626.867 9 111010587.522 6  86501946.943 9  21124625.46549
  21339020.875 6                 112137309.278 6  87379752.16447  21339028.53547
  22743614.680 5  22743632.109 9 119518495.177 5  93131135.974 9  22743631.59447
  19992722.727 7  19992732.820 9 105062463.183 7  81866893.965 9  19992732.59849
  23347874.273 1  23347890.988 7 122693918.922 1  95605716.210 7                
 23 03 10 02 58 47.0000000  0  6G04G08G16G26G27G31                  
  21407418.125 6  21407427.957 9 112496736.418 6  87659834.975 9  21407427.13348
  21124247.813 6  21124262.063 9 111008669.487 6  86500452.371 9  21124260.68049
  21339283.742 6                 112138688.975 6  87380827.24347  21339291.28547
  22744014.516 5  22744031.441 9 119520593.349 5  93132770.905 9  22744030.91047
  19992759.164 7  19992769.516 9 105062656.130 7  81867044.311 9  19992769.39149
  23348321.133 1  23348337.898 7 122696268.658 1  95607547.196 7                
 23 03 10 02 58 48.0000000  0  6G04G08G16G26G27G31                  
  21407351.250 6  21407360.957 9 112496384.545 6  87659560.790 9  21407360.13348
  21123883.000 6  21123897.191 9 111006752.032 6  86498958.250 9  21123895.69549
  21339546.320 6                 112140068.820 6  87381902.45047  21339553.81347
  22744414.031 5  22744430.559 9 119522691.529 5  93134405.842 9  22744430.23047
  19992796.047 7  19992806.473 9 105062849.801 7  81867195.215 9  19992806.25849
  23348768.734 1  23348785.082 7 122698618.697 1  95609378.396 7                
 23 03 10 02 58 49.0000000  0  6G04G08G16G26G27G31                  
  21407284.055 6  21407294.098 9 112496033.605 6  87659287.321 9  21407293.31348
  21123518.172 6  21123532.496 9 111004835.368 6  86497464.743 9  21123531.12149
  21339808.859 6                 112141449.096 6  87382977.99047  21339816.48447
  22744812.695 5  22744829.477 9 119524789.956 5  93136040.975 9  22744829.58247
  19992833.203 7  19992843.488 9 105063044.426 7  81867346.872 9  19992843.28149
  23349216.305 2  23349232.512 7 122700969.328 2  95611210.034 7                
 23 03 10 02 58 50.0000000  0  6G04G08G16G26G27G31                  
  21407217.172 6  21407227.543 9 112495683.400 6  87659014.432 9  21407226.69147
  21123153.352 6  21123167.855 9 111002919.373 6  86495971.763 9  21123166.52749
  21340071.859 6                 112142829.604 6  87384053.70447  21340079.23047
  22745212.516 5  22745228.938 9 119526888.492 5  93137676.184 9  22745228.93447
  19992870.898 7  19992880.645 9 105063239.839 7  81867499.146 9  19992880.50849
  23349663.141 1  23349679.734 7 122703320.302 1  95613041.967 7                
 23 03 10 02 58 51.0000000  0  6G04G08G16G26G27G31                  
  21407150.914 6  21407161.027 9 112495333.951 6  87658742.127 9  21407160.36747
  21122788.867 6  21122803.574 9 111001003.968 6  86494479.245 9  21122802.05949
  21340334.141 6                 112144210.337 6  87385129.60447  21340342.08247
  22745611.805 5  22745627.973 9 119528987.120 5  93139311.466 9  22745628.30547
  19992907.648 7  19992918.051 9 105063436.027 7  81867652.011 9  19992917.79349
  23350111.031 1  23350127.152 7 122705671.670 1  95614874.213 7                
 23 03 10 02 58 52.0000000  0  6G04G08G16G26G27G31                  
  21407084.961 6  21407094.664 9 112494985.343 6  87658470.482 9  21407093.95747
  21122424.453 6  21122439.051 9 110999089.338 6  86492987.332 9  21122437.73449
  21340597.031 6                 112145591.455 6  87386205.79247  21340604.79747
  22746011.102 5  22746027.707 9 119531085.910 5  93140946.884 9  22746027.68047
  19992945.125 7  19992955.496 9 105063633.110 7  81867805.581 9  19992955.43049
  23350558.516 1  23350574.777 7 122708023.560 1  95616706.838 7                
 23 03 10 02 58 53.0000000  0  6G04G08G16G26G27G31                  
  21407018.594 6  21407028.352 9 112494637.412 6  87658199.368 9  21407027.74247
  21122060.328 6  21122074.773 9 110997175.280 6  86491495.857 9  21122073.47349
  21340860.352 6                 112146972.724 6  87387282.10247  21340867.56647
  22746410.547 5  22746426.957 9 119533184.731 5  93142582.315 9  22746426.99247
  19992982.625 7  19992993.086 9 105063830.909 7  81867959.719 9  19992992.98449
  23351005.414 1  23351022.270 7 122710375.695 1  95618539.668 7                
 23 03 10 02 58 54.0000000  0  6G04G08G16G26G27G31                  
  21406952.367 6  21406962.273 9 112494290.300 6  87657928.887 9  21406961.74647
  21121696.219 6  21121710.582 9 110995261.909 6  86490004.919 9  21121709.41849
  21341123.063 6                 112148354.289 6  87388358.64247  21341130.48847
  22746809.625 5  22746826.262 9 119535283.715 5  93144217.875 9  22746826.54747
  19993020.672 7  19993030.988 9 105064029.571 7  81868114.512 9  19993030.76249
  23351453.500 1  23351470.254 7 122712728.323 1  95620372.880 7                
 23 03 10 02 58 55.0000000  0  6G04G08G16G26G27G31                  
  21406886.875 6  21406896.496 9 112493943.897 6  87657658.957 9  21406896.09447
  21121332.281 6  21121346.418 9 110993349.127 6  86488514.451 9  21121345.33649
  21341385.617 6                 112149736.087 6  87389435.36047  21341393.62947
  22747210.031 5  22747225.664 9 119537382.775 5  93145853.502 9  22747225.98447
  19993058.750 7  19993069.070 9 105064228.979 7  81868269.894 9  19993068.67649
  23351900.664 1  23351918.176 7 122715081.338 1  95622206.409 7                
 23 03 10 02 58 56.0000000  0  6G04G08G16G26G27G31                  
  21406821.039 6  21406830.738 9 112493598.230 6  87657389.607 9  21406830.25447
  21120968.430 6  21120982.625 9 110991436.999 6  86487024.481 9  21120981.43449
  21341649.023 6                 112151118.094 6  87390512.25147  21341656.70747
  22747609.289 5  22747625.266 9 119539481.910 5  93147489.179 9  22747625.35247
  19993096.742 7  19993107.125 9 105064429.160 7  81868425.879 9  19993106.60249
  23352347.406 2  23352365.926 7 122717434.670 2  95624040.149 7                
 23 03 10 02 58 57.0000000  0  6G04G08G16G26G27G31                  
  21406754.898 6  21406765.215 9 112493253.526 6  87657121.012 9  21406764.51647
  21120604.727 6  21120619.020 9 110989525.699 6  86485535.160 9  21120617.74649
  21341912.125 6                 112152500.561 6  87391589.49147  21341919.75447
  22748007.766 5  22748024.836 9 119541581.310 5  93149125.068 9  22748024.75847
  19993135.039 7  19993145.254 9 105064630.326 7  81868582.632 9  19993145.02349
  23352796.375 2  23352814.223 7 122719788.615 2  95625874.388 7                
 23 03 10 02 58 58.0000000  0  6G04G08G16G26G27G31                  
  21406689.266 6  21406699.781 9 112492909.447 6  87656852.893 9  21406699.21947
  21120240.766 6  21120255.488 9 110987614.921 6  86484046.241 9  21120254.28949
  21342175.188 6                 112153883.179 6  87392666.85248  21342182.84048
  22748407.867 5  22748424.246 9 119543680.723 5  93150760.964 9  22748424.37947
  19993173.422 7  19993183.715 9 105064832.184 7  81868739.920 9  19993183.41449
  23353243.945 2  23353262.180 7 122722142.822 2  95627708.828 7                
 23 03 10 02 58 59.0000000  0  6G04G08G16G26G27G31                  
  21406624.094 6  21406634.461 9 112492566.002 6  87656585.271 9  21406633.98447
  21119877.539 6  21119891.949 9 110985704.656 6  86482557.726 9  21119890.63349
  21342438.016 6                 112155265.913 6  87393744.30747  21342445.98847
  22748807.734 5  22748823.840 9 119545780.131 5  93152396.859 9  22748824.00447
  19993212.016 7  19993222.367 9 105065034.715 7  81868897.739 9  19993222.11749
  23353691.703 2  23353710.070 7 122724497.305 2  95629543.490 7                
 23 03 10 02 59 00.0000000  0  6G04G08G16G26G27G31                  
  21406559.109 6  21406569.480 9 112492223.406 6  87656318.314 9  21406568.93448
  21119514.273 6  21119528.516 9 110983795.107 6  86481069.768 9  21119527.53949
  21342700.953 6                 112156648.940 6  87394821.98747  21342709.16847
  22749207.789 5  22749223.465 9 119547879.671 5  93154032.849 9  22749223.45747
  19993250.438 7  19993260.910 9 105065238.094 7  81869056.220 9  19993260.67649
  23354140.789 2  23354158.270 7 122726852.235 2  95631378.485 7                
 23 03 10 02 59 01.0000000  0  6G04G08G16G26G27G31                  
  21406493.922 6  21406504.227 9 112491881.532 6  87656051.909 9  21406504.00448
  21119150.695 6  21119165.207 9 110981886.184 6  86479582.301 9  21119164.22349
  21342964.352 6                 112158032.241 6  87395899.87547  21342972.41447
  22749606.719 5  22749623.031 9 119549979.305 5  93155668.923 9  22749623.03547
  19993289.477 7  19993299.762 9 105065442.277 7  81869215.313 9  19993299.68849
  23354588.281 2  23354606.813 7 122729207.547 2  95633213.797 7                
 23 03 10 02 59 02.0000000  0  6G04G08G16G26G27G31                  
  21406429.164 6  21406439.395 9 112491540.560 6  87655786.203 9  21406438.98448
  21118787.570 6  21118801.855 9 110979978.027 6  86478095.425 9  21118800.98449
  21343228.063 6                 112159415.902 6  87396978.05447  21343235.68447
  22750006.477 5  22750022.820 9 119552079.182 5  93157305.178 9  22750022.58647
  19993328.594 7  19993338.965 9 105065647.376 7  81869375.128 9  19993338.74249
  23355036.031 1  23355055.238 7 122731563.398 1  95635049.529 7                
 23 03 10 02 59 03.0000000  0  6G04G08G16G26G27G31                  
  21406364.258 6  21406374.535 9 112491200.146 6  87655520.945 9  21406374.28947
  21118424.852 6  21118438.977 9 110978070.341 6  86476608.919 9  21118438.13349
  21343491.336 6                 112160799.630 6  87398056.27847  21343498.92247
  22750406.141 5  22750422.504 9 119554178.970 5  93158941.368 9  22750422.25847
  19993367.875 7  19993378.020 9 105065853.086 7  81869535.427 9  19993377.78149
  23355484.109 2  23355503.691 7 122733919.419 2  95636885.396 7                
 23 03 10 02 59 04.0000000  0  6G04G08G16G26G27G31                  
  21406300.016 6  21406310.059 9 112490860.605 6  87655256.364 9  21406309.67247
  21118061.820 6  21118076.176 9 110976163.399 6  86475122.996 9  21118075.01649
  21343754.445 6                 112162183.722 6  87399134.77848  21343762.28548
  22750805.477 5  22750821.875 9 119556278.958 5  93160577.716 9  22750821.77047
  19993406.641 7  19993417.418 9 105066059.697 7  81869696.418 9  19993417.05549
  23355932.758 1  23355952.309 7 122736275.953 1  95638721.660 7                
 23 03 10 02 59 05.0000000  0  6G04G08G16G26G27G31                  
  21406236.070 6  21406245.801 9 112490521.951 6  87654992.478 9  21406245.28547
  21117698.836 6  21117713.480 9 110974257.263 6  86473637.691 9  21117712.34049
  21344017.820 6                 112163568.209 6  87400213.60447  21344025.63347
  22751205.250 5  22751221.203 9 119558379.190 5  93162214.257 9  22751221.43047
  19993446.500 7  19993456.867 9 105066267.248 7  81869858.147 9  19993456.61349
  23356381.305 1  23356400.930 7 122738633.085 1  95640558.384 7                
 23 03 10 02 59 06.0000000  0  6G04G08G16G26G27G31                  
  21406171.141 6  21406181.238 9 112490183.847 6  87654729.014 9  21406180.93847
  21117336.422 6  21117350.926 9 110972351.550 6  86472152.728 9  21117349.75449
  21344281.438 6                 112164952.725 6  87401292.44647  21344289.05947
  22751605.469 5  22751621.023 9 119560479.339 5  93163850.728 9  22751620.98847
  19993485.930 7  19993496.434 9 105066475.374 7  81870020.325 9  19993496.05149
  23356830.875 1  23356849.645 7 122740990.338 1  95642395.188 7                
 23 03 10 02 59 07.0000000  0  6G04G08G16G26G27G31                  
  21406107.344 6  21406117.160 9 112489846.645 6  87654466.259 9  21406116.87947
  21116974.016 6  21116988.492 9 110970446.657 6  86470668.392 9  21116987.44549
  21344544.828 6                 112166337.657 6  87402371.60247  21344552.53147
  22752005.117 5  22752020.730 8 119562579.705 5  93165487.373 8  22752020.75447
  19993525.875 7  19993536.367 9 105066684.461 7  81870183.240 9  19993535.82849
  23357279.578 1  23357298.332 7 122743348.133 1  95644232.406 7                
 23 03 10 02 59 08.0000000  0  6G04G08G16G26G27G31                  
  21406042.844 6  21406053.102 9 112489510.269 6  87654204.144 9  21406053.16847
  21116611.477 6  21116626.590 9 110968542.479 6  86469184.620 9  21116624.94549
  21344808.805 6                 112167722.868 6  87403450.99547  21344816.16847
  22752405.156 5  22752420.719 9 119564680.235 5  93167124.138 9  22752420.43847
  19993565.914 7  19993576.246 9 105066894.388 7  81870346.825 9  19993575.73049
  23357728.953 1  23357747.160 7 122745706.403 1  95646070.023 7                
 23 03 10 02 59 09.0000000  0  6G04G08G16G26G27G31                  
  21405979.375 6  21405989.117 9 112489174.563 6  87653942.550 9  21405989.21547
  21116249.609 6  21116264.121 9 110966638.839 6  86467701.268 9  21116262.82849
  21345072.078 6                 112169108.271 6  87404530.53147  21345079.80147
  22752804.266 5  22752820.508 9 119566780.789 5  93168760.919 9  22752820.04347
  19993605.453 7  19993616.070 9 105067105.031 7  81870510.961 9  19993615.78549
  23358177.570 1  23358195.723 7 122748064.983 1  95647907.891 7                
 23 03 10 02 59 10.0000000  0  6G04G08G16G26G27G31                  
  21405915.625 6  21405925.250 9 112488839.561 6  87653681.502 9  21405925.50047
  21115887.273 6  21115901.797 9 110964735.771 6  86466218.361 9  21115900.81649
  21345336.023 6                 112170493.853 6  87405610.19947  21345343.49247
  22753204.016 5  22753219.988 9 119568881.371 5  93170397.730 9  22753219.88347
  19993646.172 6  19993656.539 9 105067316.404 6  81870675.671 9  19993656.13749
  23358627.055 1  23358644.371 7 122750423.851 1  95649745.970 7                
 23 03 10 02 59 11.0000000  0  6G04G08G16G26G27G31                  
  21405851.680 6  21405861.684 9 112488505.267 6  87653421.014 9  21405861.91847
  21115525.203 6  21115539.859 9 110962833.346 6  86464735.962 9  21115538.81649
  21345599.586 6                 112171879.653 6  87406690.04847  21345607.16847
  22753603.672 5  22753619.793 9 119570982.036 5  93172034.600 9  22753619.59447
  19993686.617 7  19993696.945 9 105067528.559 7  81870840.983 9  19993696.52349
  23359075.820 1  23359093.371 7 122752783.121 1  95651584.381 7                
 23 03 10 02 59 12.0000000  0  6G04G08G16G26G27G31                  
  21405788.242 6  21405798.137 9 112488171.686 6  87653161.082 9  21405798.61348
  21115163.234 6  21115178.254 9 110960931.485 6  86463253.994 9  21115176.87149
  21345863.188 6                 112173265.638 6  87407770.02347  21345870.97347
  22754003.492 5  22754019.426 9 119573082.718 5  93173671.490 9  22754019.27347
  19993726.773 7  19993737.375 9 105067741.443 7  81871006.864 9  19993737.09449
  23359525.008 1  23359542.422 7 122755142.751 1  95653423.049 7                
 23 03 10 02 59 13.0000000  0  6G04G08G16G26G27G31                  
  21405725.430 6  21405735.215 9 112487838.833 6  87652901.716 9  21405735.16048
  21114801.344 6  21114815.945 9 110959030.236 6  86461772.497 9  21114815.14149
  21346127.109 6                 112174651.860 6  87408850.19947  21346134.71547
  22754402.961 5  22754419.234 9 119575183.486 5  93175308.437 9  22754419.02747
  19993767.656 6  19993778.031 9 105067955.088 6  81871173.339 9  19993777.65649
  23359975.102 1  23359991.629 7 122757502.661 1  95655261.913 7                
 23 03 10 02 59 14.0000000  0  6G04G08G16G26G27G31                  
  21405661.414 6  21405671.840 9 112487506.632 6  87652642.858 9  21405671.98847
  21114439.531 6  21114454.512 9 110957129.547 6  86460291.446 9  21114453.39149
  21346391.148 6                 112176038.239 6  87409930.48647  21346398.75847
  22754802.734 5  22754818.922 9 119577284.278 5  93176945.409 9  22754818.82047
  19993808.273 6  19993818.789 9 105068169.442 6  81871340.373 9  19993818.44949
  23360424.633 1  23360440.465 7 122759862.932 1  95657101.095 7                
 23 03 10 02 59 15.0000000  0  6G04G08G16G26G27G31                  
  21405598.602 6  21405608.727 9 112487175.344 6  87652384.706 9  21405608.95347
  21114077.656 6  21114092.684 9 110955229.682 6  86458811.035 9  21114091.81649
  21346655.078 6                 112177424.999 6  87411011.07947  21346662.69547
  22755202.813 5  22755218.813 9 119579385.303 5  93178582.561 9  22755218.58247
  19993849.188 6  19993859.883 9 105068384.742 6  81871508.139 9  19993859.38749
  23360873.156 1  23360889.602 7 122762223.753 1  95658940.681 7                
 23 03 10 02 59 16.0000000  0  6G04G08G16G26G27G31                  
  21405535.328 6  21405545.992 9 112486844.811 6  87652127.138 9  21405546.03548
  21113716.758 6  21113731.305 9 110953330.443 6  86457331.116 9  21113730.55549
  21346918.875 6                 112178812.032 6  87412091.88147  21346926.60947
  22755602.867 5  22755618.844 9 119581486.432 5  93180219.797 9  22755618.46547
  19993890.664 6  19993900.973 9 105068600.825 6  81871676.515 9  19993900.53949
  23361321.453 1  23361338.879 7 122764584.935 1  95660780.567 7                
 23 03 10 02 59 17.0000000  0  6G04G08G16G26G27G31                  
  21405472.773 6  21405483.078 9 112486515.104 6  87651870.224 9  21405483.27047
  21113355.195 6  21113370.152 9 110951431.914 6  86455851.742 9  21113369.16449
  21347182.883 6                 112180199.350 6  87413172.91247  21347190.67647
  22756003.047 5  22756018.848 9 119583587.720 5  93181857.165 9  22756018.30547
  19993931.516 7  19993942.188 9 105068817.764 7  81871845.554 9  19993941.93849
  23361769.938 1  23361788.332 7 122766946.581 1  95662620.815 7                
 23 03 10 02 59 18.0000000  0  6G04G08G16G26G27G31                  
  21405410.508 6  21405420.449 9 112486186.075 6  87651613.832 9  21405420.80547
  21112994.414 6  21113008.813 9 110949533.988 6  86454372.845 9  21113008.00049
  21347446.492 6                 112181586.857 6  87414254.08147  21347454.85247
  22756402.406 5  22756418.699 9 119585689.045 5  93183494.551 9  22756418.37147
  19993973.031 7  19993983.875 9 105069035.444 7  81872015.179 9  19993983.21549
  23362220.531 1  23362237.539 7 122769308.514 1  95664461.289 7                
 23 03 10 02 59 19.0000000  0  6G04G08G16G26G27G31                  
  21405347.781 6  21405358.121 9 112485857.703 6  87651357.953 9  21405358.35247
  21112633.578 6  21112647.711 9 110947636.635 6  86452894.387 9  21112646.94549
  21347711.094 6                 112182974.510 6  87415335.36747  21347719.07047
  22756801.984 5  22756818.715 9 119587790.362 5  93185131.931 9  22756818.22347
  19994014.578 6  19994025.434 9 105069253.808 6  81872185.321 9  19994024.88349
  23362669.820 1  23362687.273 7 122771670.762 1  95666302.013 7                
 23 03 10 02 59 20.0000000  0  6G04G08G16G26G27G31                  
  21405285.641 6  21405295.855 9 112485530.111 6  87651102.678 9  21405295.92647
  21112272.258 6  21112286.902 9 110945739.924 6  86451416.435 9  21112286.15249
  21347974.781 6                 112184362.432 6  87416416.86147  21347982.94547
  22757201.820 5  22757218.410 9 119589891.797 5  93186769.400 9  22757217.98447
  19994056.305 7  19994066.969 9 105069472.975 7  81872356.104 9  19994066.50449
  23363118.133 1  23363136.801 6 122774033.422 1  95668143.024 6                
 23 03 10 02 59 21.0000000  0  6G04G08G16G26G27G31                  
  21405223.625 6  21405233.637 9 112485203.304 6  87650848.016 9  21405233.83247
  21111911.672 6  21111926.074 9 110943843.903 6  86449939.012 9  21111925.13749
  21348239.039 6                 112185750.643 6  87417498.58647  21348247.16447
  22757602.047 5  22757618.230 9 119591993.348 5  93188406.959 9  22757617.92647
  19994098.375 7  19994109.016 9 105069692.975 7  81872527.526 9  19994108.30549
  23363567.727 1  23363586.324 7 122776396.524 1  95669984.418 7                
 23 03 10 02 59 22.0000000  0  6G04G08G16G26G27G31                  
  21405161.727 6  21405171.637 9 112484877.307 6  87650593.991 9  21405171.82048
  21111551.055 6  21111565.539 9 110941948.578 6  86448462.141 9  21111564.52349
  21348503.000 6                 112187139.131 6  87418580.51347  21348511.38747
  22758001.992 5  22758018.613 9 119594095.101 5  93190044.683 9  22758017.82447
  19994140.273 7  19994151.000 9 105069913.832 7  81872699.627 9  19994150.37949
  23364016.773 1  23364036.133 7 122778760.064 1  95671826.120 7                
 23 03 10 02 59 23.0000000  0  6G04G08G16G26G27G31                  
  21405099.273 6  21405109.805 9 112484552.129 6  87650340.602 9  21405109.93848
  21111190.688 6  21111205.004 9 110940053.966 6  86446985.820 9  21111203.88749
  21348767.531 6                 112188527.947 6  87419662.70747  21348775.46147
  22758401.570 5  22758418.605 9 119596196.981 5  93191682.502 9  22758418.00047
  19994182.711 7  19994193.074 9 105070135.540 7  81872872.385 9  19994192.63349
  23364465.766 1  23364485.879 6 122781124.107 1  95673668.212 6                
 23 03 10 02 59 24.0000000  0  6G04G08G16G26G27G31                  
  21405037.750 6  21405047.902 9 112484227.772 6  87650087.860 9  21405048.24248
  21110829.828 6  21110844.582 9 110938160.064 6  86445510.060 9  21110843.68049
  21349031.750 6                 112189917.076 6  87420745.14147  21349039.76247
  22758802.203 5  22758818.555 9 119598299.027 5  93193320.451 9  22758818.01247
  19994224.547 7  19994235.422 9 105070358.111 7  81873045.818 9  19994235.09449
  23364914.156 1  23364935.496 6 122783488.502 1  95675510.582 6                
 23 03 10 02 59 25.0000000  0  6G04G08G16G26G27G31                  
  21404976.125 6  21404986.375 9 112483904.107 6  87649835.647 9  21404986.53948
  21110470.109 6  21110484.160 9 110936266.765 6  86444034.769 9  21110483.27049
  21349296.414 6                 112191306.383 6  87421827.71647  21349304.23447
  22759201.609 5  22759218.480 9 119600401.114 5  93194958.436 9  22759218.11347
  19994267.125 7  19994277.727 9 105070581.420 7  81873219.826 9  19994277.48849
  23365363.969 1  23365385.723 7 122785853.310 1  95677353.286 7                
 23 03 10 02 59 26.0000000  0  6G04G08G16G26G27G31                  
  21404914.422 6  21404924.926 9 112483581.271 6  87649584.084 9  21404925.30547
  21110109.742 6  21110124.352 9 110934374.188 6  86442560.035 9  21110123.29349
  21349560.484 6                 112192696.018 6  87422910.54447  21349568.69547
  22759602.188 5  22759618.539 9 119602503.354 5  93196596.533 9  22759618.10547
  19994309.734 7  19994320.535 9 105070805.578 7  81873394.490 9  19994320.32449
  23365814.898 1  23365835.930 6 122788218.556 1  95679196.341 6                
 23 03 10 02 59 27.0000000  0  6G04G08G16G26G27G31                  
  21404853.492 6  21404863.828 9 112483259.237 6  87649333.145 9  21404863.90247
  21109749.422 6  21109764.227 9 110932482.281 6  86441085.824 9  21109763.00849
  21349824.969 6                 112194085.957 6  87423993.61747  21349833.09447
  22760002.102 5  22760018.465 9 119604605.767 5  93198234.768 9  22760018.21547
  19994352.961 6  19994363.223 9 105071030.578 6  81873569.818 9  19994363.05949
  23366265.766 1  23366286.059 6 122790584.155 1  95681039.655 6                
 23 03 10 02 59 28.0000000  0  6G04G08G16G26G27G31                  
  21404792.055 6  21404802.680 9 112482938.010 6  87649082.832 9  21404802.62948
  21109389.695 6  21109404.313 9 110930591.090 6  86439612.164 9  21109403.16849
  21350089.945 6                 112195476.196 6  87425076.90847  21350097.70747
  22760402.281 5  22760418.684 9 119606708.333 5  93199873.119 9  22760418.29747
  19994395.836 6  19994406.457 9 105071256.450 6  81873745.823 9  19994406.12549
  23366716.203 1  23366736.215 6 122792950.255 1  95682883.360 6                
 23 03 10 02 59 29.0000000  0  6G04G08G16G26G27G31                  
  21404731.055 6  21404741.699 9 112482617.722 6  87648833.258 9  21404741.64848
  21109029.844 6  21109044.461 9 110928700.696 6  86438139.130 9  21109043.52049
  21350354.242 5                 112196866.846 5  87426160.54047  21350362.27747
  22760802.258 5  22760819.023 9 119608811.179 5  93201511.694 9  22760818.42247
  19994439.023 6  19994449.695 9 105071483.291 6  81873922.573 9  19994449.27749
  23367167.664 1  23367186.395 6 122795316.947 1  95684727.563 6                
 23 03 10 02 59 30.0000000  0  6G04G08G16G26G27G31                  
  21404670.633 6  21404680.680 9 112482298.213 6  87648584.292 9  21404680.86748
  21108670.523 6  21108684.660 9 110926810.994 6  86436666.646 9  21108683.71149
  21350619.414 5                 112198257.782 5  87427244.38047  21350626.94947
  22761202.789 5  22761219.027 9 119610914.146 5  93203150.351 9  22761218.60947
  19994482.227 6  19994492.883 9 105071710.944 6  81874099.965 9  19994492.50049
  23367617.234 1  23367636.871 6 122797684.098 1  95686572.110 6                
 23 03 10 02 59 31.0000000  0  6G04G08G16G26G27G31                  
  21404609.938 6  21404620.277 9 112481979.437 6  87648335.894 9  21404620.15647
  21108311.414 6  21108325.348 9 110924921.891 6  86435194.619 9  21108324.34449
  21350883.711 5                 112199648.925 5  87428328.38747  21350891.61747
  22761602.922 5  22761619.117 9 119613017.169 5  93204789.060 9  22761618.85247
  19994525.758 6  19994536.270 9 105071939.350 6  81874277.944 9  19994536.00849
  23368068.078 1  23368087.441 6 122800051.51711  95688416.84316                
 23 03 10 02 59 32.0000000  0  6G04G08G16G26G27G31                  
  21404549.398 6  21404559.762 9 112481661.502 6  87648088.152 9  21404559.71947
  21107952.094 6  21107965.871 9 110923033.523 6  86433723.164 9  21107964.99649
  21351148.500 5                 112201040.415 5  87429412.66147  21351156.31647
  22762002.797 5  22762019.289 9 119615120.407 5  93206427.936 9  22762019.14547
  19994569.375 6  19994579.961 9 105072168.663 6  81874456.623 9  19994579.65649
  23368519.281 1  23368538.332 6 122802419.480 1  95690262.014 6                
 23 03 10 02 59 33.0000000  0  6G04G08G16G26G27G31                  
  21404489.406 6  21404499.332 9 112481344.387 6  87647841.044 9  21404499.40248
  21107592.594 6  21107606.508 9 110921145.886 6  86432252.275 9  21107605.71949
  21351413.484 5                 112202432.211 5  87430497.17447  21351421.12947
  22762403.641 5  22762419.633 9 119617223.783 5  93208066.915 9  22762419.50047
  19994613.297 6  19994623.887 9 105072398.804 6  81874635.958 9  19994623.49649
  23368969.852 1  23368989.027 6 122804787.875 1  95692107.501 6                
 23 03 10 02 59 34.0000000  0  6G04G08G16G26G27G31                  
  21404428.852 6  21404438.980 9 112481027.652 6  87647594.233 9  21404439.11348
  21107233.539 6  21107247.270 9 110919258.524 6  86430781.610 9  21107246.55549
  21351677.969 6                 112203823.873 6  87431581.58147  21351686.02347
  22762803.016 5  22762819.938 9 119619326.872 5  93209705.679 9  22762819.76247
  19994657.086 6  19994667.609 9 105072629.377 6  81874815.622 9  19994667.35949
  23369421.813 1                                                                
 23 03 10 02 59 35.0000000  0  6G04G08G16G26G27G31                  
  21404368.453 6  21404379.016 9 112480711.782 6  87647348.102 9  21404379.05547
  21106874.539 6  21106888.277 9 110917371.894 6  86429311.513 9  21106887.40249
  21351943.211 6                 112205215.915 6  87432666.28747  21351950.87547
  22763204.078 5  22763220.375 9 119621430.187 5  93211344.618 9  22763219.94547
  19994701.055 6  19994711.766 9 105072860.851 6  81874995.992 9  19994711.30949
  23369871.750 1                                                                
 23 03 10 02 59 36.0000000  0  6G04G08G16G26G27G31                  
  21404308.367 6  21404318.805 9 112480396.478 6  87647102.407 9  21404318.98048
  21106515.398 6  21106529.531 9 110915485.739 6  86427841.771 9  21106528.48449
  21352207.758 5                 112206607.988 5  87433751.01647  21352215.70747
  22763604.094 5  22763620.422 9 119623533.416 5  93212983.486 9  22763620.28947
  19994745.320 6  19994755.734 9 105073092.936 6  81875176.833 9  19994755.60549
  23370323.313 1                                                                
 23 03 10 02 59 37.0000000  0  6G04G08G16G26G27G31                  
  21404248.555 6  21404259.152 9 112480081.977 6  87646857.332 9  21404259.00047
  21106156.313 6  21106170.832 9 110913600.284 6  86426372.589 9  21106169.82449
  21352472.836 5                 112208000.384 5  87434835.99547  21352480.71947
  22764004.195 5  22764020.922 9 119625636.785 5  93214622.461 9  22764020.66847
  19994789.586 6  19994800.105 9 105073325.856 6  81875358.329 9  19994799.93849
  23370774.992 1  23370791.930 6 122814263.75211  95699491.26716                
 23 03 10 02 59 38.0000000  0  6G04G08G16G26G27G31                  
  21404188.719 6  21404199.477 9 112479768.260 6  87646612.884 9  21404199.36747
  21105798.086 6  21105812.293 9 110911715.561 6  86424903.973 9  21105811.14149
  21352737.547 5                 112209393.068 5  87435921.20147  21352745.66047
  22764404.617 5  22764420.910 9 119627740.299 5  93216261.550 9  22764420.89147
  19994834.188 7  19994844.535 9 105073559.612 7  81875540.475 9  19994844.49649
  23371226.203 1                                                                
 23 03 10 02 59 39.0000000  0  6G04G08G16G26G27G31                  
  21404129.453 6  21404140.160 9 112479455.494 6  87646369.165 9  21404139.87948
  21105439.172 6  21105453.832 9 110909831.648 6  86423435.990 9  21105452.61349
  21353002.789 5                 112210786.153 5  87437006.71947  21353010.74247
  22764804.508 5  22764821.477 9 119629844.082 5  93217900.857 9  22764821.07447
  19994878.836 6  19994889.320 9 105073794.349 6  81875723.385 9  19994889.06649
  23371676.984 1                                                                
 23 03 10 02 59 40.0000000  0  6G04G08G16G26G27G31                  
  21404070.297 6  21404080.582 9 112479143.476 6  87646126.027 9  21404080.35547
  21105081.109 6  21105095.551 9 110907948.362 6  86421968.499 9  21105094.25849
  21353268.023 5                 112212179.491 5  87438092.42347  21353275.84447
  22765205.297 5  22765221.613 9 119631947.940 5  93219540.218 9  22765221.48047
  19994923.844 6  19994934.285 9 105074029.841 6  81875906.879 9  19994933.81649
  23372127.063 1                                                                
 23 03 10 02 59 41.0000000  0  6G04G08G16G26G27G31                  
  21404010.961 6  21404021.371 9 112478832.119 6  87645883.418 9  21404021.08647
  21104722.680 6  21104736.988 9 110906065.613 6  86420501.425 9  21104735.66449
  21353533.891 5                 112213572.992 5  87439178.26947  21353541.01247
  22765605.180 5  22765621.910 9 119634051.842 5  93221179.616 9  22765621.89147
  19994968.578 6  19994979.020 9 105074266.062 6  81876090.952 9  19994978.74649
  23372578.172 1                                                                
 23 03 10 02 59 42.0000000  0  6G04G08G16G26G27G31                  
  21403951.953 6  21403962.402 9 112478521.448 6  87645641.331 9  21403962.02047
  21104364.750 6  21104378.934 9 110904183.438 6  86419034.799 9  21104377.66449
  21353798.680 5                 112214966.658 5  87440264.24147  21353806.23047
  22766005.680 5  22766022.488 9 119636155.755 5  93222819.019 9  22766022.35947
  19995013.641 6  19995024.363 9 105074503.004 6  81876275.578 9  19995023.78549
  23373029.156 1                                                                
 23 03 10 02 59 43.0000000  0  6G04G08G16G26G27G31                  
  21403892.789 6  21403903.309 9 112478211.413 6  87645399.744 9  21403903.19147
  21104006.727 6  21104020.977 9 110902301.784 6  86417568.575 9  21104019.50449
  21354064.141 5                 112216360.460 5  87441350.31847  21354071.52747
  22766406.563 5  22766422.652 9 119638259.628 5  93224458.394 9  22766422.82047
  19995058.938 6  19995069.520 9 105074740.617 6  81876460.730 9  19995069.00849
  23373480.164 1  23373497.195 6 122828489.89011  95710576.54716                
 23 03 10 02 59 44.0000000  0  6G04G08G16G26G27G31                  
  21403833.641 6  21403844.344 9 112477902.291 6  87645158.869 9  21403844.34447
  21103648.836 6  21103662.953 9 110900420.934 6  86416102.976 9  21103661.73049
  21354329.148 5                 112217754.625 5  87442436.67847  21354336.98847
  22766806.852 5  22766822.941 9 119640363.774 5  93226097.974 9  22766823.15647
  19995104.711 7  19995114.945 9 105074979.156 7  81876646.602 9  19995114.27049
  23373931.609 1  23373948.578 6 122830862.253 1  95712425.138 6                
 23 03 10 02 59 45.0000000  0  6G04G08G16G26G27G31                  
  21403775.414 6  21403785.770 9 112477593.797 6  87644918.474 9  21403785.79347
  21103290.750 6  21103304.965 9 110898540.628 6  86414637.810 9  21103303.83649
  21354594.633 5                 112219148.977 5  87443523.18747  21354602.23847
  22767207.422 5  22767223.406 9 119642467.913 5  93227737.557 9  22767223.64547
  19995149.922 7  19995160.383 9 105075218.402 7  81876833.022 9  19995159.94149
  23374382.992 1  23374400.051 7 122833234.894 1  95714273.954 7                
 23 03 10 02 59 46.0000000  0  6G04G08G16G26G27G31                  
  21403716.945 6  21403727.273 9 112477286.122 6  87644678.721 9  21403727.33247
  21102933.164 6  21102947.195 9 110896661.016 6  86413173.173 9  21102946.18449
  21354860.133 5                 112220543.575 5  87444609.88247  21354867.55547
  22767607.563 5  22767623.938 9 119644572.172 5  93229377.229 9  22767624.07447
  19995195.672 6  19995205.879 9 105075458.467 6  81877020.084 9  19995205.75049
  23374834.922 1  23374851.809 7 122835608.003 1  95716123.121 7                
 23 03 10 02 59 47.0000000  0  6G04G08G16G26G27G31                  
  21403658.898 6  21403668.734 9 112476979.236 6  87644439.584 9  21403668.81647
  21102575.234 6  21102589.629 9 110894782.089 6  86411709.079 9  21102588.46149
  21355124.875 5                 112221938.506 5  87445696.82947  21355132.95747
  22768008.461 5  22768024.352 9 119646676.581 5  93231017.023 9  22768024.55947
  19995241.492 6  19995251.863 9 105075699.381 6  81877207.815 9  19995251.60249
  23375287.164 1  23375303.949 7 122837981.574 1  95717972.633 7                
 23 03 10 02 59 48.0000000  0  6G04G08G16G26G27G31                  
  21403600.508 6  21403610.492 9 112476673.133 6  87644201.064 9  21403610.55147
  21102218.344 6  21102232.395 9 110892903.854 6  86410245.522 9  21102230.99249
  21355390.820 5                 112223333.698 5  87446783.99447  21355398.45347
  22768408.680 5  22768424.973 9 119648781.115 5  93232656.918 9  22768424.98447
  19995287.664 6  19995297.965 9 105075941.116 6  81877396.174 9  19995297.42649
  23375738.617 1  23375755.859 7 122840355.539 1  95719822.458 7                
 23 03 10 02 59 49.0000000  0  6G04G08G16G26G27G31                  
  21403542.227 6  21403552.543 9 112476367.648 6  87643963.023 9  21403552.44147
  21101861.117 6  21101874.898 9 110891026.141 6  86408782.367 9  21101873.71949
  21355656.023 5                 112224728.991 5  87447871.22847  21355664.05147
  22768809.094 5  22768825.313 9 119650885.604 5  93234296.762 9  22768825.48447
  19995333.617 6  19995344.004 9 105076183.498 6  81877585.040 9  19995343.67249
  23376192.344 1  23376208.453 7 122842729.690 1  95721672.461 7                
 23 03 10 02 59 50.0000000  0  6G04G08G16G26G27G31                  
  21403484.250 6  21403494.453 9 112476063.014 6  87643725.645 9  21403494.32047
  21101503.477 6  21101517.742 9 110889149.144 6  86407319.772 9  21101516.62549
  21355921.836 5                 112226124.616 5  87448958.73347  21355929.71947
  22769209.344 5  22769225.680 9 119652990.302 5  93235936.779 9  22769226.08247
  19995380.313 7  19995390.379 9 105076426.759 7  81877774.595 9  19995390.00449
  23376644.906 1  23376660.805 7 122845104.335 1  95723522.805 7                
 23 03 10 02 59 51.0000000  0  6G04G08G16G26G27G31                  
  21403425.648 6  21403436.633 9 112475759.123 6  87643488.833 9  21403436.53547
  21101146.500 6  21101160.652 9 110887272.787 6  86405857.676 9  21101159.50849
  21356187.281 5                 112227520.495 5  87450046.42747  21356195.29347
  22769609.984 5  22769626.363 9 119655095.069 5  93237576.852 9  22769626.53147
  19995426.180 7  19995436.566 9 105076670.816 7  81877964.764 9  19995436.36749
  23377096.750 1  23377113.598 7 122847479.400 1  95725373.502 7                
 23 03 10 02 59 52.0000000  0  6G04G08G16G26G27G31                  
  21403368.664 6  21403378.824 9 112475456.021 6  87643252.654 9  21403378.77747
  21100789.688 6  21100803.879 9 110885397.130 6  86404396.123 9  21100802.52749
  21356453.266 5                 112228916.665 5  87451134.35247  21356460.87547
  22770010.125 5  22770026.930 9 119657199.993 5  93239217.041 9  22770027.18047
  19995473.156 7  19995483.410 9 105076915.703 7  81878155.581 9  19995482.90249
  23377548.641 1  23377566.098 7 122849854.905 1  95727224.553 7                
 23 03 10 02 59 53.0000000  0  6G04G08G16G26G27G31                  
  21403310.539 6  21403321.113 9 112475153.435 6  87643016.869 9  21403321.10547
  21100432.797 6  21100446.906 9 110883521.846 6  86402934.860 9  21100445.76649
  21356718.945 5                 112230312.826 5  87452222.26147  21356726.51247
  22770411.195 5  22770427.523 9 119659304.738 5  93240857.094 9  22770427.60547
  19995519.758 7  19995529.977 9 105077161.125 7  81878346.815 9  19995529.64149
  23378000.430 1  23378018.691 7 122852230.551 1  95729075.704 7                
 23 03 10 02 59 54.0000000  0  6G04G08G16G26G27G31                  
  21403253.406 6  21403263.898 9 112474851.733 6  87642781.771 9  21403263.54747
  21100075.750 6  21100090.125 9 110881647.322 6  86401474.202 9  21100089.07049
  21356984.648 5                 112231709.345 5  87453310.46147  21356992.30147
  22770812.156 5  22770828.148 8 119661409.722 5  93242497.335 8  22770828.07047
  19995566.398 7  19995576.703 9 105077407.457 7  81878538.758 9  19995576.57449
  23378452.469 1  23378471.156 7 122854606.723 1  95730927.239 7                
 23 03 10 02 59 55.0000000  0  6G04G08G16G26G27G31                  
  21403196.313 6  21403206.680 9 112474550.824 6  87642547.291 9  21403206.41047
  21099719.445 6  21099733.480 9 110879773.498 6  86400014.079 9  21099732.53949
  21357249.656 5                 112233106.170 5  87454398.89247  21357258.26647
  22771211.891 5  22771228.820 8 119663514.866 5  93244137.690 8  22771228.68847
  19995613.508 7  19995623.938 9 105077654.645 7  81878731.370 9  19995623.61349
  23378904.523 1  23378924.039 7 122856983.250 1  95732779.080 7                
 23 03 10 02 59 56.0000000  0  6G04G08G16G26G27G31                  
  21403139.188 6  21403149.496 9 112474250.733 6  87642313.451 9  21403149.23047
  21099362.852 6  21099376.762 9 110877900.367 6  86398554.493 9  21099375.95749
  21357516.250 5                 112234503.308 5  87455487.56847  21357524.06647
  22771613.227 5  22771629.449 9 119665620.155 5  93245778.168 9  22771629.33647
  19995660.773 7  19995671.332 9 105077902.696 7  81878924.652 9  19995670.85949
  23379356.531 1  23379376.785 6 122859360.300 1  95734631.309 6                
 23 03 10 02 59 57.0000000  0  6G04G08G16G26G27G31                  
  21403082.328 6  21403092.668 9 112473951.426 6  87642080.215 9  21403092.22347
  21099006.375 6  21099020.734 9 110876027.938 6  86397095.459 9  21099019.68049
  21357782.102 5                 112235900.700 5  87456576.43847  21357790.04747
  22772013.633 5  22772030.043 9 119667725.570 5  93247418.742 9  22772029.98847
  19995708.109 7  19995718.430 9 105078151.545 7  81879118.561 9  19995718.26249
  23379809.102 1  23379829.652 7 122861737.791 1  95736483.878 7                
 23 03 10 02 59 58.0000000  0  6G04G08G16G26G27G31                  
  21403025.523 6  21403035.629 9 112473652.721 6  87641847.456 9  21403035.41047
  21098650.367 6  21098664.633 9 110874155.983 6  86395636.797 9  21098663.55149
  21358048.180 5                 112237298.188 5  87457665.38547  21358055.93847
  22772414.641 5  22772430.605 9 119669830.914 5  93249059.266 9  22772430.53947
  19995755.625 7  19995766.035 9 105078401.050 7  81879312.977 9  19995765.66049
  23380262.008 1  23380282.336 7 122864115.416 1  95738336.573 7                
 23 03 10 02 59 59.0000000  0  6G04G08G16G26G27G31                  
  21402969.094 6  21402979.113 9 112473354.827 6  87641615.323 9  21402978.91847
  21098294.172 6  21098308.625 9 110872284.730 6  86394178.672 9  21098307.53549
  21358314.000 5                 112238695.988 5  87458754.58247  21358322.08647
  22772814.430 5  22772831.090 9 119671936.412 5  93250699.900 9  22772831.16047
  19995803.313 7  19995813.688 9 105078651.392 7  81879508.048 9  19995813.37949
  23380713.461 1  23380734.684 7 122866493.536 1  95740189.640 7                
 23 03 10 03 00 00.0000000  0  6G04G08G16G26G27G31                  
  21402912.336 6  21402922.492 9 112473057.838 6  87641383.905 9  21402922.44147
  21097938.133 6  21097952.637 9 110870414.289 6  86392721.187 9  21097951.55549
  21358579.930 5                 112240094.177 5  87459844.07147  21358588.02747
  22773215.609 5  22773231.977 9 119674042.185 5  93252340.755 9  22773231.93447
  19995851.273 7  19995861.238 9 105078902.671 7  81879703.850 9  19995861.18049
  23381165.133 1  23381186.969 7 122868872.296 1  95742043.223 7                
 23 03 10 03 00 01.0000000  0  6G04G08G16G26G27G31                  
  21402855.695 6  21402866.117 9 112472761.605 6  87641153.068 9  21402866.14847
  21097582.305 6  21097596.727 9 110868544.503 6  86391264.208 9  21097595.72349
  21358846.523 5                 112241492.634 5  87460933.77547  21358854.13347
  22773615.859 5  22773632.711 9 119676148.053 5  93253981.679 9  22773632.69147
  19995898.672 7  19995909.184 9 105079154.767 7  81879900.283 9  19995909.19949
  23381617.727 1  23381639.715 7 122871251.306 1  95743896.996 7                
 23 03 10 03 00 02.0000000  0  6G04G08G16G26G27G31                  
  21402799.320 6  21402809.684 9 112472466.163 6  87640922.850 9  21402809.98847
  21097226.773 6  21097240.922 9 110866675.403 6  86389807.774 9  21097240.19949
  21359112.344 5                 112242891.344 5  87462023.67647  21359120.46947
  22774017.109 5  22774033.375 9 119678254.049 5  93255622.708 9  22774033.51647
  19995947.141 7  19995957.426 9 105079407.678 7  81880097.358 9  19995957.35549
  23382071.070 1  23382092.082 7 122873630.801 1  95745751.147 7                
 23 03 10 03 00 03.0000000  0  6G04G08G16G26G27G31                  
  21402743.008 6  21402753.738 9 112472171.550 6  87640693.272 9  21402753.75847
  21096871.203 6  21096885.523 9 110864806.997 6  86388351.869 9  21096884.63749
  21359378.664 5                 112244290.368 5  87463113.82147  21359386.60247
  22774417.922 5  22774434.094 9 119680360.205 5  93257263.857 9  22774434.27347
  19995995.195 7  19996005.844 9 105079661.437 7  81880295.090 9  19996005.75849
  23382524.391 1  23382544.664 7 122876010.679 1  95747605.611 7                
 23 03 10 03 00 04.0000000  0  6G04G08G16G26G27G31                  
  21402687.406 6  21402697.938 9 112471877.703 6  87640464.299 9  21402697.86347
  21096515.945 6  21096530.211 9 110862939.267 6  86386896.500 9  21096529.22349
  21359644.930 5                 112245689.658 5  87464204.17347  21359652.79747
  22774818.477 5  22774834.969 9 119682466.467 5  93258905.093 9  22774835.03547
  19996044.125 7  19996054.320 9 105079916.001 7  81880493.446 9  19996054.14849
  23382978.172 1  23382997.266 6 122878391.021 1  95749460.432 6                
 23 03 10 03 00 05.0000000  0  6G04G08G16G26G27G31                  
  21402631.656 6  21402642.180 9 112471584.601 6  87640235.905 9  21402642.13347
  21096160.813 6  21096174.809 9 110861072.193 6  86385441.638 9  21096173.93849
  21359911.203 5                 112247089.195 5  87465294.72147  21359918.98047
  22775219.227 5  22775235.996 9 119684572.836 5  93260546.404 9  22775235.65647
  19996092.453 6  19996103.074 9 105080171.369 6  81880692.436 9  19996102.78949
  23383430.891 1  23383449.813 6 122880771.793 1  95751315.587 6                
 23 03 10 03 00 06.0000000  0  6G04G08G16G26G27G31                  
  21402576.398 6  21402586.539 9 112471292.199 6  87640008.057 9  21402586.47347
  21095805.578 6  21095819.602 9 110859205.672 6  86383987.209 9  21095818.74649
  21360177.602 6                 112248488.904 6  87466385.40247  21360185.62947
  22775620.461 5  22775636.535 8 119686679.213 5  93262187.731 8  22775636.46547
  19996141.336 7  19996151.645 9 105080427.460 7  81880891.984 9  19996151.46949
  23383883.656 1  23383902.512 6 122883152.843 1  95753170.935 6                
 23 03 10 03 00 07.0000000  0  6G04G08G16G26G27G31                  
  21402520.898 6  21402531.090 9 112471000.498 6  87639780.759 9  21402531.02747
  21095450.297 6  21095464.578 9 110857339.768 6  86382533.255 9  21095463.74649
  21360443.938 5                 112249888.828 5  87467476.25347  21360452.20347
  22776021.313 5  22776037.273 8 119688785.684 5  93263829.125 8  22776037.41847
  19996190.453 6  19996200.629 9 105080684.290 6  81881092.115 9  19996200.22349
  23384336.516 1  23384355.316 6 122885534.239 1  95755026.560 6                
 23 03 10 03 00 08.0000000  0  6G04G08G16G26G27G31                  
  21402465.133 6  21402475.887 9 112470709.622 6  87639554.101 9  21402475.57447
  21095095.375 6  21095109.594 9 110855474.563 6  86381079.853 9  21095108.74249
  21360710.797 5                 112251289.027 5  87468567.30847  21360718.74247
  22776421.672 5  22776438.309 9 119690892.302 5  93265470.633 9  22776438.33247
  19996239.227 6  19996249.492 9 105080941.978 6  81881292.902 9  19996249.53149
  23384790.383 1  23384807.887 6 122887916.056 1  95756882.517 6                
 23 03 10 03 00 09.0000000  0  6G04G08G16G26G27G31                  
  21402409.656 6  21402420.762 9 112470419.554 6  87639328.070 9  21402420.34447
  21094740.586 6  21094754.742 9 110853610.083 6  86379627.017 9  21094753.89549
  21360977.195 5                 112252689.563 5  87469658.63047  21360985.12947
  22776823.125 5  22776839.230 9 119692999.046 5  93267112.242 9  22776839.25447
  19996288.656 6  19996298.926 9 105081200.505 6  81881494.357 9  19996298.59849
  23385243.656 1                                                                
 23 03 10 03 00 10.0000000  0  6G04G08G16G26G27G31                  
  21402355.016 6  21402365.469 9 112470130.140 6  87639102.546 9  21402365.28147
  21094385.742 6  21094400.086 9 110851746.146 6  86378174.599 9  21094399.48449
  21361243.516 5                 112254090.219 5  87470750.05647  21361251.58247
  22777224.219 5  22777240.113 9 119695105.813 5  93268753.869 9  22777240.12547
  19996337.688 6  19996348.176 9 105081459.747 6  81881696.365 9  19996347.97749
  23385696.906 1  23385714.441 7 122892680.97811  95760595.43317                
 23 03 10 03 00 11.0000000  0  6G04G08G16G26G27G31                  
  21402300.266 6  21402310.621 9 112469841.410 6  87638877.558 9  21402310.49247
  21094030.984 6  21094045.523 9 110849882.769 6  86376722.620 9  21094044.73049
  21361510.359 5                 112255491.061 5  87471841.61747  21361518.19947
  22777625.250 5  22777640.969 9 119697212.608 5  93270395.521 9  22777641.11347
  19996387.242 6  19996397.441 9 105081719.705 6  81881898.924 9  19996397.39549
  23386151.477 1  23386167.836 7 122895063.877 1  95762452.225 7                
 23 03 10 03 00 12.0000000  0  6G04G08G16G26G27G31                  
  21402245.016 6  21402255.773 9 112469553.384 6  87638653.121 9  21402255.53947
  21093676.703 6  21093691.145 9 110848019.987 6  86375271.096 9  21093690.37549
  21361776.469 5                 112256892.079 5  87472933.31747  21361784.92647
  22778025.641 5  22778041.879 9 119699319.430 5  93272037.188 9  22778042.00047
  19996436.898 7  19996447.168 9 105081980.371 7  81882102.041 9  19996447.09449
  23386605.273 1  23386621.609 6 122897447.099 1  95764309.279 6                
 23 03 10 03 00 13.0000000  0  6G04G08G16G26G27G31                  
  21402190.859 6  21402200.918 9 112469266.151 6  87638429.295 9  21402200.87947
  21093322.438 6  21093336.773 9 110846157.897 6  86373820.123 9  21093335.97749
  21362043.766 5                 112258293.367 5  87474025.22948  21362051.59848
  22778427.156 5  22778443.008 9 119701426.400 5  93273678.977 9  22778442.91047
  19996486.859 7  19996497.152 9 105082241.900 7  81882305.836 9  19996496.82849
  23387059.383 1  23387075.250 7 122899830.755 1  95766166.656 7                
 23 03 10 03 00 14.0000000  0  6G04G08G16G26G27G31                  
  21402136.156 6  21402146.188 9 112468979.643 6  87638206.035 9  21402146.47747
  21092968.516 6  21092982.395 9 110844296.435 6  86372369.627 9  21092981.78949
  21362310.445 6                 112259694.893 6  87475117.32547  21362318.19547
  22778827.484 5  22778843.887 9 119703533.422 5  93275320.808 9  22778843.83247
  19996536.570 7  19996546.844 9 105082504.169 7  81882510.198 9  19996546.68049
  23387512.695 1  23387529.414 6 122902214.799 1  95768024.316 6                
 23 03 10 03 00 15.0000000  0  6G04G08G16G26G27G31                  
  21402081.359 6  21402091.738 9 112468693.881 6  87637983.364 9  21402091.93847
  21092614.352 6  21092628.320 9 110842435.582 6  86370919.622 9  21092627.73049
  21362576.984 6                 112261096.643 6  87476209.59347  21362585.10247
  22779228.750 5  22779245.211 9 119705640.552 5  93276962.715 9  22779244.90647
  19996586.867 7  19996596.898 9 105082767.227 7  81882715.179 9  19996596.86749
  23387966.570 1  23387983.316 7 122904599.191 1  95769882.303 7                
 23 03 10 03 00 16.0000000  0  6G04G08G16G26G27G31                  
  21402027.391 6  21402037.598 9 112468408.811 6  87637761.224 9  21402037.84847
  21092259.719 6  21092274.645 9 110840575.342 6  86369470.080 9  21092273.64849
  21362843.680 6                 112262498.587 6  87477302.01147  21362851.89547
  22779629.438 5  22779646.070 9 119707747.693 5  93278604.636 9  22779645.93447
  19996636.703 7  19996647.145 9 105083031.021 7  81882920.731 9  19996646.97749
  23388420.086 1  23388437.258 6 122906983.907 1  95771740.502 6                
 23 03 10 03 00 17.0000000  0  6G04G08G16G26G27G31                  
  21401973.539 6  21401983.492 9 112468124.583 6  87637539.752 9  21401983.64847
  21091906.422 6  21091920.758 9 110838715.822 6  86368021.104 9  21091919.78949
  21363110.625 6                 112263900.858 6  87478394.68947  21363118.71147
  22780030.508 5  22780047.266 9 119709855.044 5  93280246.715 9  22780047.00447
  19996687.383 7  19996697.469 9 105083295.703 7  81883126.973 9  19996697.37549
  23388874.195 1  23388891.633 6 122909369.112 1  95773599.085 6                
 23 03 10 03 00 18.0000000  0  6G04G08G16G26G27G31                  
  21401919.320 6  21401929.430 9 112467841.122 6  87637318.861 9  21401929.74647
  21091552.305 6  21091567.004 9 110836856.953 6  86366572.636 9  21091566.18049
  21363377.438 6                 112265303.376 6  87479487.55347  21363385.60547
  22780431.836 5  22780448.277 8 119711962.490 5  93281888.871 8  22780447.96947
  19996737.938 7  19996748.215 9 105083561.153 7  81883333.815 9  19996748.02749
  23389327.633 1  23389346.305 6 122911754.698 1  95775457.964 6                
 23 03 10 03 00 19.0000000  0  6G04G08G16G26G27G31                  
  21401865.313 6  21401875.816 9 112467558.503 6  87637098.635 9  21401875.79747
  21091198.703 6  21091213.281 9 110834998.835 6  86365124.754 9  21091212.64149
  21363644.992 6                 112266706.221 6  87480580.67847  21363652.55547
  22780832.734 5  22780849.363 8 119714070.126 5  93283531.179 8  22780849.18847
  19996788.477 7  19996798.832 9 105083827.503 7  81883541.358 9  19996798.70349
  23389781.711 1  23389800.672 6 122914140.775 1  95777317.222 6                
 23 03 10 03 00 20.0000000  0  6G04G08G16G26G27G31                  
  21401811.883 6  21401822.102 9 112467276.584 6  87636878.959 9  21401821.98447
  21090845.547 6  21090859.828 9 110833141.313 6  86363677.342 9  21090859.19149
  21363911.766 6                 112268109.295 6  87481673.97947  21363919.48847
  22781234.070 5  22781250.469 8 119716177.802 5  93285173.514 8  22781250.22747
  19996839.203 7  19996849.613 9 105084094.607 7  81883749.491 9  19996849.46149
  23390235.000 1  23390255.309 6 122916527.130 1  95779176.705 6                
 23 03 10 03 00 21.0000000  0  6G04G08G16G26G27G31                  
  21401757.953 6  21401768.695 9 112466995.441 6  87636659.886 9  21401768.66847
  21090492.305 6  21090506.578 9 110831284.484 6  86362230.461 9  21090505.73449
  21364178.445 6                 112269512.604 6  87482767.46547  21364186.63347
  22781635.195 5  22781651.449 9 119718285.599 5  93286815.940 9  22781651.34847
  19996890.453 7  19996900.641 9 105084362.500 7  81883958.240 9  19996900.46149
  23390689.133 1  23390710.063 6 122918913.987 1  95781036.572 6                
 23 03 10 03 00 22.0000000  0  6G04G08G16G26G27G31                  
  21401705.242 6  21401715.473 9 112466714.951 6  87636441.313 9  21401715.19547
  21090139.211 6  21090153.168 9 110829428.133 6  86360783.958 9  21090152.75049
  21364445.633 6                 112270916.046 6  87483861.05147  21364453.63347
  22782036.445 5  22782052.660 9 119720393.384 5  93288458.364 9  22782052.52747
  19996941.297 7  19996951.961 9 105084631.063 7  81884167.505 9  19996951.67249
  23391143.438 1  23391164.859 6 122921301.078 1  95782896.612 6                
 23 03 10 03 00 23.0000000  0  6G04G08G16G26G27G31                  
  21401651.578 6  21401662.223 9 112466435.148 6  87636223.284 9  21401662.00447
  21089785.719 6  21089800.223 9 110827572.376 6  86359337.917 9  21089799.47349
  21364712.703 6                 112272319.673 6  87484954.77947  21364720.88347
  22782436.977 5  22782453.844 9 119722501.201 5  93290100.804 9  22782453.37147
  19996992.523 7  19997002.988 9 105084900.373 7  81884377.358 9  19997002.95749
  23391598.563 1  23391619.891 6 122923688.487 1  95784756.897 6                
 23 03 10 03 00 24.0000000  0  6G04G08G16G26G27G31                  
  21401598.695 6  21401608.844 9 112466156.195 6  87636005.910 9  21401608.76247
  21089432.688 6  21089447.211 9 110825717.395 6  86357892.479 9  21089446.63349
  21364979.734 6                 112273723.643 6  87486048.77648  21364988.16448
  22782838.602 5  22782854.980 9 119724609.177 5  93291743.372 9  22782854.65247
  19997044.398 7  19997054.289 9 105085170.574 7  81884587.903 9  19997054.28149
  23392053.297 1  23392075.129 6 122926076.441 1  95786617.638 6                
 23 03 10 03 00 25.0000000  0  6G04G08G16G26G27G31                  
  21401545.734 6  21401555.898 9 112465878.144 6  87635789.245 9  21401555.94947
  21089079.367 6  21089094.402 9 110823863.226 6  86356447.675 9  21089093.72349
  21365247.430 6                 112275127.978 6  87487143.06347  21365255.32847
  22783239.789 5  22783255.957 9 119726717.464 5  93293386.184 9  22783255.98047
  19997095.836 7  19997106.066 9 105085441.703 7  81884799.172 9  19997106.02349
  23392507.445 1  23392530.094 6 122928464.851 1  95788478.729 6                
 23 03 10 03 00 26.0000000  0  6G04G08G16G26G27G31                  
  21401493.445 6  21401503.148 9 112465600.837 6  87635573.160 9  21401503.23447
  21088727.273 6  21088741.602 9 110822009.667 6  86355003.348 9  21088741.01649
  21365514.313 6                 112276532.565 6  87488237.54347  21365522.75847
  22783640.953 5  22783657.121 9 119728825.775 5  93295029.018 9  22783657.31647
  19997147.820 7  19997157.805 9 105085713.611 7  81885011.045 9  19997157.75049
  23392961.945 1  23392985.355 6 122930853.676 1  95790340.146 6                
 23 03 10 03 00 27.0000000  0  6G04G08G16G26G27G31                  
  21401440.836 6  21401450.457 9 112465324.186 6  87635357.581 9  21401450.56347
  21088374.555 6  21088389.188 9 110820156.697 6  86353559.476 9  21088388.43849
  21365781.664 6                 112277937.312 6  87489332.15048  21365790.18448
  22784042.313 5  22784058.219 9 119730934.121 5  93296671.877 9  22784058.68447
  19997199.500 7  19997209.496 9 105085986.235 7  81885223.476 9  19997209.55549
  23393416.289 1  23393441.051 6 122933242.819 1  95792201.829 6                
 23 03 10 03 00 28.0000000  0  6G04G08G16G26G27G31                  
  21401388.148 6  21401398.027 9 112465048.192 6  87635142.518 9  21401397.98047
  21088021.961 6  21088036.547 9 110818304.243 6  86352116.006 9  21088035.94949
  21366049.234 6                 112279342.178 6  87490426.84948  21366057.45348
  22784442.813 5  22784459.613 9 119733042.468 5  93298314.727 9  22784459.87147
  19997251.281 7  19997261.723 9 105086259.515 7  81885436.420 9  19997261.62149
  23393869.688 1  23393896.531 6 122935632.280 1  95794063.747 6                
 23 03 10 03 00 29.0000000  0  6G04G08G16G26G27G31                  
  21401335.461 6  21401345.727 9 112464772.866 6  87634927.969 9  21401345.59447
  21087669.578 6  21087684.254 9 110816452.375 6  86350672.997 9  21087683.56649
  21366316.359 6                 112280747.241 6  87491521.70248  21366324.95348
  22784843.922 5  22784860.957 9 119735150.828 5  93299957.598 9  22784861.06347
  19997303.469 7  19997313.676 9 105086533.531 7  81885649.938 9  19997313.79749
  23394325.320 1  23394351.855 6 122938021.933 1  95795925.795 6                
 23 03 10 03 00 30.0000000  0  6G04G08G16G26G27G31                  
  21401283.516 6  21401293.449 9 112464498.220 6  87634713.955 9  21401293.27347
  21087317.492 6  21087331.980 9 110814601.068 6  86349230.422 9  21087331.28549
  21366584.117 6                 112282152.448 6  87492616.66047  21366592.35247
  22785244.781 5  22785262.000 8 119737259.194 5  93301600.464 8  22785262.33247
  19997355.539 7  19997366.012 9 105086808.228 7  81885863.979 9  19997366.06649
  23394779.875 1  23394807.355 6 122940411.962 1  95797788.122 6                
 23 03 10 03 00 31.0000000  0  6G04G08G16G26G27G31                  
  21401231.195 6  21401241.266 9 112464224.421 6  87634500.598 9  21401240.92247
  21086965.492 6  21086979.895 9 110812750.498 6  86347788.419 9  21086979.04349
  21366851.383 6                 112283557.977 6  87493711.87947  21366859.80947
  22785647.180 5  22785663.270 8 119739367.734 5  93303243.479 8  22785663.54747
  19997408.242 7  19997418.637 9 105087083.833 7  81886078.735 9  19997418.52049
  23395234.172 1  23395263.145 6 122942802.438 1  95799650.821 6                
 23 03 10 03 00 32.0000000  0  6G04G08G16G26G27G31                  
  21401179.430 6  21401189.063 9 112463951.316 6  87634287.791 9  21401188.99647
  21086613.383 6  21086627.883 9 110810900.530 6  86346346.886 9  21086626.97749
  21367119.211 6                 112284963.704 6  87494807.24647  21367127.28947
  22786047.609 5  22786064.492 9 119741476.328 5  93304886.529 9  22786064.69947
  19997460.914 7  19997470.941 9 105087360.153 7  81886294.050 9  19997471.10549
  23395689.438 1  23395718.738 6 122945193.260 1  95801513.781 6                
 23 03 10 03 00 33.0000000  0  6G04G08G16G26G27G31                  
  21401128.047 6  21401137.516 9 112463678.949 6  87634075.551 9  21401137.14847
  21086261.344 6  21086275.707 9 110809051.182 6  86344905.837 9  21086275.16849
  21367386.992 6                 112286369.657 6  87495902.80047  21367394.88347
  22786449.273 5  22786465.707 9 119743585.010 5  93306529.649 9  22786465.93047
  19997513.328 7  19997523.883 9 105087637.262 7  81886509.981 9  19997523.95349
  23396144.414 1  23396174.742 6 122947584.475 1  95803377.056 6                
 23 03 10 03 00 34.0000000  0  6G04G08G16G26G27G31                  
  21401076.172 6  21401085.816 9 112463407.352 6  87633863.915 9  21401085.50847
  21085909.391 6  21085924.035 9 110807202.482 6  86343465.295 9  21085923.34449
  21367653.859 6                 112287775.877 6  87496998.54747  21367662.42247
  22786850.539 5  22786867.176 9 119745693.771 5  93308172.824 9  22786867.21547
  19997566.086 7  19997576.824 9 105087915.175 7  81886726.539 9  19997576.79349
  23396599.422 1  23396630.520 6 122949976.075 1  95805240.627 6                
 23 03 10 03 00 35.0000000  0  6G04G08G16G26G27G31                  
  21401024.508 6  21401034.129 9 112463136.556 6  87633652.904 9  21401034.09047
  21085557.547 6  21085572.094 9 110805354.490 6  86342025.305 9  21085571.74649
  21367921.789 6                 112289182.358 6  87498094.50447  21367930.00847
  22787252.406 5  22787268.523 9 119747802.718 5  93309816.146 9  22787268.38347
  19997619.375 7  19997629.781 9 105088193.916 7  81886943.731 9  19997629.77049
  23397054.414 1  23397086.063 6 122952368.108 1  95807104.582 6                
 23 03 10 03 00 36.0000000  0  6G04G08G16G26G27G31                  
  21400973.164 6  21400982.992 9 112462866.586 6  87633442.533 9  21400982.70747
  21085206.625 6  21085220.828 9 110803507.226 6  86340585.864 9  21085220.14849
  21368189.641 6                 112290589.167 6  87499190.71348  21368197.79748
  22787653.344 5  22787669.703 9 119749911.784 5  93311459.567 9  22787669.74247
  19997672.750 7  19997683.129 9 105088473.500 7  81887161.586 9  19997683.07049
  23397509.391 1  23397541.570 6 122954760.615 1  95808968.888 6                
 23 03 10 03 00 37.0000000  0  6G04G08G16G26G27G31                  
  21400921.891 6  21400931.652 9 112462597.357 6  87633232.744 9  21400931.61747
  21084854.945 6  21084869.434 9 110801660.605 6  86339146.947 9  21084868.68049
  21368457.492 6                 112291996.222 6  87500287.11548  21368465.57448
  22788054.266 5  22788071.258 9 119752020.978 5  93313103.085 9  22788071.10247
  19997725.734 7  19997736.441 9 105088753.902 7  81887380.089 9  19997736.40249
  23397966.203 1  23397997.266 5 122957153.496 1  95810833.544 5                
 23 03 10 03 00 38.0000000  0  6G04G08G16G26G27G31                  
  21400871.203 6  21400880.223 9 112462328.843 6  87633023.515 9  21400880.43847
  21084503.664 6  21084518.086 9 110799814.588 6  86337708.490 9  21084517.36349
  21368724.945 6                 112293403.484 6  87501383.68348  21368733.30148
  22788456.180 5  22788472.496 9 119754130.218 5  93314746.646 9  22788472.52747
  19997779.031 7  19997790.094 9 105089035.035 7  81887599.151 9  19997789.98849
  23398421.992 1  23398452.520 5 122959546.728 1  95812698.433 5                
 23 03 10 03 00 39.0000000  0  6G04G08G16G26G27G31                  
  21400819.992 6  21400829.637 9 112462061.110 6  87632814.888 9  21400829.33247
  21084152.539 6  21084166.941 9 110797969.202 6  86336270.526 9  21084166.19549
  21368992.648 6                 112294810.979 6  87502480.42247  21369001.24247
  22788856.648 5  22788873.809 9 119756239.562 5  93316390.275 9  22788874.01247
  19997833.102 7  19997843.605 9 105089316.972 7  81887818.838 9  19997843.62949
  23398877.484 1                                                                
 23 03 10 03 00 40.0000000  0  6G04G08G16G26G27G31                  
  21400769.148 6  21400778.977 9 112461794.195 6  87632606.895 9  21400778.37947
  21083801.180 6  21083815.891 9 110796124.548 6  86334833.136 9  21083815.05549
  21369260.609 6                 112296218.802 6  87503577.42948  21369269.04748
  22789258.398 5  22789275.102 9 119758349.098 5  93318034.061 9  22789275.32047
  19997886.844 7  19997897.559 9 105089599.789 7  81888039.213 9  19997897.41049
  23399332.852 1                 122964334.37511                                
 23 03 10 03 00 41.0000000  0  6G04G08G16G26G27G31                  
  21400717.930 6  21400728.121 9 112461528.103 6  87632399.550 9  21400727.75047
  21083450.258 6  21083464.945 9 110794280.652 6  86333396.326 9  21083464.28949
  21369528.531 6                 112297626.922 6  87504674.65847  21369536.98447
  22789659.875 5  22789676.785 9 119760458.768 5  93319677.942 9  22789676.68447
  19997940.531 7  19997951.359 9 105089883.433 7  81888260.227 9  19997951.45349
  23399788.789 1                 122966728.976 1                                
 23 03 10 03 00 42.0000000  0  6G04G08G16G26G27G31                  
  21400667.898 6  21400677.672 9 112461262.627 6  87632192.681 9  21400677.19947
  21083099.539 6  21083114.152 9 110792437.250 6  86331959.919 9  21083113.25049
  21369796.570 6                 112299035.167 6  87505771.99347  21369805.13347
  22790061.508 5  22790078.242 8 119762568.409 5  93321321.810 8  22790078.04747
  19997994.984 7  19998005.672 9 105090167.755 7  81888481.776 9  19998005.45749
  23400244.117 1                 122969123.792 1                                
 23 03 10 03 00 43.0000000  0  6G04G08G16G26G27G31                  
  21400617.688 6  21400627.297 9 112460997.867 6  87631986.372 9  21400626.72347
  21082748.961 6  21082763.570 9 110790594.421 6  86330523.945 9  21082762.74649
  21370064.711 6                 112300443.579 6  87506869.45447  21370073.22747
  22790462.797 5  22790479.578 8 119764678.063 5  93322965.689 8  22790479.53947
  19998049.125 7  19998059.914 9 105090452.799 7  81888703.893 9  19998059.69549
  23400699.938 1                 122971518.890 1                                
 23 03 10 03 00 44.0000000  0  6G04G08G16G26G27G31                  
  21400567.523 6  21400577.117 9 112460733.802 6  87631780.607 9  21400576.41047
  21082398.570 6  21082412.855 9 110788752.218 6  86329088.469 9  21082411.98449
  21370332.945 6                 112301852.213 6  87507967.08747  21370341.18847
  22790864.188 5  22790881.070 8 119766787.831 5  93324609.656 8  22790880.99647
  19998103.578 7  19998114.172 9 105090738.588 7  81888926.584 9  19998114.07849
  23401155.547 1                 122973914.391 1                                
 23 03 10 03 00 45.0000000  0  6G04G08G16G26G27G31                  
  21400516.758 6  21400527.105 9 112460470.419 6  87631575.369 9  21400526.11747
  21082048.234 6  21082062.273 9 110786910.617 6  86327653.448 9  21082061.55949
  21370600.766 6                 112303261.011 6  87509064.85347  21370609.32847
  22791265.695 5  22791282.609 9 119768897.583 5  93326253.612 9  22791282.43447
  19998158.477 7  19998168.672 9 105091025.115 7  81889149.848 9  19998168.66049
  23401611.453 1                 122976310.174 1                                
 23 03 10 03 00 46.0000000  0  6G04G08G16G26G27G31                  
  21400467.523 6  21400477.168 9 112460207.857 6  87631370.773 9  21400476.19547
  21081697.375 6  21081712.133 9 110785069.674 6  86326218.955 9  21081711.39549
  21370868.945 6                 112304670.078 6  87510162.82147  21370877.37147
  22791667.289 5  22791684.184 9 119771007.489 5  93327897.687 9  22791683.89147
  19998212.953 7  19998223.418 9 105091312.469 7  81889373.753 9  19998223.31649
  23402067.633 1                 122978706.402 1                                
 23 03 10 03 00 47.0000000  0  6G04G08G16G26G27G31                  
  21400417.227 6  21400427.215 9 112459946.018 6  87631166.737 9  21400426.44947
  21081347.523 6  21081361.969 9 110783229.407 6  86324784.978 9  21081361.00449
  21371137.250 6                 112306079.382 6  87511260.97647  21371145.55947
  22792069.117 5  22792085.715 9 119773117.493 5  93329541.839 9  22792085.52047
  19998267.609 7  19998278.414 9 105091600.604 7  81889598.282 9  19998278.10549
  23402523.594 1                 122981102.981 1                                
 23 03 10 03 00 48.0000000  0  6G04G08G16G26G27G31                  
  21400367.773 6  21400377.477 9 112459684.997 6  87630963.347 9  21400376.94147
  21080997.594 6  21081011.828 9 110781389.818 6  86323351.535 9  21081010.91449
  21371405.313 6                 112307489.014 6  87512359.38947  21371413.77747
  22792470.398 5  22792487.113 9 119775227.660 5  93331186.118 9  22792487.13747
  19998322.695 7  19998333.219 9 105091889.583 7  81889823.454 9  19998333.21949
  23402979.945 1                 122983500.077 1                                
 23 03 10 03 00 49.0000000  0  6G04G08G16G26G27G31                  
  21400318.617 6  21400327.926 9 112459424.701 6  87630760.511 9  21400327.43847
  21080647.336 6  21080661.840 9 110779550.826 6  86321918.549 9  21080661.09049
  21371673.836 6                 112308898.819 6  87513457.93847  21371682.12547
  22792871.969 5  22792888.762 9 119777337.834 5  93332830.403 9  22792888.71947
  19998377.602 7  19998388.426 9 105092179.314 7  81890049.215 9  19998388.28149
  23403436.070 1                 122985897.510 1                                
 23 03 10 03 00 50.0000000  0  6G04G08G16G26G27G31                  
  21400268.867 6  21400278.512 9 112459165.171 6  87630558.283 9  21400278.05947
  21080297.852 6  21080311.855 9 110777712.489 6  86320486.082 9  21080311.28549
  21371942.078 6                 112310308.869 6  87514556.67348  21371950.46548
  22793273.648 5  22793290.234 9 119779448.130 5  93334474.777 9  22793290.06647
  19998433.125 7  19998443.758 9 105092469.833 7  81890275.592 9  19998443.50849
  23403892.508 1                 122988295.318 1                                
 23 03 10 03 00 51.0000000  0  6G04G08G16G26G27G31                  
  21400219.852 6  21400229.281 9 112458906.180 6  87630356.468 9  21400228.58247
  21079948.141 6  21079962.246 9 110775874.594 6  86319053.960 9  21079961.36349
  21372210.227 6                 112311718.979 6  87515655.45448  21372218.85248
  22793675.250 5  22793691.816 9 119781558.344 5  93336119.097 9  22793691.49647
  19998488.461 7  19998499.070 9 105092760.951 7  81890502.439 9  19998499.05949
  23404348.391 1                 122990693.263 1                                
 23 03 10 03 00 52.0000000  0  6G04G08G16G26G27G31                  
  21400170.227 6  21400180.168 9 112458647.879 6  87630155.188 9  21400179.40247
  21079598.008 6  21079612.695 9 110774037.293 6  86317622.299 9  21079611.85549
  21372478.852 6                 112313129.252 6  87516754.36847  21372487.22747
  22794076.359 5  22794093.711 9 119783668.564 5  93337763.413 9  22794092.98447
  19998543.695 7  19998554.594 9 105093052.782 7  81890729.838 9  19998554.48049
  23404804.594 1                 122993091.609 1                                
 23 03 10 03 00 53.0000000  0  6G04G08G16G26G27G31                  
  21400121.352 6  21400131.027 9 112458390.271 6  87629954.459 9  21400130.47747
  21079248.773 6  21079263.063 9 110772200.625 6  86316191.130 9  21079262.31649
  21372747.117 6                 112314539.720 6  87517853.43347  21372755.62147
  22794478.242 5  22794495.258 8 119785778.843 5  93339407.777 8  22794494.54347
  19998599.484 6  19998610.371 9 105093345.359 6  81890957.813 9  19998610.18449
  23405261.953 1                 122995490.274 1                                
 23 03 10 03 00 54.0000000  0  7G04G08G16G26G27G28G31               
  21400072.727 6  21400082.344 9 112458133.544 6  87629754.408 9  21400081.66047
  21078899.578 6  21078913.590 9 110770364.717 6  86314760.549 9  21078912.83649
  21373015.352 6                 112315950.544 6  87518952.77847  21373023.87947
  22794879.914 5  22794896.758 8 119787889.313 5  93341052.293 8  22794896.19147
  19998655.328 6  19998666.152 9 105093638.839 6  81891186.500 9  19998665.98049
  23993448.383 1                                                                
  23405718.742 1                 122997889.375 1                                
 23 03 10 03 00 55.0000000  0  7G04G08G16G26G27G28G31               
  21400024.063 6  21400033.570 9 112457877.470 6  87629554.863 9  21400032.96947
  21078550.031 6  21078564.477 9 110768529.316 6  86313330.371 9  21078563.75849
  21373284.164 6                 112317361.495 6  87520052.22048  21373292.40248
  22795281.859 5  22795298.414 8 119789999.787 5  93342696.811 8  22795297.91047
  19998711.781 7  19998722.074 9 105093932.986 7  81891415.709 9  19998721.92249
  23993983.469 1                 126089245.754 1                                
  23406174.867 1                 123000288.848 1                                
 23 03 10 03 00 56.0000000  0  7G04G08G16G26G27G28G31               
  21399975.531 6  21399985.172 9 112457622.128 6  87629355.893 9  21399984.52047
  21078201.070 6  21078215.324 9 110766694.563 6  86311900.699 9  21078214.52349
  21373553.039 6                 112318772.686 6  87521151.84248  21373560.87548
  22795683.570 5  22795699.992 8 119792110.344 5  93344341.396 8  22795699.50447
  19998767.648 7  19998778.090 9 105094227.934 7  81891645.530 9  19998778.07849
  23994517.148 1                 126092054.651 1                                
  23406631.422 1                 123002688.627 1                                
 23 03 10 03 00 57.0000000  0  7G04G08G16G26G27G28G31               
  21399926.672 6  21399936.641 9 112457367.708 6  87629157.650 9  21399936.15647
  21077852.375 6  21077866.379 9 110764860.601 6  86310471.638 9  21077865.58649
  21373821.148 6                 112320184.271 6  87522251.77748  21373829.44948
  22796085.141 5  22796101.504 8 119794221.141 5  93345986.157 8  22796100.98847
  19998823.938 7  19998834.375 9 105094523.796 7  81891876.074 9  19998834.35549
  23995051.094 1                 126094864.095 1                                
  23407088.633 1                 123005089.004 1                                
 23 03 10 03 00 58.0000000  0  7G04G08G16G26G27G28G31               
  21399878.500 6  21399888.402 9 112457113.938 6  87628959.903 9  21399887.75447
  21077503.211 6  21077517.391 9 110763027.182 6  86309042.995 9  21077516.57849
  21374090.195 6                 112321595.996 6  87523351.82348  21374098.03948
  22796486.461 5  22796503.063 8 119796331.943 5  93347630.938 8  22796502.59447
  19998880.484 7  19998891.039 9 105094820.366 7  81892107.168 9  19998890.78149
  23995584.188 1                 126097673.813 1                                
  23407545.383 1                 123007489.621 1                                
 23 03 10 03 00 59.0000000  0  7G04G08G16G26G27G28G31               
  21399830.063 6  21399840.215 9 112456860.988 6  87628762.787 9  21399839.50447
  21077154.336 6  21077168.613 9 110761194.492 6  86307614.933 9  21077167.77349
  21374358.719 6                 112323008.014 6  87524452.08748  21374366.84448
  22796888.789 5  22796904.652 8 119798442.927 5  93349275.853 8  22796904.25047
  19998937.086 6  19998947.660 9 105095117.801 6  81892338.934 9  19998947.24249
  23996117.766 1                                                                
  23408002.961 2                 123009890.763 2                                
 23 03 10 03 01 00.0000000  0  7G04G08G16G26G27G28G31               
  21399782.516 6  21399792.234 9 112456608.745 6  87628566.231 9  21399791.44947
  21076805.633 6  21076820.125 9 110759362.422 6  86306187.348 9  21076819.24649
  21374627.313 6                 112324420.276 6  87525552.55147  21374635.56647
  22797289.961 5  22797306.336 9 119800553.943 5  93350920.788 9  22797306.17247
  19998993.938 6  19999004.215 9 105095415.979 6  81892571.271 9  19999004.13349
  23996649.547 1                                                                
  23408459.508 1                 123012292.222 1                                
 23 03 10 03 01 01.0000000  0  6G04G08G16G26G27G31                  
  21399734.266 6  21399744.121 9 112456357.158 6  87628370.189 9  21399743.48847
  21076457.680 6  21076471.629 9 110757530.881 6  86304760.172 9  21076470.84049
  21374895.984 6                 112325832.635 6  87526653.08148  21374904.19948
  22797692.219 5  22797708.336 9 119802664.958 5  93352565.724 9  22797708.02347
  19999050.828 7  19999061.000 9 105095714.835 7  81892804.152 9  19999061.02749
  23408917.344 1                 123014693.874 1                                
 23 03 10 03 01 02.0000000  0  6G04G08G16G26G27G31                  
  21399686.750 6  21399696.430 9 112456106.181 6  87628174.622 9  21399695.80947
  21076108.844 6  21076123.109 9 110755699.822 6  86303333.383 9  21076122.19949
  21375165.023 6                 112327245.085 6  87527753.69448  21375173.02048
  22798094.188 5  22798110.316 9 119804775.895 5  93354210.602 9  22798109.70747
  19999107.922 7  19999117.969 9 105096014.291 7  81893037.491 9  19999117.96549
  23409373.539 1                 123017095.831 1                                
 23 03 10 03 01 03.0000000  0  6G04G08G16G26G27G31                  
  21399639.242 6  21399648.879 9 112455855.854 6  87627979.563 9  21399648.19947
  21075760.367 6  21075774.809 9 110753869.332 6  86301907.026 9  21075773.82049
  21375433.828 6                 112328657.705 6  87528854.42748  21375441.84848
  22798494.992 5  22798512.117 9 119806886.852 5  93355855.502 9  22798511.39147
  19999164.727 7  19999175.145 9 105096314.490 7  81893271.417 9  19999175.01649
  23409831.961 1                 123019498.104 1                                
 23 03 10 03 01 04.0000000  0  6G04G08G16G26G27G31                  
  21399591.938 6  21399601.730 9 112455606.271 6  87627785.079 9  21399600.72747
  21075412.445 6  21075426.609 9 110752039.496 6  86300481.185 9  21075425.66449
  21375702.039 6                 112330070.557 6  87529955.35248  21375710.72348
  22798897.242 5  22798914.008 9 119808997.917 5  93357500.475 9  22798913.06347
  19999222.141 7  19999232.320 9 105096615.479 7  81893505.953 9  19999232.18049
  23410287.586 1                 123021900.737 1                                
 23 03 10 03 01 05.0000000  0  6G04G08G16G26G27G31                  
  21399543.977 6  21399553.965 9 112455357.500 6  87627591.234 9  21399553.34447
  21075064.125 6  21075078.688 9 110750210.333 6  86299055.857 9  21075077.81649
  21375971.695 6                 112331483.692 6  87531056.49547  21375979.68447
  22799298.508 5  22799315.680 8 119811109.102 5  93359145.544 8  22799314.85247
  19999279.383 7  19999289.848 9 105096917.271 7  81893741.115 9  19999289.64149
  23410744.492 1                 123024303.843 1                                
 23 03 10 03 01 06.0000000  0  6G04G08G16G26G27G31                  
  21399496.938 6  21399506.977 9 112455109.310 6  87627397.829 9  21399506.18047
  21074716.344 6  21074730.527 9 110748381.681 6  86297630.945 9  21074729.61349
  21376240.453 6                 112332896.884 6  87532157.68047  21376248.50447
  22799700.273 5  22799717.309 8 119813220.212 5  93360790.546 8  22799716.49647
  19999337.195 7  19999347.316 9 105097219.713 7  81893976.785 9  19999347.17649
  23411202.328 1  23411224.336 6 123026707.149 1  95865049.34516                
 23 03 10 03 01 07.0000000  0  6G04G08G16G26G27G31                  
  21399450.023 6  21399459.867 9 112454861.933 6  87627205.072 9  21399459.23447
  21074368.469 6  21074382.828 9 110746553.745 6  86296206.571 9  21074381.87949
  21376509.398 6                 112334310.392 6  87533259.11247  21376517.57847
  22800102.453 5  22800118.848 8 119815331.474 5  93362435.685 8  22800118.19547
  19999394.734 7  19999405.133 9 105097522.981 7  81894213.096 9  19999404.87149
  23411658.805 1  23411681.609 6 123029110.857 1  95866922.360 6                
 23 03 10 03 01 08.0000000  0  6G04G08G16G26G27G31                  
  21399403.195 6  21399412.926 9 112454615.225 6  87627012.829 9  21399412.30147
  21074020.656 6  21074034.992 9 110744726.376 6  86294782.651 9  21074034.15649
  21376778.070 6                 112335724.055 6  87534360.66447  21376786.60947
  22800504.117 5  22800520.688 8 119817442.761 5  93364080.834 8  22800519.96947
  19999452.758 7  19999463.078 9 105097826.935 7  81894449.941 9  19999462.62949
  23412117.289 1  23412139.223 6 123031514.856 1  95868795.595 6                
 23 03 10 03 01 09.0000000  0  6G04G08G16G26G27G31                  
  21399356.477 6  21399365.992 9 112454369.301 6  87626821.191 9  21399365.57047
  21073672.766 6  21073687.484 9 110742899.692 6  86293359.261 9  21073686.47749
  21377047.445 6                 112337137.987 6  87535462.42547  21377055.56647
  22800906.008 5  22800922.613 8 119819554.184 5  93365726.089 8  22800921.70747
  19999510.875 7  19999520.910 9 105098131.760 7  81894687.465 9  19999520.64849
  23412574.484 1  23412596.754 7 123033919.340 1  95870669.218 7                
 23 03 10 03 01 10.0000000  0  6G04G08G16G26G27G31                  
  21399309.594 6  21399319.281 9 112454124.230 6  87626630.235 9  21399318.98847
  21073325.711 6  21073339.930 9 110741073.774 6  86291936.473 9  21073338.99649
  21377317.000 6                 112338552.238 6  87536564.43847  21377324.68847
  22801308.063 5  22801324.484 8 119821665.775 5  93367371.472 8  22801323.52347
  19999569.086 7  19999578.922 9 105098437.422 7  81894925.640 9  19999578.69149
  23413031.984 1  23413054.039 6 123036324.274 1  95872543.187 6                
 23 03 10 03 01 11.0000000  0  6G04G08G16G26G27G31                  
  21399263.461 6  21399273.117 9 112453880.014 6  87626439.931 9  21399272.52047
  21072978.516 6  21072992.781 9 110739248.575 6  86290514.230 9  21072991.84049
  21377585.625 6                 112339966.833 6  87537666.71948  21377593.74248
  22801709.430 5  22801726.059 8 119823777.544 5  93369016.990 8  22801725.46147
  19999627.336 7  19999637.375 9 105098743.997 7  81895164.526 9  19999636.96149
  23413489.383 1  23413511.996 7 123038729.711 1  95874417.564 7                
 23 03 10 03 01 12.0000000  0  6G04G08G16G26G27G31                  
  21399216.742 6  21399226.613 9 112453636.710 6  87626250.333 9  21399226.35947
  21072630.797 6  21072645.656 9 110737424.170 6  86289092.619 9  21072644.73449
  21377855.469 6                 112341381.838 6  87538769.31448  21377862.83248
  22802111.781 5  22802128.043 9 119825889.586 5  93370662.738 9  22802127.42247
  19999685.844 7  19999695.789 9 105099051.505 7  81895404.145 9  19999695.48849
  23413947.625 1  23413969.773 7 123041135.674 1  95876292.342 7                
 23 03 10 03 01 13.0000000  0  6G04G08G16G26G27G31                  
  21399170.680 6  21399180.543 9 112453394.020 6  87626061.220 9  21399180.18847
  21072284.023 6  21072298.359 9 110735600.289 6  86287671.419 9  21072297.52749
  21378124.445 6                 112342796.953 6  87539871.99748  21378132.27748
  22802512.961 5  22802530.191 9 119828001.620 5  93372308.468 9  22802529.32047
  19999744.508 7  19999754.309 9 105099359.662 7  81895644.262 9  19999754.15249
  23414406.133 1  23414427.258 7 123043541.92811  95878167.34717                
 23 03 10 03 01 14.0000000  0  6G04G08G16G26G27G31                  
  21399124.891 6  21399134.555 9 112453151.954 6  87625872.599 9  21399133.97347
  21071936.859 6  21071951.477 9 110733776.906 6  86286250.606 9  21071950.52349
  21378394.023 6                 112344212.176 6  87540974.76548  21378401.48048
  22802915.773 5  22802932.145 9 119830113.582 5  93373954.138 9  22802931.09047
  19999803.234 7  19999812.992 9 105099668.502 7  81895884.908 9  19999812.93049
  23414863.914 1  23414884.941 6 123045948.336 1  95880042.462 6                
 23 03 10 03 01 15.0000000  0  6G04G08G16G26G27G31                  
  21399078.602 6  21399088.648 9 112452910.618 6  87625684.543 9  21399088.06647
  21071590.219 6  21071604.738 9 110731954.148 6  86284830.271 9  21071603.74649
  21378663.086 6                 112345627.596 6  87542077.69348  21378670.75048
  22803316.844 5  22803333.949 9 119832225.621 5  93375599.872 9  22803332.83247
  19999862.352 7  19999872.055 9 105099978.074 7  81896126.136 9  19999871.86349
  23415320.102 1  23415342.563 6 123048355.217 1  95881917.946 6                
 23 03 10 03 01 16.0000000  0  6G04G08G16G26G27G31                  
  21399033.117 6  21399042.844 9 112452670.118 6  87625497.136 9  21399042.39847
  21071243.188 6  21071258.012 9 110730132.150 6  86283410.530 9  21071256.92249
  21378932.359 6                 112347043.360 6  87543180.87748  21378940.12148
  22803719.008 5  22803735.797 9 119834337.831 5  93377245.731 9  22803734.89147
  19999921.289 7  19999931.031 9 105100288.548 7  81896368.063 9  19999930.81649
  23415778.477 1  23415800.156 6 123050762.578 1  95883793.842 6                
 23 03 10 03 01 17.0000000  0  6G04G08G16G26G27G31                  
  21398987.102 6  21398997.297 9 112452430.346 6  87625310.300 9  21398996.78147
  21070897.070 6  21070911.188 9 110728310.741 6  86281991.252 9  21070910.37549
  21379201.969 6                 112348459.305 6  87544284.20247  21379209.69547
  22804120.773 5  22804137.707 8 119836450.106 5  93378891.650 8  22804136.97747
  19999980.859 7  19999990.418 9 105100599.759 7  81896610.564 9  19999989.91849
  23416237.023 1  23416257.809 6 123053170.082 1  95885669.836 6                
 23 03 10 03 01 18.0000000  0  6G04G08G16G26G27G31                  
  21398941.695 6  21398951.621 9 112452191.262 6  87625123.989 9  21398951.19547
  21070550.602 6  21070564.840 9 110726489.922 6  86280572.429 9  21070563.85249
  21379471.438 6                 112349875.449 6  87545387.69047  21379479.35247
  22804522.781 5  22804539.574 8 119838562.438 5  93380537.616 8  22804538.98047
  20000040.109 7  20000049.629 9 105100911.712 7  81896853.639 9  20000049.30149
  23416694.570 1  23416715.512 6 123055578.179 1  95887546.286 6                
 23 03 10 03 01 19.0000000  0  6G04G08G16G26G27G31                  
  21398896.469 6  21398906.523 9 112451952.973 6  87624938.303 9  21398905.97347
  21070203.977 6  21070218.516 9 110724669.771 6  86279154.134 9  21070217.64849
  21379740.734 6                 112351291.854 6  87546491.38747  21379748.82447
  22804925.141 5  22804941.785 8 119840674.862 5  93382183.656 8  22804941.07447
  20000099.492 7  20000109.254 9 105101224.473 7  81897097.347 9  20000108.64149
  23417152.125 1                                                                
 23 03 10 03 01 20.0000000  0  6G04G08G16G26G27G31                  
  21398851.156 6  21398861.242 9 112451715.253 6  87624753.063 9  21398860.91047
  21069857.391 6  21069872.332 9 110722850.129 6  86277736.227 9  21069871.47749
  21380010.234 6                 112352708.326 6  87547595.12347  21380018.33647
  22805326.984 5  22805343.742 8 119842787.234 5  93383829.649 8  22805343.03947
  20000159.023 7  20000168.762 9 105101537.823 7  81897341.519 9  20000168.30149
  23417610.531 1                                                                
 23 03 10 03 01 21.0000000  0  6G04G08G16G26G27G31                  
  21398805.852 6  21398816.156 9 112451478.357 6  87624568.465 9  21398815.87147
  21069511.719 6  21069526.375 9 110721031.164 6  86276318.855 9  21069525.23049
  21380280.047 6                 112354125.125 6  87548699.11647  21380287.90247
  22805728.430 5  22805746.012 8 119844899.763 5  93385475.760 8  22805745.00047
  20000218.805 7  20000228.301 9 105101852.052 7  81897586.367 9  20000227.95749
  23418070.141 1                                                                
 23 03 10 03 01 22.0000000  0  6G04G08G16G26G27G31                  
  21398761.430 6  21398771.145 9 112451242.274 6  87624384.500 9  21398771.09847
  21069165.438 6  21069180.324 9 110719212.892 6  86274902.028 9  21069179.29749
  21380549.648 6                 112355542.188 6  87549803.31448  21380557.62148
  22806131.063 5  22806147.988 8 119847012.383 5  93387121.949 8  22806147.12947
  20000278.961 7  20000288.543 9 105102167.136 7  81897831.877 9  20000287.93849
  23418528.164 1                                                                
 23 03 10 03 01 23.0000000  0  6G04G08G16G26G27G31                  
  21398716.438 6  21398726.527 9 112451006.914 6  87624201.101 9  21398726.46147
  21068819.578 6  21068834.301 9 110717395.306 6  86273485.725 9  21068833.34449
  21380819.359 6                 112356959.486 6  87550907.70448  21380827.41848
  22806533.398 5  22806549.859 9 119849125.177 5  93388768.266 9  22806549.25047
  20000338.625 7  20000348.430 9 105102482.974 7  81898077.985 9  20000348.08649
  23418987.281 1                                                                
 23 03 10 03 01 24.0000000  0  6G04G08G16G26G27G31                  
  21398671.797 6  21398681.953 9 112450772.367 6  87624018.344 9  21398681.90647
  21068474.039 6  21068488.770 9 110715578.389 6  86272069.947 9  21068487.75049
  21381089.195 6                 112358377.090 6  87552012.32548  21381097.14548
  22806935.063 5  22806951.719 9 119851238.073 5  93390414.668 9  22806951.44547
  20000399.000 7  20000408.656 9 105102799.653 7  81898324.748 9  20000408.31349
  23419444.266 1                                                                
 23 03 10 03 01 25.0000000  0  6G04G08G16G26G27G31                  
  21398627.516 6  21398637.484 9 112450538.639 6  87623836.210 9  21398637.39147
  21068128.102 6  21068142.777 9 110713762.180 6  86270654.722 9  21068141.99249
  21381359.070 6                 112359794.979 6  87553117.17048  21381366.87548
  22807337.438 5  22807353.742 9 119853351.104 5  93392061.178 9  22807353.67647
  20000459.602 7  20000469.305 9 105103117.198 7  81898572.183 9  20000468.80949
  23419902.969 1  23419923.938 6 123072444.73411  95900689.18216                
 23 03 10 03 01 26.0000000  0  6G04G08G16G26G27G31                  
  21398583.219 6  21398592.898 9 112450305.506 6  87623654.540 9  21398592.94947
  21067782.523 6  21067797.324 9 110711946.441 6  86269239.869 9  21067796.52049
  21381628.461 6                 112361212.920 6  87554222.06648  21381636.53948
  22807739.422 5  22807755.992 9 119855464.064 5  93393707.632 9  22807755.71547
  20000520.203 7  20000529.582 9 105103435.330 7  81898820.078 9  20000529.20349
  23420362.813 1  23420383.059 7 123074855.749 1  95902567.897 7                
 23 03 10 03 01 27.0000000  0  6G04G08G16G26G27G31                  
  21398538.445 6  21398548.574 9 112450073.061 6  87623473.406 9  21398548.74247
  21067437.008 6  21067451.984 9 110710131.352 6  86267825.510 9  21067451.25449
  21381898.445 6                 112362631.067 6  87555327.11247  21381906.48047
  22808141.430 5  22808158.285 9 119857577.128 5  93395354.168 9  22808157.77347
  20000580.344 7  20000590.559 9 105103754.214 7  81899068.555 9  20000589.89549
  23420822.547 1  23420842.273 6 123077267.090 1  95904446.872 6                
 23 03 10 03 01 28.0000000  0  6G04G08G16G26G27G31                  
  21398494.625 6  21398504.629 9 112449841.245 6  87623292.771 9  21398504.64547
  21067091.906 6  21067106.652 9 110708316.760 6  86266411.551 9  21067105.88749
  21382168.867 6                 112364049.327 6  87556432.24747  21382176.43447
  22808543.164 5  22808560.129 9 119859690.097 5  93397000.633 9  22808559.80147
  20000641.281 7  20000651.203 9 105104073.761 7  81899317.552 9  20000650.66449
  23421281.391 1  23421301.621 7 123079678.621 1  95906325.974 7                
 23 03 10 03 01 29.0000000  0  6G04G08G16G26G27G31                  
  21398450.828 6  21398460.859 9 112449610.142 6  87623112.682 9  21398460.73447
  21066746.914 6  21066761.785 9 110706502.771 6  86264998.055 9  21066760.70349
  21382438.484 6                 112365467.776 6  87557537.51948  21382446.25448
  22808945.227 5  22808962.227 8 119861803.158 5  93398647.165 8  22808962.05147
  20000702.367 7  20000712.074 9 105104394.053 7  81899567.124 9  20000711.56349
  23421739.703 1  23421760.891 7 123082090.607 1  95908205.452 7                
 23 03 10 03 01 30.0000000  0  6G04G08G16G26G27G31                  
  21398406.656 6  21398416.859 9 112449379.818 6  87622933.202 9  21398416.85947
  21066402.133 6  21066416.605 9 110704689.447 6  86263585.080 9  21066415.76649
  21382708.117 6                 112366886.482 6  87558643.01147  21382716.13347
  22809347.195 5  22809364.504 8 119863916.285 5  93400293.757 8  22809364.13747
  20000763.484 7  20000773.195 9 105104715.146 7  81899817.322 9  20000772.66449
  23422199.344 1  23422220.672 7 123084502.955 1  95910085.218 7                
 23 03 10 03 01 31.0000000  0  6G04G08G16G26G27G31                  
  21398363.094 6  21398373.352 9 112449150.008 6  87622754.116 9  21398373.30547
  21066056.961 6  21066071.684 9 110702876.562 6  86262172.447 9  21066070.61749
  21382978.664 6                 112368305.189 6  87559748.48947  21382986.04347
  22809749.703 5  22809766.617 8 119866029.293 5  93401940.241 8  22809766.25047
  20000824.422 7  20000834.414 9 105105036.780 7  81900067.952 9  20000833.87949
  23422658.227 1  23422680.246 6 123086915.440 1  95911965.068 6                
 23 03 10 03 01 32.0000000  0  6G04G08G16G26G27G31                  
  21398319.453 6  21398329.695 9 112448921.027 6  87622575.681 9  21398329.69147
  21065711.852 6  21065726.711 9 110701064.399 6  86260760.367 9  21065725.99249
  21383248.258 6                 112369724.233 6  87560854.22948  21383256.16848
  22810152.000 5  22810168.590 8 119868142.490 5  93403586.888 8  22810168.20347
  20000885.750 7  20000895.906 9 105105359.285 7  81900319.245 9  20000895.18849
  23423117.820 1  23423139.801 7 123089328.325 1  95913845.236 7                
 23 03 10 03 01 33.0000000  0  6G04G08G16G26G27G31                  
  21398276.008 6  21398286.063 9 112448692.679 6  87622397.743 9  21398286.02747
  21065367.492 6  21065381.891 9 110699252.758 6  86259348.703 9  21065381.25849
  21383518.391 6                 112371143.365 6  87561960.04148  21383526.21148
  22810554.219 5  22810570.707 8 119870255.661 5  93405233.507 8  22810570.25047
  20000947.305 7  20000957.328 9 105105682.461 7  81900571.067 9  20000956.63349
  23423578.148 1  23423599.277 6 123091741.600 1  95915725.688 6                
 23 03 10 03 01 34.0000000  0  6G04G08G16G26G27G31                  
  21398231.961 6  21398242.621 9 112448465.230 6  87622220.514 9  21398242.65247
  21065022.633 6  21065037.621 9 110697441.907 6  86257937.658 9  21065036.65249
  21383788.344 6                 112372562.893 6  87563066.16848  21383796.28548
  22810956.242 5  22810973.160 9 119872369.029 5  93406880.280 9  22810972.53947
  20001009.102 7  20001019.152 9 105106006.568 7  81900823.619 9  20001018.40249
  23424036.805 1  23424058.449 7 123094155.347 1  95917606.506 7                
 23 03 10 03 01 35.0000000  0  6G04G08G16G26G27G31                  
  21398188.867 6  21398199.590 9 112448238.462 6  87622043.805 9  21398199.46547
  21064678.391 6  21064692.746 9 110695631.652 6  86256527.082 9  21064691.92649
  21384059.203 6                 112373982.591 6  87564172.42848  21384066.36348
  22811359.039 5  22811375.125 9 119874482.459 5  93408527.090 9  22811374.55947
  20001070.813 7  20001080.863 9 105106331.392 7  81901076.729 9  20001080.26249
  23424497.641 1  23424517.941 7 123096569.446 1  95919487.579 7                
 23 03 10 03 01 36.0000000  0  6G04G08G16G26G27G31                  
  21398146.195 6  21398156.820 9 112448012.354 6  87621867.610 9  21398156.44947
  21064333.734 6  21064348.313 9 110693821.970 6  86255116.938 9  21064347.57849
  21384329.000 6                 112375402.445 6  87565278.79348  21384336.64548
  22811760.203 5  22811777.492 9 119876595.892 5  93410173.905 9  22811776.69547
  20001132.742 7  20001142.797 9 105106656.922 7  81901330.378 9  20001142.03549
  23424955.477 1  23424977.324 7 123098983.828 1  95921368.918 7                
 23 03 10 03 01 37.0000000  0  6G04G08G16G26G27G31                  
  21398103.984 6  21398113.938 9 112447786.934 6  87621691.968 9  21398113.56647
  21063989.469 6  21064003.781 9 110692012.870 6  86253707.242 9  21064003.24249
  21384598.836 6                 112376822.457 6  87566385.30648  21384606.92248
  22812162.664 5  22812179.406 9 119878709.349 5  93411820.755 9  22812179.17247
  20001194.773 7  20001204.930 9 105106983.161 7  81901584.591 9  20001204.22349
  23425414.305 1  23425436.898 7 123101398.459 1  95923250.475 7                
 23 03 10 03 01 38.0000000  0  6G04G08G16G26G27G31                  
  21398060.641 6  21398071.121 9 112447562.236 6  87621516.868 9  21398071.00047
  21063645.398 6  21063659.664 9 110690204.365 6  86252298.021 9  21063658.97349
  21384869.156 6                 112378242.669 6  87567491.95348  21384876.87148
  22812564.609 5  22812581.805 9 119880822.841 5  93413467.612 9  22812581.39547
  20001256.695 7  20001267.051 9 105107310.138 7  81901839.379 9  20001266.52749
  23425876.258 1  23425895.957 6 123103813.484 1  95925132.359 6                
 23 03 10 03 01 39.0000000  0  6G04G08G16G26G27G31                  
  21398017.961 6  21398028.602 9 112447338.387 6  87621342.439 9  21398028.50847
  21063300.867 6  21063315.762 9 110688396.636 6  86250889.397 9  21063315.00449
  21385139.156 6                 112379663.229 6  87568598.88348  21385147.19548
  22812967.594 5  22812984.141 9 119882936.568 5  93415114.666 9  22812983.65647
  20001319.453 7  20001329.672 9 105107638.016 7  81902094.866 9  20001328.83249
  23426334.891 1  23426354.941 6 123106229.040 1  95927014.568 6                
 23 03 10 03 01 40.0000000  0  6G04G08G16G26G27G31                  
  21397974.656 6  21397986.176 9 112447115.371 6  87621168.644 9  21397986.04747
  21062957.461 6  21062971.941 9 110686589.606 6  86249481.333 9  21062971.01649
  21385409.680 6                 112381084.092 6  87569706.04748  21385417.57048
  22813370.477 5  22813386.082 8 119885050.423 5  93416761.812 8  22813386.00447
  20001381.531 7  20001392.262 9 105107966.758 7  81902351.025 9  20001391.32849
  23426794.344 1                                                                
 23 03 10 03 01 41.0000000  0  6G04G08G16G26G27G31                  
  21397932.547 6  21397943.773 9 112446892.948 6  87620995.319 9  21397943.57447
  21062613.180 6  21062628.004 9 110684783.047 6  86248073.633 9  21062627.27049
  21385680.203 6                 112382505.013 6  87570813.26047  21385687.99247
  22813772.656 5  22813788.379 8 119887164.203 5  93418408.912 8  22813788.00847
  20001444.672 7  20001454.738 9 105108296.095 7  81902607.652 9  20001454.02349
  23427256.320 1  23427273.605 6 123111061.14811  95930779.87716                
 23 03 10 03 01 42.0000000  0  6G04G08G16G26G27G31                  
  21397890.805 6  21397901.336 9 112446671.051 6  87620822.411 9  21397901.50447
  21062269.750 6  21062284.512 9 110682976.971 6  86246666.298 9  21062283.80549
  21385951.000 6                 112383925.984 6  87571920.50347  21385958.20747
  22814174.227 5  22814190.480 8 119889277.891 5  93420055.937 8  22814190.11747
  20001507.328 7  20001517.516 9 105108626.036 7  81902864.743 9  20001516.95749
  23427714.625 1                                                                
 23 03 10 03 01 43.0000000  0  6G04G08G16G26G27G31                  
  21397848.828 6  21397859.492 9 112446449.893 6  87620650.077 9  21397859.47347
  21061926.313 6  21061940.922 9 110681171.492 6  86245259.434 9  21061940.30149
  21386221.227 6                 112385347.168 6  87573027.91347  21386228.66847
  22814576.492 5  22814592.727 8 119891391.642 5  93421703.015 8  22814592.37546
  20001570.172 7  20001580.578 9 105108956.729 7  81903122.428 9  20001579.90649
  23428173.375 1  23428192.828 6 123115894.37711  95934545.94116                
 23 03 10 03 01 44.0000000  0  6G04G08G16G26G27G31                  
  21397806.570 6  21397817.664 9 112446229.611 6  87620478.427 9  21397817.71147
  21061582.367 6  21061597.664 9 110679366.751 6  86243853.148 9  21061596.68449
  21386491.258 6                 112386768.721 6  87574135.61847  21386499.16847
  22814978.953 5  22814994.871 8 119893505.610 5  93423350.247 8  22814994.60947
  20001633.383 7  20001643.473 9 105109288.326 7  81903380.813 9  20001642.98449
  23428632.305 1                                                                
 23 03 10 03 01 45.0000000  0  6G04G08G16G26G27G31                  
  21397764.656 6  21397775.727 9 112446009.957 6  87620307.269 9  21397775.78547
  21061239.461 6  21061254.094 9 110677562.560 6  86242447.282 9  21061253.25049
  21386761.914 6                 112388190.378 6  87575243.40448  21386769.76248
  22815380.641 5  22815397.348 8 119895619.555 5  93424997.478 8  22815396.93047
  20001696.969 7  20001706.797 9 105109620.599 7  81903639.721 9  20001706.34849
  23429091.305 1  23429112.430 6 123120729.10711  95938313.23516                
 23 03 10 03 01 46.0000000  0  6G04G08G16G26G27G31                  
  21397723.617 6  21397734.199 9 112445791.050 6  87620136.692 9  21397734.05147
  21060896.469 6  21060911.016 9 110675759.019 6  86241041.930 9  21060910.21949
  21387032.383 6                 112389612.246 6  87576351.34348  21387040.44548
  22815783.234 5  22815799.621 8 119897733.582 5  93426644.760 8  22815799.32447
  20001759.930 7  20001770.191 9 105109953.618 7  81903899.218 9  20001769.80149
  23429550.453 1  23429572.215 6 123123147.020 1  95940197.387 6                
 23 03 10 03 01 47.0000000  0  6G04G08G16G26G27G31                  
  21397681.797 6  21397692.570 9 112445572.705 6  87619966.541 9  21397692.40247
  21060553.094 6  21060567.793 9 110673955.938 6  86239636.934 9  21060567.01649
  21387303.422 6                 112391034.163 6  87577459.33147  21387311.18447
  22816184.789 5  22816202.184 8 119899847.514 5  93428291.972 8  22816201.60547
  20001823.195 7  20001833.633 9 105110287.269 7  81904159.205 9  20001833.34449
  23430010.484 1  23430032.223 6 123125565.121 1  95942081.621 6                
 23 03 10 03 01 48.0000000  0  6G04G08G16G26G27G31                  
  21397640.234 6  21397651.309 9 112445355.213 6  87619797.061 9  21397651.18847
  21060210.148 6  21060224.988 9 110672153.603 6  86238232.527 9  21060223.91449
  21387573.977 6                 112392456.425 6  87578567.58948  21387581.77348
  22816587.961 5  22816604.246 8 119901961.605 5  93429939.319 8  22816603.91847
  20001886.664 7  20001897.391 9 105110621.800 7  81904419.871 9  20001896.87549
  23430470.594 1  23430492.230 6 123127983.673 1  95943966.198 6                
 23 03 10 03 01 49.0000000  0  6G04G08G16G26G27G31                  
  21397599.344 6  21397609.758 9 112445138.419 6  87619628.122 9  21397609.99647
  21059866.938 6  21059881.801 9 110670351.855 6  86236828.567 9  21059880.75849
  21387844.867 6                 112393878.880 6  87579675.99448  21387852.37548
  22816990.164 5  22817006.570 8 119904075.792 5  93431586.715 8  22817006.12147
  20001950.898 6  20001961.125 9 105110957.055 6  81904681.104 9  20001960.87149
  23430932.352 1  23430952.297 6 123130402.60411  95945851.02716                
 23 03 10 03 01 50.0000000  0  6G04G08G16G26G27G31                  
  21397558.398 6  21397568.586 9 112444922.394 6  87619459.789 9  21397568.69147
  21059524.625 6  21059539.035 9 110668550.757 6  86235425.113 9  21059538.22749
  21388115.375 6                 112395301.560 6  87580784.56448  21388123.21948
  22817392.813 5  22817408.887 9 119906190.063 5  93433234.196 9  22817408.41447
  20002014.758 6  20002024.938 9 105111293.120 6  81904942.970 9  20002024.71149
  23431392.070 1  23431412.625 6 123132821.900 1  95947736.229 6                
 23 03 10 03 01 51.0000000  0  6G04G08G16G26G27G31                  
  21397517.469 6  21397527.762 9 112444707.077 6  87619292.006 9  21397527.66447
  21059182.094 6  21059196.641 9 110666750.299 6  86234022.167 9  21059195.69149
  21388386.273 6                 112396724.467 6  87581893.32847  21388393.88747
  22817794.977 5  22817811.328 9 119908304.385 5  93434881.709 9  22817810.75447
  20002078.797 6  20002088.836 9 105111629.931 6  81905205.422 9  20002088.68049
  23431852.680 1  23431872.941 6 123135241.567 1  95949621.645 6                
 23 03 10 03 01 52.0000000  0  6G04G08G16G26G27G31                  
  21397476.563 6  21397487.109 9 112444492.541 6  87619124.827 9  21397486.78147
  21058839.297 6  21058854.035 9 110664950.497 6  86232619.721 9  21058853.03949
  21388656.977 6                 112398147.595 6  87583002.26447  21388664.71147
  22818197.836 5  22818213.945 8 119910418.841 5  93436529.331 8  22818213.23447
  20002143.094 7  20002153.535 9 105111967.516 7  81905468.473 9  20002153.19149
  23432313.578 1  23432333.449 6 123137661.537 1  95951507.349 6                
 23 03 10 03 01 53.0000000  0  6G04G08G16G26G27G31                  
  21397435.953 6  21397446.418 9 112444278.637 6  87618958.154 9  21397446.01647
  21058497.086 6  21058511.816 9 110663151.209 6  86231217.676 9  21058510.72749
  21388928.313 6                 112399570.854 6  87584111.30247  21388935.69947
  22818599.266 5  22818616.418 8 119912533.214 5  93438176.874 8  22818615.53947
  20002207.734 7  20002217.809 9 105112305.788 7  81905732.066 9  20002217.41049
  23432775.063 1  23432793.793 6 123140081.834 1  95953393.260 6                
 23 03 10 03 01 54.0000000  0  6G04G08G16G26G27G31                  
  21397395.305 6  21397405.680 9 112444065.349 6  87618791.953 9  21397405.34047
  21058154.344 6  21058169.469 9 110661352.488 6  86229816.078 9  21058168.32449
  21389198.734 6                 112400994.239 6  87585220.43247  21389206.46147
  22819002.375 5  22819018.742 8 119914647.643 5  93439824.464 8  22819017.91847
  20002271.922 7  20002282.469 9 105112644.722 7  81905996.166 9  20002281.88349
  23433237.781 1                                                                
 23 03 10 03 01 55.0000000  0  6G04G08G16G26G27G31                  
  21397354.781 6  21397365.230 9 112443852.696 6  87618626.248 9  21397364.87547
  21057812.211 6  21057827.398 9 110659554.257 6  86228414.853 9  21057826.12549
  21389469.797 6                 112402417.710 6  87586329.62747  21389477.39547
  22819404.242 5  22819420.816 8 119916761.947 5  93441471.960 8  22819420.28547
  20002336.445 6  20002346.988 9 105112984.298 6  81906260.768 9  20002346.62949
  23433698.719 1  23433714.695 6 123144923.19611  95957165.78216                
 23 03 10 03 01 56.0000000  0  6G04G08G16G26G27G31                  
  21397313.758 6  21397324.730 9 112443640.946 6  87618461.244 9  21397324.64847
  21057470.422 6  21057485.324 9 110657756.839 6  86227014.268 9  21057484.20749
  21389740.781 6                 112403841.586 6  87587439.12947  21389748.39547
  22819806.023 5  22819823.281 8 119918876.551 5  93443119.689 8  22819822.80947
  20002401.164 7  20002411.672 9 105113324.833 7  81906526.112 9  20002411.49649
  23434159.070 1  23434175.305 6 123147344.604 1  95959052.625 6                
 23 03 10 03 01 57.0000000  0  6G04G08G16G26G27G31                  
  21397274.164 6  21397284.574 9 112443429.758 6  87618296.674 9  21397284.43447
  21057128.555 6  21057143.418 9 110655959.877 6  86225614.041 9  21057142.07049
  21390011.844 6                 112405265.480 6  87588548.66147  21390019.46547
  22820209.414 5  22820225.574 9 119920991.037 5  93444767.329 9  22820225.29347
  20002466.094 7  20002476.715 9 105113665.941 7  81906791.910 9  20002476.39849
  23434620.531 1  23434635.941 6 123149766.223 1  95960939.587 6                
 23 03 10 03 01 58.0000000  0  6G04G08G16G26G27G31                  
  21397234.156 6  21397244.813 9 112443219.252 6  87618132.646 9  21397244.42247
  21056786.719 6  21056801.559 9 110654163.502 6  86224214.269 9  21056800.33249
  21390282.898 6                 112406689.583 6  87589658.35547  21390290.37547
  22820612.023 5  22820628.039 9 119923105.567 5  93446414.999 9  22820627.68847
  20002531.609 6  20002541.707 9 105114007.789 6  81907058.283 9  20002541.53149
  23435080.875 1  23435096.637 6 123152188.087 1  95962826.718 6                
 23 03 10 03 01 59.0000000  0  6G04G08G16G26G27G31                  
  21397193.891 6  21397205.090 9 112443009.567 6  87617969.253 9  21397204.55547
  21056444.859 6  21056459.762 9 110652367.843 6  86222815.048 9  21056458.73849
  21390553.227 6                 112408113.974 6  87590768.25247  21390561.41447
  22821014.383 5  22821030.594 9 119925220.251 5  93448062.797 9  22821030.02347
  20002596.945 7  20002607.055 9 105114350.486 7  81907325.319 9  20002606.80949
  23435542.102 1  23435557.223 6 123154610.364 1  95964714.138 6                
 23 03 10 03 02 00.0000000  0  6G04G08G16G26G27G31                  
  21397154.422 6  21397165.145 9 112442800.746 6  87617806.528 9  21397164.74647
  21056103.609 6  21056118.172 9 110650572.935 6  86221416.422 9  21056117.34449
  21390824.758 6                 112409538.664 6  87591878.40748  21390832.39148
  22821416.539 5  22821433.078 9 119927335.097 5  93449710.718 9  22821432.39547
  20002661.961 7  20002672.414 9 105114694.033 7  81907593.020 9  20002672.19949
  23436003.813 1                 123157033.184 1                                
 23 03 10 03 02 01.0000000  0  6G04G08G16G26G27G31                  
  21397114.914 6  21397125.414 9 112442592.678 6  87617644.395 9  21397125.05547
  21055761.813 6  21055777.043 9 110648778.713 6  86220018.326 9  21055775.81349
  21391095.906 6                 112410963.637 6  87592988.77348  21391103.65648
  22821819.547 5  22821835.453 9 119929450.063 5  93451358.734 9  22821834.98447
  20002727.719 7  20002737.961 9 105115038.414 7  81907861.366 9  20002737.68449
  23436464.711 1                 123159456.398 1                                
 23 03 10 03 02 02.0000000  0  6G04G08G16G26G27G31                  
  21397075.297 6  21397085.934 9 112442385.353 6  87617482.832 9  21397085.45747
  21055420.617 6  21055435.930 9 110646985.133 6  86218620.736 9  21055434.40249
  21391366.961 6                 112412388.827 6  87594099.31148  21391375.01648
  22822221.430 5  22822238.055 9 119931565.127 5  93453006.826 9  22822237.31347
  20002793.203 7  20002803.766 9 105115383.569 7  81908130.311 9  20002803.55149
  23436925.656 1                 123161879.972 1                                
 23 03 10 03 02 03.0000000  0  6G04G08G16G26G27G31                  
  21397036.336 6  21397046.406 9 112442178.604 6  87617321.718 9  21397046.05147
  21055079.648 6  21055094.301 9 110645192.029 6  86217223.513 9  21055093.20749
  21391638.469 6                 112413814.077 6  87595209.89448  21391646.19148
  22822624.141 5  22822640.281 9 119933680.124 5  93454654.858 9  22822639.67247
  20002858.992 7  20002869.555 9 105115729.328 7  81908399.730 9  20002869.48049
  23437385.406 1                 123164303.785 1                                
 23 03 10 03 02 04.0000000  0  6G04G08G16G26G27G31                  
  21396997.164 6  21397007.359 9 112441972.823 6  87617161.371 9  21397006.98047
  21054738.523 6  21054753.461 9 110643399.773 6  86215826.958 9  21054752.36749
  21391909.039 6                 112415239.779 6  87596320.83148  21391917.51248
  22823026.281 5  22823042.930 9 119935795.390 5  93456303.107 9  22823042.09447
  20002924.328 7  20002935.352 9 105116076.064 7  81908669.919 9  20002935.37549
  23437846.391 1                 123166728.123 1                                
 23 03 10 03 02 05.0000000  0  6G04G08G16G26G27G31                  
  21396957.828 6  21396968.363 9 112441767.587 6  87617001.449 9  21396967.96147
  21054397.023 6  21054412.316 9 110641607.937 6  86214430.718 9  21054411.18849
  21392181.047 6                 112416665.477 6  87597431.75747  21392188.69547
  22823427.969 5  22823445.406 8 119937910.548 5  93457951.278 8  22823444.74247
  20002991.141 7  20003001.527 9 105116423.387 7  81908940.560 9  20003001.31649
  23438308.109 1                 123169152.773 1                                
 23 03 10 03 02 06.0000000  0  6G04G08G16G26G27G31                  
  21396918.906 6  21396929.301 9 112441563.036 6  87616842.058 9  21396928.96547
  21054056.711 6  21054071.387 9 110639816.702 6  86213034.946 9  21054070.29749
  21392452.398 6                 112418091.373 6  87598542.85247  21392460.05947
  22823831.414 5  22823848.043 8 119940025.734 5  93459599.472 8  22823847.45346
  20003057.172 7  20003067.715 9 105116771.441 7  81909211.769 9  20003067.69149
  23438769.797 1                 123171577.620 1                                
 23 03 10 03 02 07.0000000  0  6G04G08G16G26G27G31                  
  21396880.188 6  21396890.953 9 112441359.340 6  87616683.334 9  21396890.14147
  21053715.836 6  21053730.719 9 110638026.184 6  86211639.733 9  21053729.60949
  21392723.414 6                 112419517.591 6  87599654.18647  21392731.54347
  22824234.141 5  22824250.176 8 119942141.101 5  93461247.807 8  22824249.91047
  20003123.555 7  20003134.094 9 105117120.359 7  81909483.655 9  20003133.91849
  23439230.977 1                 123174002.996 1                                
 23 03 10 03 02 08.0000000  0  6G04G08G16G26G27G31                  
  21396841.555 6  21396852.422 9 112441156.345 6  87616525.155 9  21396851.54347
  21053375.398 6  21053390.371 9 110636236.298 6  86210245.020 9  21053388.96149
  21392995.297 6                 112420944.018 6  87600765.69047  21393003.04747
  22824636.352 5  22824652.945 8 119944256.525 5  93462896.185 8  22824652.52047
  20003190.133 7  20003200.820 9 105117470.023 7  81909756.116 9  20003200.61749
  23439692.320 1                 123176428.709 1                                
 23 03 10 03 02 09.0000000  0  6G04G08G16G26G27G31                  
  21396803.195 6  21396813.840 9 112440954.155 6  87616367.603 9  21396813.15647
  21053034.813 6  21053049.684 9 110634447.136 6  86208850.872 9  21053048.53149
  21393267.031 6                 112422370.727 6  87601877.39748  21393274.51648
  22825039.008 5  22825055.859 9 119946372.091 5  93464544.666 9  22825055.16847
  20003256.656 7  20003267.527 9 105117820.542 7  81910029.247 9  20003267.12549
  23440155.664 1                 123178854.859 1                                
 23 03 10 03 02 10.0000000  0  6G04G08G16G26G27G31                  
  21396764.992 6  21396775.453 9 112440752.726 6  87616210.646 9  21396774.82847
  21052694.445 6  21052709.520 9 110632658.637 6  86207457.239 9  21052708.30949
  21393538.211 6                 112423797.675 6  87602989.30548  21393546.28948
  22825441.602 5  22825458.309 9 119948487.745 5  93466193.214 9  22825458.01247
  20003323.703 7  20003334.492 9 105118171.822 7  81910302.979 9  20003334.10549
  23440617.633 1                 123181281.407 1                                
 23 03 10 03 02 11.0000000  0  6G04G08G16G26G27G31                  
  21396726.852 6  21396737.223 9 112440551.759 6  87616054.055 9  21396736.69147
  21052354.477 6  21052369.262 9 110630870.465 6  86206063.859 9  21052367.93449
  21393809.844 6                 112425224.562 6  87604101.15448  21393817.78548
  22825844.703 5  22825860.793 9 119950603.234 5  93467841.642 9  22825860.57847
  20003391.039 7  20003401.320 9 105118523.608 7  81910577.094 9  20003401.19549
  23441080.516 1                 123183708.041 1                                
 23 03 10 03 02 12.0000000  0  6G04G08G16G26G27G31                  
  21396688.961 6  21396699.090 9 112440351.527 6  87615898.021 9  21396698.50447
  21052013.906 6  21052028.848 9 110629082.941 6  86204670.979 9  21052027.93449
  21394080.992 6                 112426651.667 6  87605213.18248  21394089.29748
  22826247.578 5  22826263.395 9 119952718.811 5  93469490.121 9  22826263.14547
  20003457.883 7  20003468.270 9 105118876.185 7  81910851.826 9  20003468.16449
  23441541.039 1                 123186135.000 1                                
 23 03 10 03 02 13.0000000  0  6G04G08G16G26G27G31                  
  21396650.586 6  21396661.113 9 112440152.175 6  87615742.681 9  21396660.50847
  21051674.336 6  21051688.754 9 110627296.177 6  86203278.701 9  21051687.76249
  21394352.820 6                 112428079.150 6  87606325.51448  21394360.81348
  22826650.477 5  22826666.180 9 119954834.555 5  93471138.744 9  22826665.87947
  20003525.102 7  20003535.707 9 105119229.641 7  81911127.244 9  20003535.48449
  23442004.102 1                 123188562.553 1                                
 23 03 10 03 02 14.0000000  0  6G04G08G16G26G27G31                  
  21396613.289 6  21396623.453 9 112439953.539 6  87615587.900 9  21396622.57447
  21051334.164 6  21051348.797 9 110625510.041 6  86201886.909 9  21051347.86349
  21394624.844 6                 112429506.813 6  87607437.97348  21394632.45748
  22827052.461 5  22827068.664 9 119956950.386 5  93472787.437 9  22827068.56647
  20003592.508 7  20003602.789 9 105119583.855 7  81911403.258 9  20003602.77749
  23442465.570 1                 123190990.365 1                                
 23 03 10 03 02 15.0000000  0  6G04G08G16G26G27G31                  
  21396574.953 6  21396585.707 9 112439755.463 6  87615433.552 9  21396584.92647
  21050994.688 6  21051009.004 9 110623724.395 6  86200495.496 9  21051008.19949
  21394896.031 6                 112430934.544 6  87608550.49248  21394904.21548
  22827455.352 5  22827471.281 9 119959066.124 5  93474436.050 9  22827471.10547
  20003659.844 7  20003670.230 9 105119938.659 7  81911679.720 9  20003670.39549
  23442927.586 1                 123193418.460 1                                
 23 03 10 03 02 16.0000000  0  6G04G08G16G26G27G31                  
  21396538.031 6  21396548.277 9 112439558.227 6  87615279.857 9  21396547.43447
  21050654.969 6  21050669.441 9 110621939.440 6  86199104.626 9  21050668.52749
  21395167.500 6                 112432362.572 6  87609663.24147  21395175.87147
  22827858.227 5  22827874.340 9 119961182.034 5  93476084.800 9  22827873.84047
  20003728.070 7  20003738.059 9 105120294.344 7  81911956.882 9  20003738.00449
  23443390.977 1                 123195846.986 1                                
 23 03 10 03 02 17.0000000  0  6G04G08G16G26G27G31                  
  21396500.328 6  21396510.793 9 112439361.707 6  87615126.722 9  21396510.00447
  21050315.609 6  21050329.848 9 110620155.121 6  86197714.249 9  21050329.01249
  21395439.461 6                 112433790.809 6  87610776.13347  21395447.83247
  22828260.523 5  22828276.582 8 119963297.980 5  93477733.577 8  22828276.73847
  20003794.984 6  20003805.805 9 105120650.750 6  81912234.595 9  20003805.79349
  23443852.180 1                 123198275.881 1                                
 23 03 10 03 02 18.0000000  0  6G04G08G16G26G27G31                  
  21396462.953 6  21396473.348 9 112439165.932 6  87614974.161 9  21396472.68847
  21049976.219 6  21049990.480 9 110618371.449 6  86196324.386 9  21049989.57049
  21395711.492 6                 112435219.275 6  87611889.22647  21395719.73847
  22828663.133 5  22828679.133 8 119965413.990 5  93479382.421 8  22828679.15647
  20003863.258 6  20003873.797 9 105121007.960 6  81912512.934 9  20003873.85949
  23444314.070 1                 123200705.110 1                                
 23 03 10 03 02 19.0000000  0  6G04G08G16G26G27G31                  
  21396425.883 6  21396436.336 9 112438970.999 6  87614822.265 9  21396435.54747
  21049636.789 6  21049651.145 9 110616588.501 6  86194935.074 9  21049650.38749
  21395983.453 6                 112436648.067 6  87613002.57247  21395991.69547
  22829065.125 5  22829082.035 8 119967530.231 5  93481031.422 8  22829081.96147
  20003931.430 7  20003942.063 9 105121366.026 7  81912791.949 9  20003942.04349
  23444776.477 1                 123203134.904 1                                
 23 03 10 03 02 20.0000000  0  6G04G08G16G26G27G31                  
  21396388.922 6  21396399.191 9 112438776.773 6  87614670.910 9  21396398.49247
  21049297.789 6  21049312.082 9 110614806.147 6  86193546.231 9  21049311.27349
  21396255.375 6                 112438077.031 6  87614116.04448  21396263.75048
  22829468.031 5  22829484.699 8 119969646.479 5  93482680.438 8  22829484.72347
  20003999.406 6  20004010.523 9 105121724.824 6  81913071.525 9  20004010.19149
  23445239.406 1                 123205564.898 1                                
 23 03 10 03 02 21.0000000  0  6G04G08G16G26G27G31                  
  21396352.344 6  21396362.227 9 112438583.139 6  87614520.026 9  21396361.51247
  21048958.477 6  21048972.922 9 110613024.324 6  86192157.807 9  21048972.10949
  21396527.781 6                 112439506.089 6  87615229.59248  21396535.68448
  22829870.805 5  22829887.441 9 119971762.706 5  93484329.431 9  22829887.38347
  20004068.305 6  20004078.730 9 105122084.277 6  81913351.614 9  20004078.62949
  23445700.992 1                 123207995.177 1                                
 23 03 10 03 02 22.0000000  0  6G04G08G16G26G27G31                  
  21396315.656 6  21396325.457 9 112438390.246 6  87614369.723 9  21396324.77347
  21048619.313 6  21048634.070 9 110611243.126 6  86190769.858 9  21048633.23849
  21396799.266 6                 112440935.353 6  87616343.30248  21396807.94548
  22830273.664 5  22830290.379 9 119973879.020 5  93485978.496 9  22830290.23447
  20004137.219 7  20004147.238 9 105122444.476 7  81913632.285 9  20004147.11349
  23446163.164 1                 123210425.882 1                                
 23 03 10 03 02 23.0000000  0  6G04G08G16G26G27G31                  
  21396279.188 6  21396289.129 9 112438198.204 6  87614220.074 9  21396288.41047
  21048280.680 6  21048295.148 9 110609462.711 6  86189382.528 9  21048294.55549
  21397071.672 6                 112442364.968 6  87617457.28848  21397079.87548
  22830676.289 5  22830692.984 9 119975995.494 5  93487627.686 9  22830693.04747
  20004205.359 7  20004215.918 9 105122805.562 7  81913913.656 9  20004215.80949
  23446626.063 1                 123212856.982 1                                
 23 03 10 03 02 24.0000000  0  6G04G08G16G26G27G31                  
  21396242.852 6  21396252.844 9 112438006.780 6  87614070.919 9  21396252.04747
  21047941.844 6  21047956.445 9 110607682.765 6  86187995.557 9  21047955.72349
  21397343.813 6                 112443794.658 6  87618571.34248  21397351.87148
  22831078.984 5  22831095.809 9 119978111.890 5  93489276.820 9  22831095.74647
  20004274.438 7  20004284.906 9 105123167.286 7  81914195.512 9  20004284.65249
  23447088.070 1                                                                
 23 03 10 03 02 25.0000000  0  6G04G08G16G26G27G31                  
  21396206.500 6  21396216.723 9 112437816.153 6  87613922.374 9  21396215.66847
  21047603.813 6  21047617.863 9 110605903.533 6  86186609.149 9  21047617.05549
  21397615.758 6                 112445224.630 6  87619685.59648  21397624.02748
  22831481.992 5  22831498.352 9 119980228.493 5  93490926.114 9  22831498.53947
  20004343.813 7  20004353.891 9 105123529.884 7  81914478.060 9  20004353.37549
  23447550.016 1                 123217720.28611                                
 23 03 10 03 02 26.0000000  0  6G04G08G16G26G27G31                  
  21396170.047 6  21396180.477 9 112437626.228 6  87613774.373 9  21396179.55547
  21047265.172 6  21047279.566 9 110604124.906 6  86185223.205 9  21047278.80549
  21397887.945 6                 112446654.804 6  87620800.01647  21397896.21547
  22831884.859 5  22831900.898 9 119982345.084 5  93492575.400 9  22831901.29347
  20004412.805 7  20004422.820 9 105123893.175 7  81914761.145 9  20004422.60249
  23448013.148 1                                                                
 23 03 10 03 02 27.0000000  0  6G04G08G16G26G27G31                  
  21396133.914 6  21396144.152 9 112437436.942 6  87613626.871 9  21396143.61747
  21046926.563 6  21046941.371 9 110602346.808 6  86183837.679 9  21046940.45349
  21398160.039 6                 112448085.083 6  87621914.51748  21398168.39148
  22832286.688 5  22832303.938 9 119984461.668 5  93494224.677 9  22832304.08647
  20004481.906 7  20004492.184 9 105124257.141 7  81915044.743 9  20004492.12149
  23448475.109 1                                                                
 23 03 10 03 02 28.0000000  0  6G04G08G16G26G27G31                  
  21396098.313 6  21396108.211 9 112437248.230 6  87613479.831 9  21396107.75447
  21046588.656 6  21046603.043 9 110600569.186 6  86182452.517 9  21046602.32049
  21398432.414 6                 112449515.407 6  87623029.05647  21398440.57847
  22832690.539 5  22832706.613 8 119986578.171 5  93495873.892 8  22832706.86747
  20004551.414 7  20004561.703 9 105124621.714 7  81915328.826 9  20004561.44549
  23448937.523 1                                                                
 23 03 10 03 02 29.0000000  0  6G04G08G16G26G27G31                  
  21396062.133 6  21396072.707 9 112437060.405 6  87613333.469 9  21396071.98447
  21046250.828 6  21046264.785 9 110598792.347 6  86181067.974 9  21046264.07849
  21398703.820 6                 112450946.152 6  87624143.92047  21398712.75447
  22833093.648 5  22833109.484 8 119988694.924 5  93497523.307 8  22833109.54747
  20004620.750 7  20004631.141 9 105124987.210 7  81915613.625 9  20004631.00449
  23449400.148 1                                                                
 23 03 10 03 02 30.0000000  0  6G04G08G16G26G27G31                  
  21396026.727 6  21396037.234 9 112436873.280 6  87613187.650 9  21396036.41447
  21045912.695 6  21045926.770 9 110597016.066 6  86179683.869 9  21045926.12149
  21398976.664 6                 112452377.027 6  87625258.89047  21398984.95747
  22833496.711 5  22833512.090 8 119990811.688 5  93499172.723 8  22833512.30147
  20004690.406 7  20004700.961 9 105125353.435 7  81915898.996 9  20004700.60249
  23449863.109 1                                                                
 23 03 10 03 02 31.0000000  0  6G04G08G16G26G27G31                  
  21395991.453 6  21396001.766 9 112436686.743 6  87613042.294 9  21396000.88347
  21045574.547 6  21045588.859 9 110595240.307 6  86178300.160 9  21045588.30549
  21399249.359 6                 112453807.999 6  87626373.92748  21399257.32448
  22833898.828 5  22833914.848 8 119992928.396 5  93500822.093 8  22833915.04347
  20004760.164 7  20004770.797 9 105125720.286 7  81916184.853 9  20004770.35549
  23450326.148 1                 123232317.87911                                
 23 03 10 03 02 32.0000000  0  6G04G08G16G26G27G31                  
  21395956.344 6  21395966.559 9 112436501.057 6  87612897.602 9  21395965.60247
  21045236.859 6  21045251.082 9 110593465.264 6  86176917.018 9  21045250.52749
  21399521.422 6                 112455239.276 6  87627489.21147  21399529.78547
  22834301.930 5  22834317.621 8 119995045.294 5  93502471.613 8  22834317.82847
  20004830.531 7  20004840.566 9 105126088.002 7  81916471.394 9  20004840.24649
  23450789.875 1                 123234752.058 1                                
 23 03 10 03 02 33.0000000  0  6G04G08G16G26G27G31                  
  21395920.859 6  21395931.105 9 112436316.020 6  87612753.409 9  21395930.63347
  21044899.305 6  21044913.547 9 110591690.771 6  86175534.301 9  21044913.01249
  21399794.266 6                 112456670.693 6  87628604.59848  21399802.21548
  22834704.367 5  22834720.844 8 119997162.139 5  93504121.099 8  22834720.78547
  20004900.461 7  20004910.641 9 105126456.388 7  81916758.435 9  20004910.29749
  23451253.398 1                 123237186.577 1                                
 23 03 10 03 02 34.0000000  0  6G04G08G16G26G27G31                  
  21395885.992 6  21395895.934 9 112436131.577 6  87612609.691 9  21395895.55147
  21044561.344 6  21044576.102 9 110589916.801 6  86174151.992 9  21044575.23049
  21400066.047 6                 112458102.201 6  87629720.05148  21400074.74648
  22835107.844 5  22835123.668 8 119999278.969 5  93505770.563 8  22835123.42247
  20004970.289 7  20004980.961 9 105126825.445 7  81917046.013 9  20004980.52749
  23451716.703 1                 123239621.245 1                                
 23 03 10 03 02 35.0000000  0  6G04G08G16G26G27G31                  
  21395850.695 6  21395861.008 9 112435947.936 6  87612466.591 9  21395860.70347
  21044223.977 6  21044238.492 9 110588143.500 6  86172770.197 9  21044237.89849
  21400338.695 6                 112459533.978 6  87630835.71648  21400347.19948
  22835510.219 5  22835526.137 8 120001395.930 5  93507420.135 8  22835526.15247
  20005041.102 7  20005051.168 9 105127195.271 7  81917334.186 9  20005050.96149
  23452179.531 1                 123242056.362 1                                
 23 03 10 03 02 36.0000000  0  6G04G08G16G26G27G31                  
  21395816.305 6  21395826.547 9 112435765.179 6  87612324.178 9  21395825.90247
  21043886.977 6  21043901.395 9 110586370.982 6  86171389.029 9  21043900.69949
  21400611.031 6                 112460966.111 6  87631951.66148  21400619.87548
  22835913.141 5  22835929.500 9 120003513.082 5  93509069.854 9  22835929.03547
  20005111.484 7  20005121.938 9 105127566.048 7  81917623.104 9  20005121.62949
  23452642.805 1                                                                
 23 03 10 03 02 37.0000000  0  6G04G08G16G26G27G31                  
  21395781.813 6  21395791.645 9 112435583.202 6  87612182.376 9  21395791.24647
  21043550.047 6  21043564.207 9 110584599.164 6  86170008.390 9  21043563.53949
  21400883.883 6                 112462398.513 6  87633067.80947  21400892.26247
  22836315.875 5  22836332.309 8 120005630.331 5  93510719.652 8  22836331.95747
  20005182.344 7  20005192.570 9 105127937.632 7  81917912.656 9  20005192.34849
  23453106.273 1                 123246928.10111                                
 23 03 10 03 02 38.0000000  0  6G04G08G16G26G27G31                  
  21395747.000 6  21395757.051 9 112435401.851 6  87612041.058 9  21395756.72747
  21043212.789 6  21043226.867 9 110582827.890 6  86168628.175 9  21043226.57049
  21401157.125 6                 112463831.033 6  87634184.06047  21401164.86347
  22836719.047 5  22836735.484 9 120007747.631 5  93512369.489 9  22836734.93447
  20005253.313 7  20005263.355 9 105128309.884 7  81918202.715 9  20005263.12149
  23453570.773 1                 123249364.417 1                                
 23 03 10 03 02 39.0000000  0  6G04G08G16G26G27G31                  
  21395712.625 6  21395722.918 9 112435221.193 6  87611900.276 9  21395722.43447
  21042875.922 6  21042890.188 9 110581057.176 6  86167248.399 9  21042889.43849
  21401429.094 6                 112465263.718 6  87635300.43848  21401437.75448
  22837121.859 5  22837138.145 9 120009864.934 5  93514019.332 9  22837137.72347
  20005323.883 7  20005334.379 9 105128682.846 7  81918493.339 9  20005334.20749
  23454034.164 1                 123251801.054 1                                
 23 03 10 03 02 40.0000000  0  6G04G08G16G26G27G31                  
  21395677.969 6  21395688.535 9 112435041.206 6  87611760.023 9  21395688.46547
  21042538.922 6  21042553.352 9 110579287.034 6  86165869.064 9  21042552.54749
  21401701.875 6                 112466696.551 6  87636416.92847  21401710.41047
  22837524.750 5  22837540.793 8 120011982.245 5  93515669.165 8  22837540.57847
  20005395.078 7  20005405.598 9 105129056.515 7  81918784.501 9  20005405.43049
  23454498.211 1                 123254238.029 1                                
 23 03 10 03 02 41.0000000  0  6G04G08G16G26G27G31                  
  21395644.398 6  21395654.492 9 112434861.920 6  87611620.315 9  21395654.39847
  21042201.781 6  21042216.672 9 110577517.496 6  86164490.213 9  21042216.00449
  21401974.641 6                 112468129.571 6  87637533.56647  21401983.16847
  22837927.188 5  22837943.766 8 120014099.593 5  93517319.037 8  22837943.45347
  20005466.484 7  20005476.828 9 105129430.913 7  81919076.242 9  20005476.47349
  23454962.188 1                                                                
 23 03 10 03 02 42.0000000  0  6G04G08G16G26G27G31                  
  21395610.172 6  21395620.461 9 112434683.393 6  87611481.202 9  21395620.50047
  21041865.719 6  21041880.199 9 110575748.637 6  86163111.876 9  21041879.34449
  21402247.016 6                 112469562.823 6  87638650.38647  21402255.99247
  22838330.070 5  22838346.367 8 120016217.031 5  93518968.981 8  22838346.43047
  20005537.695 7  20005548.273 9 105129806.110 7  81919368.604 9  20005547.84049
  23455425.711 1                 123259112.97911                                
 23 03 10 03 02 43.0000000  0  6G04G08G16G26G27G31                  
  21395576.047 6  21395586.789 9 112434505.655 6  87611342.700 9  21395586.45347
  21041528.984 6  21041543.523 9 110573980.470 6  86161734.083 9  21041542.78149
  21402520.102 6                 112470996.343 6  87639767.41347  21402528.57047
  22838733.430 5  22838749.660 8 120018334.600 5  93520619.025 8  22838749.28947
  20005609.289 6  20005619.941 9 105130182.111 6  81919661.590 9  20005619.38349
  23455890.000 1                 123261551.004 1                                
 23 03 10 03 02 44.0000000  0  6G04G08G16G26G27G31                  
  21395543.016 6  21395552.961 9 112434328.531 6  87611204.678 9  21395552.89547
  21041192.586 6  21041207.059 9 110572212.825 6  86160356.699 9  21041206.40649
  21402793.211 6                 112472429.974 6  87640884.52148  21402801.29348
  22839136.375 5  22839152.719 8 120020452.139 5  93522269.049 8  22839152.34047
  20005680.766 6  20005691.527 9 105130558.767 6  81919955.083 9  20005691.14149
  23456355.133 1                                                                
 23 03 10 03 02 45.0000000  0  6G04G08G16G26G27G31                  
  21395509.242 6  21395519.211 9 112434151.902 6  87611067.039 9  21395519.21547
  21040856.250 6  21040870.723 9 110570445.582 6  86158979.629 9  21040870.01649
  21403065.953 6                 112473863.552 6  87642001.59848  21403074.02048
  22839538.617 5  22839555.523 8 120022569.495 5  93523918.922 8  22839555.21947
  20005752.656 6  20005763.320 9 105130935.951 6  81920248.992 9  20005762.91449
  23456818.758 1                 123266427.86711                                
 23 03 10 03 02 46.0000000  0  6G04G08G16G26G27G31                  
  21395475.945 6  21395485.914 9 112433975.983 6  87610929.953 9  21395485.93447
  21040520.344 6  21040534.801 9 110568678.912 6  86157603.005 9  21040533.97749
  21403338.328 6                 112475297.354 6  87643118.84847  21403346.84447
  22839942.023 5  22839958.965 8 120024686.927 5  93525568.856 8  22839958.21947
  20005824.805 7  20005835.219 9 105131313.876 7  81920543.477 9  20005834.81349
  23457282.773 1                 123268866.613 1                                
 23 03 10 03 02 47.0000000  0  6G04G08G16G26G27G31                  
  21395441.961 6  21395452.625 9 112433801.041 6  87610793.634 9  21395452.65647
  21040183.805 6  21040198.863 9 110566913.151 6  86156227.089 9  21040197.91849
  21403611.164 6                 112476731.617 6  87644236.44848  21403619.70348
  22840344.703 5  22840361.852 9 120026804.650 5  93527219.017 9  22840361.00847
  20005896.633 6  20005907.254 9 105131692.798 6  81920838.736 9  20005906.89849
  23457746.938 1                 123271306.050 1                                
 23 03 10 03 02 48.0000000  0  6G04G08G16G26G27G31                  
  21395409.563 6  21395419.539 9 112433626.723 6  87610657.792 9  21395419.41447
  21039847.930 6  21039862.930 9 110565147.884 6  86154851.555 9  21039861.99649
  21403884.758 6                 112478165.949 6  87645354.10748  21403892.84448
  22840748.102 5  22840764.988 9 120028922.340 5  93528869.147 9  22840764.19547
  20005969.078 6  20005979.527 9 105132072.359 6  81921134.501 9  20005979.07449
  23458210.047 1                 123273745.719 1                                
 23 03 10 03 02 49.0000000  0  6G04G08G16G26G27G31                  
  21395376.297 6  21395386.316 9 112433453.173 6  87610522.553 9  21395386.59447
  21039512.242 6  21039527.199 9 110563383.300 6  86153476.555 9  21039526.27749
  21404157.758 6                 112479600.563 6  87646471.99148  21404165.87148
  22841150.742 5  22841167.859 9 120031040.136 5  93530519.375 9  22841167.22347
  20006041.586 6  20006051.816 9 105132452.749 6  81921430.908 9  20006051.48849
  23458674.555 1                 123276185.761 1                                
 23 03 10 03 02 50.0000000  0  6G04G08G16G26G27G31                  
  21395343.219 6  21395353.461 9 112433280.287 6  87610387.838 9  21395353.73047
  21039176.703 6  21039191.430 9 110561619.246 6  86152101.973 9  21039190.57849
  21404430.523 6                 112481035.282 6  87647589.94148  21404438.80948
  22841554.063 5  22841571.031 9 120033157.916 5  93532169.580 9  22841570.18447
  20006114.164 6  20006124.512 9 105132833.808 6  81921727.835 9  20006124.03149
  23459138.852 1                 123278626.124 1                                
 23 03 10 03 02 51.0000000  0  6G04G08G16G26G27G31                  
  21395310.422 6  21395320.832 9 112433108.076 6  87610253.634 9  21395320.94147
  21038841.031 6  21038855.785 9 110559855.773 6  86150727.838 9  21038854.91449
  21404703.805 6                 112482470.173 6  87648708.03448  21404711.86348
  22841956.953 5  22841973.910 9 120035275.728 5  93533819.813 9  22841973.12947
  20006186.758 6  20006197.211 9 105133215.570 6  81922025.314 9  20006196.69549
  23459602.961 1                 123281066.779 1                                
 23 03 10 03 02 52.0000000  0  6G04G08G16G26G27G31                  
  21395278.016 6  21395288.141 9 112432936.650 6  87610120.050 9  21395288.42647
  21038505.227 6  21038520.496 9 110558093.030 6  86149354.275 9  21038519.43849
  21404976.734 6                 112483905.338 6  87649826.34848  21404984.93448
  22842360.219 5  22842377.105 9 120037393.685 5  93535470.162 9  22842376.03947
  20006259.398 6  20006269.672 9 105133598.164 6  81922323.435 9  20006269.45749
  23460068.422 1                 123283507.925 1                                
 23 03 10 03 02 53.0000000  0  6G04G08G16G26G27G31                  
  21395245.617 6  21395255.512 9 112432765.889 6  87609986.988 9  21395255.71947
  21038169.922 6  21038184.941 9 110556330.816 6  86147981.118 9  21038184.23049
  21405250.164 6                 112485340.641 6  87650944.76248  21405258.04348
  22842763.219 5  22842780.148 8 120039511.617 5  93537120.491 8  22842779.22747
  20006332.594 7  20006342.609 9 105133981.473 7  81922622.112 9  20006342.32849
  23460531.813 1                 123285949.224 1                                
 23 03 10 03 02 54.0000000  0  6G04G08G16G26G27G31                  
  21395213.406 6  21395223.215 9 112432595.779 6  87609854.431 9  21395223.21947
  21037835.172 6  21037849.605 9 110554569.154 6  86146608.398 9  21037848.84049
  21405523.125 6                 112486776.073 6  87652063.27747  21405531.21947
  22843165.867 5  22843183.129 8 120041629.542 5  93538770.813 8  22843182.36746
  20006405.422 6  20006415.805 9 105134365.424 6  81922921.298 9  20006415.39149
  23460996.531 1                                                                
 23 03 10 03 02 55.0000000  0  6G04G08G16G26G27G31                  
  21395181.102 6  21395191.121 9 112432426.463 6  87609722.494 9  21395191.03947
  21037499.570 6  21037514.789 9 110552808.207 6  86145236.230 9  21037513.82849
  21405795.992 6                 112488211.798 6  87653182.01847  21405804.35247
  22843568.469 5  22843586.145 8 120043747.624 5  93540421.260 8  22843585.35947
  20006479.047 6  20006488.828 9 105134750.224 6  81923221.139 9  20006488.68449
  23461459.852 1                 123290832.94711                                
 23 03 10 03 02 56.0000000  0  6G04G08G16G26G27G31                  
  21395148.734 6  21395158.918 9 112432257.963 6  87609591.188 9  21395159.11347
  21037164.945 6  21037179.770 9 110551047.923 6  86143864.591 9  21037178.94549
  21406069.203 6                 112489647.776 6  87654300.96047  21406077.51647
  22843971.969 5  22843989.168 8 120045865.844 5  93542071.808 8  22843988.58246
  20006552.125 6  20006562.250 9 105135135.844 6  81923521.621 9  20006562.07049
  23461925.180 1                 123293275.481 1                                
 23 03 10 03 02 57.0000000  0  6G04G08G16G26G27G31                  
  21395116.750 6  21395126.980 9 112432090.025 6  87609460.318 9  21395127.16447
  21036829.484 6  21036844.832 9 110549288.130 6  86142493.324 9  21036843.88749
  21406342.891 6                 112491083.835 6  87655419.96748  21406350.97748
  22844374.852 5  22844392.438 8 120047983.960 5  93543722.283 8  22844391.75047
  20006625.508 6  20006635.656 9 105135522.066 6  81923822.572 9  20006635.53549
  23462388.180 1                                                                
 23 03 10 03 02 58.0000000  0  6G04G08G16G26G27G31                  
  21395085.234 6  21395095.371 9 112431922.919 6  87609330.101 9  21395095.19547
  21036495.484 6  21036510.066 9 110547529.075 6  86141122.632 9  21036509.19949
  21406615.938 6                 112492520.187 6  87656539.19948  21406624.10948
  22844778.367 5  22844795.621 9 120050102.261 5  93545372.894 9  22844794.82047
  20006699.258 6  20006709.555 9 105135909.177 6  81924124.209 9  20006709.23449
  23462853.078 1                                                                
 23 03 10 03 02 59.0000000  0  6G04G08G16G26G27G31                  
  21395053.273 6  21395063.723 9 112431756.559 6  87609200.472 9  21395063.47347
  21036160.922 6  21036175.438 9 110545770.653 6  86139752.438 9  21036174.61749
  21406889.250 6                 112493956.773 6  87657658.60948  21406897.42248
  22845181.664 5  22845198.785 9 120052220.627 5  93547023.558 9  22845197.75046
  20006773.008 6  20006783.445 9 105136297.055 6  81924426.449 9  20006782.96149
  23463319.672 1                                                                
 23 03 10 03 03 00.0000000  0  6G04G08G16G26G27G31                  
  21395022.227 6  21395032.359 9 112431590.981 6  87609071.441 9  21395032.06347
  21035826.125 6  21035841.105 9 110544012.918 6  86138382.781 9  21035840.21549
  21407162.617 6                 112495393.632 6  87658778.23748  21407170.93848
  22845584.281 5  22845602.137 9 120054339.122 5  93548674.319 9  22845600.87946
  20006846.836 6  20006857.094 9 105136685.722 6  81924729.308 9  20006857.07849
  23463785.680 1                                                                
 23 03 10 03 03 01.0000000  0  6G04G08G16G26G27G31                  
  21394990.836 6  21395000.813 9 112431426.074 6  87608942.938 9  21395000.78547
  21035492.070 6  21035506.637 9 110542255.771 6  86137013.570 9  21035505.74649
  21407435.984 6                 112496830.632 6  87659897.97648  21407444.45348
  22845986.719 5  22846004.902 9 120056457.660 5  93550325.126 9  22846004.21547
  20006921.188 7  20006931.375 9 105137075.110 7  81925032.725 9  20006931.07049
  23464250.492 1                 123305493.20411                                
 23 03 10 03 03 02.0000000  0  6G04G08G16G26G27G31                  
  21394959.313 6  21394969.547 9 112431262.096 6  87608815.162 9  21394969.41447
  21035157.656 6  21035172.414 9 110540499.435 6  86135645.001 9  21035171.63749
  21407709.711 6                 112498268.030 6  87661018.02548  21407718.03948
  22846390.680 5  22846407.879 9 120058576.414 5  93551976.091 9  22846407.47747
  20006995.789 7  20007005.703 9 105137465.447 7  81925336.881 9  20007005.43049
  23464716.484 1                 123307938.107 1                                
 23 03 10 03 03 03.0000000  0  6G04G08G16G26G27G31                  
  21394928.469 6  21394938.645 9 112431098.636 6  87608687.787 9  21394938.20747
  21034823.852 6  21034838.039 9 110538743.525 6  86134276.760 9  21034837.41049
  21407983.305 6                 112499705.432 6  87662138.07747  21407991.46947
  22846793.531 5  22846811.043 9 120060695.063 5  93553626.975 9  22846810.71547
  20007069.875 7  20007080.043 9 105137856.326 7  81925641.460 9  20007079.80549
  23465180.031 1                                                                
 23 03 10 03 03 04.0000000  0  6G04G08G16G26G27G31                  
  21394897.234 6  21394907.766 9 112430935.956 6  87608561.019 9  21394907.26647
  21034489.602 6  21034504.035 9 110536988.314 6  86132909.069 9  21034503.28549
  21408256.883 6                 112501143.102 6  87663258.33748  21408265.13748
  22847197.055 5  22847213.969 9 120062813.814 5  93555277.937 9  22847213.89547
  20007144.586 7  20007154.832 9 105138248.026 7  81925946.681 9  20007154.38749
  23465645.234 1                                                                
 23 03 10 03 03 05.0000000  0  6G04G08G16G26G27G31                  
  21394866.586 6  21394876.828 9 112430774.052 6  87608434.855 9  21394876.54347
  21034155.656 6  21034170.176 9 110535233.759 6  86131541.886 9  21034169.44949
  21408530.758 6                 112502581.024 6  87664378.78448  21408538.63748
  22847599.805 5  22847617.246 8 120064932.695 5  93556929.004 8  22847617.03947
  20007219.055 6  20007229.234 9 105138640.522 6  81926252.519 9  20007228.93849
  23466110.836 1                                                                
 23 03 10 03 03 06.0000000  0  6G04G08G16G26G27G31                  
  21394836.023 6  21394845.895 9 112430612.862 6  87608309.244 9  21394845.80147
  21033821.836 6  21033836.383 9 110533479.823 6  86130175.187 9  21033835.71149
  21408803.852 6                 112504019.133 6  87665499.38648  21408812.30948
  22848003.352 5  22848020.625 8 120067051.611 5  93558580.098 8  22848020.20746
  20007293.695 6  20007304.055 9 105139033.778 6  81926558.946 9  20007303.82849
  23466576.516 1                                                                
 23 03 10 03 03 07.0000000  0  6G04G08G16G26G27G31                  
  21394805.602 6  21394815.395 9 112430452.396 6  87608184.206 9  21394815.25047
  21033488.383 6  21033502.867 9 110531726.505 6  86128808.964 9  21033502.02049
  21409077.430 6                 112505457.451 6  87666620.15347  21409085.99247
  22848407.031 5  22848423.746 8 120069170.619 5  93560231.262 8  22848423.47747
  20007369.141 7  20007378.945 9 105139427.780 7  81926865.955 9  20007378.67249
  23467042.008 1                 123320166.92611                                
 23 03 10 03 03 08.0000000  0  6G04G08G16G26G27G31                  
  21394774.891 6  21394785.254 9 112430292.630 6  87608059.711 9  21394784.84447
  21033155.086 6  21033169.313 9 110529973.790 6  86127443.211 9  21033168.28549
  21409351.250 6                 112506895.953 6  87667741.06047  21409359.85247
  22848809.609 5  22848826.992 8 120071289.627 5  93561882.426 8  22848826.59847
  20007444.031 7  20007454.027 9 105139822.504 7  81927173.530 9  20007453.76249
  23467508.063 1                 123322613.65911                                
 23 03 10 03 03 09.0000000  0  6G04G08G16G26G27G31                  
  21394744.531 6  21394754.906 9 112430133.535 6  87607935.739 9  21394754.50447
  21032821.203 6  21032835.563 9 110528221.636 6  86126077.897 9  21032834.86749
  21409625.336 6                 112508334.600 6  87668862.07448  21409633.61348
  22849213.031 5  22849230.180 8 120073408.675 5  93563533.627 8  22849229.85247
  20007519.133 6  20007529.434 9 105140217.937 6  81927481.662 9  20007529.08649
  23467974.484 1                                                                
 23 03 10 03 03 10.0000000  0  6G04G08G16G26G27G31                  
  21394714.656 6  21394724.996 9 112429975.235 6  87607812.390 9  21394724.42647
  21032487.883 6  21032502.273 9 110526470.180 6  86124713.128 9  21032501.48049
  21409899.273 6                 112509773.515 6  87669983.31047  21409907.47747
  22849616.336 5  22849633.652 8 120075527.819 5  93565184.893 8  22849633.20746
  20007594.820 7  20007604.660 9 105140614.181 7  81927790.414 9  20007604.46149
  23468439.695 1                 123327508.35611                                
 23 03 10 03 03 11.0000000  0  6G04G08G16G26G27G31                  
  21394684.859 6  21394694.832 9 112429817.488 6  87607689.461 9  21394694.30147
  21032154.305 6  21032168.938 9 110524719.202 6  86123348.731 9  21032168.35249
  21410172.438 6                 112511212.478 6  87671104.56748  21410181.29348
  22850019.125 5  22850036.957 8 120077646.914 5  93566836.121 8  22850036.42646
  20007670.117 7  20007680.289 9 105141011.013 7  81928099.636 9  20007679.99649
  23468905.055 1                 123329956.224 1                                
 23 03 10 03 03 12.0000000  0  6G04G08G16G26G27G31                  
  21394654.641 6  21394664.867 9 112429660.507 6  87607567.141 9  21394664.39547
  21031821.758 6  21031836.184 9 110522968.915 6  86121984.877 9  21031835.24249
  21410446.594 6                 112512651.666 6  87672226.01148  21410455.03948
  22850422.859 5  22850440.023 9 120079766.088 5  93568487.414 9  22850439.77046
  20007745.914 7  20007755.738 9 105141408.644 7  81928409.477 9  20007755.66049
  23469371.594 1                 123332404.30411                                
 23 03 10 03 03 13.0000000  0  6G04G08G16G26G27G31                  
  21394624.984 6  21394635.090 9 112429504.312 6  87607445.419 9  21394634.71147
  21031488.352 6  21031503.078 9 110521219.265 6  86120621.517 9  21031502.35949
  21410720.703 6                 112514091.146 6  87673347.68148  21410728.90248
  22850826.133 5  22850843.262 9 120081885.396 5  93570138.812 9  22850843.17647
  20007821.539 7  20007831.656 9 105141807.101 7  81928719.956 9  20007831.43049
  23469836.172 1                                                                
 23 03 10 03 03 14.0000000  0  6G04G08G16G26G27G31                  
  21394595.078 6  21394605.395 9 112429348.805 6  87607324.246 9  21394605.18447
  21031155.836 6  21031170.504 9 110519470.201 6  86119258.616 9  21031169.42249
  21410994.211 6                 112515530.753 6  87674469.45348  21411002.93048
  22851229.734 5  22851246.430 9 120084004.694 5  93571790.206 9  22851246.46547
  20007897.563 7  20007907.586 9 105142206.259 7  81929030.989 9  20007907.41449
  23470302.617 1                                                                
 23 03 10 03 03 15.0000000  0  6G04G08G16G26G27G31                  
  21394566.008 6  21394576.152 9 112429194.084 6  87607203.679 9  21394575.80947
  21030823.164 6  21030837.484 9 110517721.800 6  86117896.230 9  21030836.64149
  21411268.398 6                 112516970.643 6  87675591.44948  21411277.02748
  22851632.164 5  22851650.020 9 120086124.140 5  93573441.710 9  22851649.91447
  20007973.367 6  20007983.770 9 105142606.235 6  81929342.660 9  20007983.37549
  23470768.219 1  23470796.504 6 123339751.16211  96108987.70516                
 23 03 10 03 03 16.0000000  0  5G04G08G16G26G27                     
  21394536.320 6  21394546.871 9 112429040.121 6  87607083.699 9  21394546.49247
  21030490.391 6  21030505.027 9 110515974.040 6  86116534.337 9  21030504.15249
  21411542.461 6                 112518410.742 6  87676713.60347  21411551.07047
  22852035.367 5  22852053.344 9 120088243.692 5  93575093.297 9  22852053.22346
  20008049.656 7  20008060.129 9 105143006.979 7  81929654.922 9  20008059.81349
 23 03 10 03 03 17.0000000  0  5G04G08G16G26G27                     
  21394507.422 6  21394517.707 9 112428886.741 6  87606964.182 9  21394517.27747
  21030158.313 6  21030172.469 9 110514226.810 6  86115172.861 9  21030171.67249
  21411816.727 6                 112519850.944 6  87677835.83648  21411825.13348
  22852438.984 4  22852456.699 8 120090363.135 4  93576744.806 8  22852456.43847
  20008126.125 7  20008136.344 9 105143408.370 7  81929967.689 9  20008136.04349
 23 03 10 03 03 18.0000000  0  5G04G08G16G26G27                     
  21394478.625 6  21394488.602 9 112428734.104 6  87606845.238 9  21394488.20347
  21029825.938 6  21029840.148 9 110512480.234 6  86113811.898 9  21029839.27749
  21412090.672 6                 112521291.361 6  87678958.23447  21412099.17247
  22852842.867 4  22852860.199 8 120092482.723 4  93578396.426 8  22852859.73846
  20008202.695 7  20008212.844 9 105143810.516 7  81930281.053 9  20008212.37549
 23 03 10 03 03 19.0000000  0  5G04G08G16G26G27                     
  21394449.531 6  21394459.789 9 112428582.266 6  87606726.920 9  21394459.20747
  21029493.477 6  21029507.867 9 110510734.316 6  86112451.443 9  21029507.09849
  21412364.781 6                 112522732.033 6  87680080.84147  21412373.23847
  22853245.516 4  22853263.613 8 120094602.385 4  93580048.095 8  22853263.14846
  20008279.250 6  20008289.707 9 105144213.473 6  81930595.049 9  20008289.15649
 23 03 10 03 03 20.0000000  0  5G04G08G16G26G27                     
  21394420.867 6  21394430.918 9 112428431.021 6  87606609.063 9  21394430.50847
  21029161.508 6  21029175.688 9 110508988.910 6  86111091.390 9  21029174.82449
  21412639.055 6                 112524172.779 6  87681203.50047  21412647.31647
  22853649.141 4  22853667.027 8 120096721.988 4  93581699.723 8  22853666.66047
  20008355.992 7  20008366.414 9 105144617.071 7  81930909.539 9  20008366.00849
 23 03 10 03 03 21.0000000  0  5G04G08G16G26G27                     
  21394392.211 6  21394402.191 9 112428280.659 6  87606491.900 9  21394401.91047
  21028829.281 6  21028843.809 9 110507244.347 6  86109731.992 9  21028842.85949
  21412913.578 6                 112525613.920 6  87682326.46547  21412921.75047
  22854052.336 4  22854070.238 8 120098841.878 4  93583351.574 8  22854070.05147
  20008433.320 7  20008443.461 9 105145021.600 7  81931224.750 9  20008442.84849
 23 03 10 03 03 22.0000000  0  5G04G08G16G26G27                     
  21394363.727 6  21394373.828 9 112428130.923 6  87606375.223 9  21394373.43047
  21028497.203 6  21028511.672 9 110505500.238 6  86108372.944 9  21028511.00849
  21413187.797 6                 112527055.115 6  87683449.46747  21413196.08647
  22854456.063 4  22854473.395 9 120100961.648 4  93585003.340 9  22854473.46946
  20008510.250 7  20008520.469 9 105145426.755 7  81931540.454 9  20008520.00049
 23 03 10 03 03 23.0000000  0  5G04G08G16G26G27                     
  21394335.531 6  21394345.543 9 112427981.885 6  87606259.087 9  21394344.99648
  21028165.516 6  21028179.930 9 110503756.770 6  86107014.403 9  21028179.34049
  21413462.078 6                 112528496.509 6  87684572.63247  21413470.32447
  22854859.625 5  22854876.875 9 120103081.503 5  93586655.159 9  22854876.75046
  20008587.414 7  20008597.688 9 105145832.654 7  81931856.737 9  20008597.21549
 23 03 10 03 03 24.0000000  0  5G04G08G16G26G27                     
  21394306.977 6  21394317.289 9 112427833.674 6  87606143.593 9  21394316.58647
  21027834.203 6  21027848.371 9 110502014.039 6  86105656.437 9  21027847.61349
  21413736.242 6                 112529938.180 6  87685696.00747  21413744.79747
  22855262.969 4  22855280.391 9 120105201.473 4  93588307.073 9  22855280.12146
  20008664.773 7  20008675.078 9 105146239.391 7  81932173.671 9  20008674.59849
 23 03 10 03 03 25.0000000  0  5G04G08G16G26G27                     
  21394278.875 6  21394289.188 9 112427686.180 6  87606028.658 9  21394288.62547
  21027502.695 6  21027516.844 9 110500271.928 6  86104298.946 9  21027516.08249
  21414011.133 6                 112531380.103 6  87686819.58947  21414019.24247
  22855666.469 5  22855683.762 9 120107321.570 5  93589959.083 9  22855683.67247
  20008742.500 7  20008752.707 9 105146646.892 7  81932491.206 9  20008752.06349
 23 03 10 03 03 26.0000000  0  5G04G08G16G26G27                     
  21394250.867 6  21394261.352 9 112427539.317 6  87605914.221 9  21394260.72348
  21027171.188 6  21027185.445 9 110498530.352 6  86102941.880 9  21027184.70349
  21414285.234 6                 112532822.086 6  87687943.20947  21414293.61747
  22856070.102 4  22856087.492 9 120109441.597 4  93591611.042 9  22856087.09447
  20008820.023 7  20008830.230 9 105147055.033 7  81932809.234 9  20008829.85549
 23 03 10 03 03 27.0000000  0  5G04G08G16G26G27                     
  21394223.391 6  21394233.535 9 112427393.044 6  87605800.238 9  21394232.82447
  21026839.625 6  21026854.184 9 110496789.252 6  86101585.187 9  21026853.34449
  21414559.617 6                 112534264.187 6  87689066.91947  21414568.12147
  22856473.273 4  22856490.910 9 120111561.588 4  93593262.983 9  22856490.60547
  20008897.961 7  20008908.105 9 105147463.812 7  81933127.770 9  20008907.54349
 23 03 10 03 03 28.0000000  0  5G04G08G16G26G27                     
  21394195.844 6  21394205.793 9 112427247.538 6  87605686.854 9  21394205.08247
  21026508.867 6  21026523.035 9 110495048.810 6  86100228.993 9  21026522.20749
  21414834.242 6                 112535706.501 6  87690190.80147  21414842.50047
  22856876.609 4  22856894.305 9 120113681.656 4  93594914.970 9  22856893.93047
  20008975.797 7  20008986.184 9 105147873.375 7  81933446.906 9  20008985.39149
 23 03 10 03 03 29.0000000  0  5G04G08G16G26G27                     
  21394168.375 6  21394178.227 9 112427102.651 6  87605573.953 9  21394177.49247
  21026177.695 6  21026191.887 9 110493308.896 6  86098873.224 9  21026191.22349
  21415108.852 6                 112537148.922 6  87691314.76447  21415116.88747
  22857279.969 4  22857297.785 8 120115801.683 4  93596566.921 8  22857297.46947
  20009054.008 7  20009063.930 9 105148283.604 7  81933766.566 9  20009063.58649
 23 03 10 03 03 30.0000000  0  5G04G08G16G26G27                     
  21394140.734 6  21394150.852 9 112426958.411 6  87605461.557 9  21394150.14147
  21025846.555 6  21025860.801 9 110491569.524 6  86097517.872 9  21025860.10549
  21415383.305 6                 112538591.470 6  87692438.82247  21415391.54747
  22857683.578 4  22857700.914 8 120117921.700 4  93598218.871 8  22857700.93046
  20009132.500 7  20009142.504 9 105148694.490 7  81934086.740 9  20009141.74649
 23 03 10 03 03 31.0000000  0  5G04G08G16G26G27                     
  21394113.641 6  21394123.648 9 112426815.097 6  87605349.879 9  21394122.90247
  21025515.406 6  21025530.074 9 110489830.988 6  86096163.168 9  21025529.33649
  21415658.078 6                 112540034.422 6  87693563.19647  21415666.15247
  22858087.484 4  22858104.477 8 120120041.990 4  93599871.039 8  22858104.42247
  20009210.602 7  20009220.891 9 105149106.349 7  81934407.666 9  20009220.12949
 23 03 10 03 03 32.0000000  0  5G04G08G16G26G27                     
  21394086.125 6  21394096.203 9 112426672.421 6  87605238.703 9  21394095.76647
  21025184.930 6  21025199.539 9 110488092.931 6  86094808.845 9  21025198.55549
  21415932.836 6                 112541477.451 6  87694687.63047  21415940.76247
  22858490.656 4  22858508.070 9 120122162.220 4  93601523.156 9  22858507.84447
  20009289.109 7  20009299.133 9 105149518.836 7  81934729.084 9  20009298.72749
 23 03 10 03 03 33.0000000  0  5G04G08G16G26G27                     
  21394059.203 6  21394069.395 9 112426530.402 6  87605128.031 9  21394068.73847
  21024854.469 6  21024868.875 9 110486355.430 6  86093454.952 9  21024867.94949
  21416207.266 6                 112542920.647 6  87695812.19547  21416215.33647
  22858894.195 4  22858911.512 9 120124282.460 4  93603175.276 9  22858911.52347
  20009367.633 7  20009377.910 9 105149932.030 7  81935051.054 9  20009377.43849
 23 03 10 03 03 34.0000000  0  5G04G08G16G26G27                     
  21394032.359 6  21394042.672 9 112426389.061 6  87605017.894 9  21394041.66047
  21024523.578 6  21024538.188 9 110484618.541 6  86092101.537 9  21024537.48849
  21416481.531 6                 112544364.000 6  87696936.88148  21416489.95748
  22859297.930 5  22859314.895 9 120126402.738 5  93604827.431 9  22859315.03146
  20009446.492 7  20009456.746 9 105150345.933 7  81935373.573 9  20009456.05949
 23 03 10 03 03 35.0000000  0  5G04G08G16G26G27                     
  21394005.281 6  21394015.695 9 112426248.504 6  87604908.361 9  21394015.02047
  21024193.406 6  21024207.703 9 110482882.359 6  86090748.659 9  21024207.01649
  21416756.273 6                 112545807.617 6  87698061.77547  21416764.48047
  22859701.195 5  22859718.504 9 120128523.141 5  93606479.681 9  22859718.52747
  20009525.305 7  20009535.734 9 105150760.652 7  81935696.727 9  20009535.01249
 23 03 10 03 03 36.0000000  0  5G04G08G16G26G27                     
  21393978.570 6  21393989.109 9 112426108.638 6  87604799.378 9  21393988.37147
  21023863.164 6  21023877.352 9 110481146.751 6  86089396.242 9  21023876.78149
  21417031.102 6                 112547251.410 6  87699186.80447  21417039.31647
  22860104.008 5  22860122.094 9 120130643.531 5  93608131.925 9  22860121.97347
  20009604.797 7  20009614.898 9 105151176.083 7  81936020.440 9  20009614.02349
 23 03 10 03 03 37.0000000  0  5G04G08G16G26G27                     
  21393952.219 6  21393962.660 9 112425969.390 6  87604690.864 9  21393961.89847
  21023533.031 6  21023547.156 9 110479411.665 6  86088044.229 9  21023546.54749
  21417305.703 6                 112548695.271 6  87700311.88548  21417314.10248
  22860507.930 5  22860525.633 9 120132763.912 5  93609784.164 9  22860525.56647
  20009683.633 7  20009693.688 9 105151592.153 7  81936344.659 9  20009693.12149
 23 03 10 03 03 38.0000000  0  5G04G08G16G26G27                     
  21393925.977 6  21393936.313 9 112425830.880 6  87604582.933 9  21393935.48447
  21023203.141 6  21023217.129 9 110477677.228 6  86086692.729 9  21023216.48449
  21417580.820 6                 112550139.376 6  87701437.15848  21417588.70748
  22860911.805 5  22860929.145 9 120134884.366 5  93611436.450 9  22860928.99646
  20009762.859 7  20009773.203 9 105152008.991 7  81936669.460 9  20009772.42249
 23 03 10 03 03 39.0000000  0  5G04G08G16G26G27                     
  21393899.820 6  21393910.031 9 112425693.108 6  87604475.574 9  21393909.43847
  21022873.148 6  21022887.141 9 110475943.451 6  86085341.734 9  21022886.60549
  21417855.688 6                 112551583.670 6  87702562.58947  21417863.67647
  22861315.266 5  22861332.520 9 120137004.886 5  93613088.794 9  22861332.55147
  20009842.219 7  20009852.328 9 105152426.617 7  81936994.886 9  20009851.99249
 23 03 10 03 03 40.0000000  0  5G04G08G16G26G27                     
  21393873.445 6  21393883.891 9 112425556.116 6  87604368.826 9  21393883.30147
  21022542.633 6  21022557.551 9 110474210.340 6  86083991.255 9  21022556.84849
  21418130.789 6                 112553028.229 6  87703688.20547  21418138.57047
  22861718.578 5  22861736.164 9 120139125.549 5  93614741.252 9  22861736.13347
  20009922.234 7  20009932.199 9 105152845.049 7  81937320.938 9  20009931.76249
 23 03 10 03 03 41.0000000  0  5G04G08G16G26G27                     
  21393847.766 6  21393857.926 9 112425419.790 6  87604262.594 9  21393857.32447
  21022213.672 6  21022227.738 9 110472477.824 6  86082641.253 9  21022227.08649
  21418405.523 6                 112554472.956 6  87704813.96547  21418413.39147
  22862122.695 5  22862139.711 9 120141246.215 5  93616393.709 9  22862139.63747
  20010001.992 7  20010011.934 9 105153264.174 7  81937647.525 9  20010011.50449
 23 03 10 03 03 42.0000000  0  5G04G08G16G26G27                     
  21393822.055 6  21393832.164 9 112425284.120 6  87604156.875 9  21393831.52747
  21021884.094 6  21021898.129 9 110470745.823 6  86081291.646 9  21021897.56349
  21418680.320 6                 112555917.786 6  87705939.80647  21418688.47747
  22862526.133 5  22862543.344 8 120143366.855 5  93618046.146 8  22862543.21147
  20010081.578 7  20010092.004 9 105153683.948 7  81937974.621 9  20010091.34049
 23 03 10 03 03 43.0000000  0  5G04G08G16G26G27                     
  21393796.164 6  21393806.504 9 112425149.179 6  87604051.722 9  21393805.96947
  21021554.250 6  21021568.570 9 110469014.439 6  86079942.515 9  21021568.18449
  21418955.219 6                 112557362.844 6  87707065.81647  21418963.64847
  22862929.063 5  22862946.844 8 120145487.566 5  93619698.646 8  22862946.77347
  20010161.828 7  20010172.004 9 105154104.502 7  81938302.319 9  20010171.37949
 23 03 10 03 03 44.0000000  0  5G04G08G16G26G27                     
  21393770.719 6  21393781.074 9 112425015.065 6  87603947.217 9  21393780.47747
  21021224.930 6  21021239.395 9 110467283.793 6  86078593.965 9  21021238.80549
  21419230.109 6                 112558808.189 6  87708192.06147  21419238.59847
  22863333.000 5  22863350.395 9 120147608.441 5  93621351.259 9  22863350.28547
  20010242.078 7  20010252.270 9 105154525.908 7  81938630.690 9  20010251.66049
 23 03 10 03 03 45.0000000  0  5G04G08G16G26G27                     
  21393745.336 6  21393755.703 9 112424881.704 6  87603843.295 9  21393755.07847
  21020895.766 6  21020910.074 9 110465553.848 6  86077245.952 9  21020909.49649
  21419505.336 6                 112560253.791 6  87709318.50247  21419513.61347
  22863736.773 5  22863754.246 9 120149729.401 5  93623003.943 9  22863753.96947
  20010322.109 7  20010332.613 9 105154948.110 7  81938959.678 9  20010332.01649
 23 03 10 03 03 46.0000000  0  5G04G08G16G26G27                     
  21393720.344 6  21393730.543 9 112424749.043 6  87603739.921 9  21393729.73047
  21020566.680 6  21020581.109 9 110463824.477 6  86075898.393 9  21020580.41849
  21419780.258 6                 112561699.569 6  87710445.08247  21419788.72747
  22864140.828 5  22864157.770 9 120151850.436 5  93624656.693 9  22864157.80947
  20010402.438 7  20010413.063 9 105155371.049 7  81939289.239 9  20010412.47749
 23 03 10 03 03 47.0000000  0  5G04G08G16G26G27                     
  21393694.805 6  21393705.484 9 112424617.035 6  87603637.055 9  21393704.65247
  21020237.719 6  21020252.203 9 110462095.648 6  86074551.258 9  21020251.46949
  21420055.625 6                 112563145.453 6  87711571.73947  21420063.90647
  22864544.289 5  22864561.434 9 120153971.440 5  93626309.415 9  22864561.46147
  20010483.250 7  20010493.785 9 105155794.638 7  81939619.308 9  20010493.13749
 23 03 10 03 03 48.0000000  0  5G04G08G16G26G27                     
  21393670.094 6  21393680.461 9 112424485.859 6  87603534.838 9  21393679.66847
  21019909.406 6  21019923.281 9 110460367.588 6  86073204.713 9  21019922.62149
  21420330.305 6                 112564591.669 6  87712698.65447  21420339.12547
  22864947.375 5  22864965.000 9 120156092.635 5  93627962.277 9  22864965.12947
  20010564.188 7  20010574.313 9 105156219.111 7  81939950.068 9  20010573.87549
 23 03 10 03 03 49.0000000  0  5G04G08G16G26G27                     
  21393644.758 6  21393655.566 9 112424355.321 6  87603433.114 9  21393654.80547
  21019580.109 6  21019594.555 9 110458640.043 6  86071858.585 9  21019593.96549
  21420605.609 6                 112566037.967 6  87713825.64447  21420614.30947
  22865351.797 5  22865368.750 9 120158213.780 5  93629615.112 9  22865368.77347
  20010644.953 7  20010655.219 9 105156644.234 7  81940281.328 9  20010654.68449
 23 03 10 03 03 50.0000000  0  5G04G08G16G26G27                     
  21393620.867 6  21393630.668 9 112424225.461 6  87603331.916 9  21393630.20747
  21019251.805 6  21019266.039 9 110456913.077 6  86070512.896 9  21019265.17249
  21420881.109 6                 112567484.422 6  87714952.75047  21420889.64847
  22865755.156 4  22865772.352 9 120160334.934 4  93631267.953 9  22865772.48847
  20010726.188 7  20010736.016 9 105157070.057 7  81940613.132 9  20010735.86349
 23 03 10 03 03 51.0000000  0  5G04G08G16G26G27                     
  21393596.109 6  21393605.977 9 112424096.228 6  87603231.212 9  21393605.68847
  21018922.992 6  21018937.340 9 110455186.635 6  86069167.618 9  21018936.60949
  21421156.758 6                 112568931.016 6  87716079.96147  21421164.74647
  22866159.289 5  22866175.738 9 120162456.077 5  93632920.786 9  22866176.12547
  20010807.328 7  20010817.410 9 105157496.558 7  81940945.472 9  20010816.97349
 23 03 10 03 03 52.0000000  0  5G04G08G16G26G27                     
  21393571.555 6  21393581.621 9 112423967.604 6  87603130.983 9  21393581.18847
  21018594.852 6  21018609.023 9 110453460.727 6  86067822.756 9  21018608.30949
  21421432.109 6                 112570377.654 6  87717207.20947  21421439.97747
  22866562.695 5  22866579.480 9 120164577.164 5  93634573.571 9  22866579.57047
  20010888.352 7  20010898.820 9 105157923.669 7  81941278.289 9  20010898.34849
 23 03 10 03 03 53.0000000  0  5G04G08G16G26G27                     
  21393547.180 6  21393557.473 9 112423839.788 6  87603031.383 9  21393556.91447
  21018266.383 6  21018280.828 9 110451735.490 6  86066478.416 9  21018280.04349
  21421707.016 6                 112571824.594 6  87718334.68947  21421715.28547
  22866965.992 5  22866983.184 9 120166698.388 5  93636226.459 9  22866983.30547
  20010970.164 7  20010980.109 9 105158351.638 7  81941611.769 9  20010979.88349
 23 03 10 03 03 54.0000000  0  5G04G08G16G26G27                     
  21393522.727 6  21393532.871 9 112423712.652 6  87602932.308 9  21393532.77347
  21017938.094 6  21017952.617 9 110450010.835 6  86065134.530 9  21017951.82849
  21421983.148 6                 112573271.680 6  87719462.28047  21421990.56347
  22867369.711 5  22867387.047 8 120168819.652 5  93637879.383 8  22867386.92247
  20011051.742 7  20011061.688 9 105158780.301 7  81941945.787 9  20011061.52049
 23 03 10 03 03 55.0000000  0  5G04G08G16G26G27                     
  21393498.719 6  21393508.984 9 112423586.281 6  87602833.832 9  21393508.92647
  21017610.352 6  21017624.301 9 110448286.880 6  86063791.196 9  21017623.66049
  21422258.023 6                 112574719.021 6  87720590.08147  21422266.13347
  22867772.984 5  22867790.695 9 120170940.993 5  93639532.376 9  22867790.82046
  20011133.031 7  20011143.371 9 105159209.759 7  81942280.429 9  20011143.19549
 23 03 10 03 03 56.0000000  0  5G04G08G16G26G27                     
  21393475.063 6  21393484.973 9 112423460.601 6  87602735.897 9  21393485.02747
  21017282.039 6  21017296.523 9 110446563.483 6  86062448.294 9  21017295.82049
  21422533.227 6                 112576166.524 6  87721718.00747  21422541.71547
  22868177.336 5  22868194.117 9 120173062.345 5  93641185.364 9  22868194.48447
  20011214.977 7  20011225.246 9 105159639.925 7  81942615.623 9  20011225.12549
 23 03 10 03 03 57.0000000  0  5G04G08G16G26G27                     
  21393451.125 6  21393461.375 9 112423335.748 6  87602638.605 9  21393461.13347
  21016954.063 6  21016968.801 9 110444840.861 6  86061105.995 9  21016968.01249
  21422808.734 6                 112577614.353 6  87722846.17148  21422817.16848
  22868581.344 5  22868598.086 9 120175183.916 5  93642838.521 9  22868598.27047
  20011297.125 7  20011307.551 9 105160070.979 7  81942951.503 9  20011307.21149
 23 03 10 03 03 58.0000000  0  5G04G08G16G26G27                     
  21393426.820 6  21393437.777 9 112423211.685 6  87602541.932 9  21393437.60947
  21016626.984 6  21016641.180 9 110443118.903 6  86059764.210 9  21016640.39849
  21423084.031 6                 112579062.426 6  87723974.53847  21423092.73847
  22868984.250 5  22869001.813 9 120177305.589 5  93644491.766 9  22869002.00047
  20011379.484 7  20011389.566 9 105160502.829 7  81943288.009 9  20011389.36749
 23 03 10 03 03 59.0000000  0  5G04G08G16G26G27                     
  21393403.563 6  21393414.098 9 112423088.315 6  87602445.795 9  21393414.12147
  21016299.398 6  21016313.496 9 110441397.549 6  86058422.902 9  21016312.74649
  21423359.531 6                 112580510.675 6  87725103.04647  21423368.29747
  22869388.289 5  22869405.543 9 120179427.304 5  93646145.043 9  22869405.84047
  20011461.906 7  20011472.055 9 105160935.395 7  81943625.072 9  20011471.84049
 23 03 10 03 04 00.0000000  0  5G04G08G16G26G27                     
  21393380.258 6  21393390.918 9 112422965.488 6  87602350.088 9  21393390.78547
  21015971.875 6  21015985.742 9 110439676.626 6  86057081.916 9  21015985.25849
  21423635.602 6                 112581958.961 6  87726231.57647  21423643.93447
  22869792.336 5  22869809.473 9 120181548.911 5  93647798.238 9  22869809.47347
  20011544.398 7  20011554.320 9 105161368.549 7  81943962.598 9  20011554.20349
 23 03 10 03 04 01.0000000  0  5G04G08G16G26G27                     
  21393357.078 6  21393367.602 9 112422843.512 6  87602255.024 9  21393367.51647
  21015644.461 6  21015658.578 9 110437956.418 6  86055741.502 9  21015657.85549
  21423911.234 6                 112583407.546 6  87727360.34548  21423919.64548
  22870196.508 5  22870213.207 9 120183670.656 5  93649451.538 9  22870213.20747
  20011626.391 7  20011637.012 9 105161802.545 7  81944300.771 9  20011636.86349
 23 03 10 03 04 02.0000000  0  5G04G08G16G26G27                     
  21393334.383 6  21393344.660 9 112422722.160 6  87602160.465 9  21393344.41847
  21015317.258 6  21015331.410 9 110436236.792 6  86054401.535 9  21015330.68449
  21424187.063 6                 112584856.234 6  87728489.18147  21424195.34847
  22870599.383 5  22870616.855 9 120185792.384 5  93651104.817 9  22870616.93047
  20011709.367 7  20011719.672 9 105162237.235 7  81944639.483 9  20011719.58649
 23 03 10 03 04 03.0000000  0  5G04G08G16G26G27                     
  21393311.227 6  21393321.520 9 112422601.510 6  87602066.451 9  21393321.59447
  21014989.898 6  21015004.113 9 110434517.784 6  86053062.046 9  21015003.53149
  21424462.680 6                 112586305.108 6  87729618.17247  21424470.97347
  22871004.203 5  22871020.852 9 120187914.181 5  93652758.159 9  22871020.76247
  20011791.906 7  20011802.621 9 105162672.640 7  81944978.760 9  20011802.36349
 23 03 10 03 04 04.0000000  0  5G04G08G16G26G27                     
  21393288.609 6  21393298.664 9 112422481.627 6  87601973.033 9  21393298.86747
  21014662.961 6  21014677.164 9 110432799.439 6  86051723.077 9  21014676.61349
  21424738.047 6                 112587754.222 6  87730747.35047  21424746.73447
  22871407.250 5  22871424.668 9 120190036.039 5  93654411.549 9  22871424.63747
  20011875.094 7  20011885.520 9 105163108.826 7  81945318.642 9  20011885.42249
 23 03 10 03 04 05.0000000  0  5G04G08G16G26G27                     
  21393265.719 6  21393276.113 9 112422362.556 6  87601880.241 9  21393276.15647
  21014336.273 6  21014350.461 9 110431081.811 6  86050384.668 9  21014349.64149
  21425014.305 6                 112589203.625 6  87731876.75347  21425022.59847
  22871811.258 5  22871828.242 9 120192158.109 5  93656065.097 9  22871828.41847
  20011958.453 7  20011968.891 9 105163545.861 7  81945659.191 9  20011968.66049
 23 03 10 03 04 06.0000000  0  5G04G08G16G26G27                     
  21393243.414 6  21393253.777 9 112422244.169 6  87601787.991 9  21393253.56347
  21014009.242 6  21014023.563 9 110429364.754 6  86049046.705 9  21014022.98849
  21425290.070 6                 112590653.187 6  87733006.28147  21425298.35947
  22872214.703 5  22872232.176 9 120194280.125 5  93657718.605 9  22872232.08647
  20012041.563 7  20012052.156 9 105163983.605 7  81946000.294 9  20012051.90649
 23 03 10 03 04 07.0000000  0  5G04G08G16G26G27                     
  21393220.891 6  21393231.293 9 112422126.492 6  87601696.287 9  21393231.16047
  21013682.492 6  21013697.008 9 110427648.347 6  86047709.242 9  21013696.30149
  21425566.156 6                 112592102.941 6  87734135.96047  21425574.23047
  22872619.133 5  22872636.086 9 120196402.287 5  93659372.235 9  22872635.85547
  20012125.109 7  20012135.410 9 105164422.102 7  81946341.969 9  20012135.46549
 23 03 10 03 04 08.0000000  0  5G04G08G16G26G27                     
  21393198.594 6  21393208.953 9 112422009.582 6  87601605.187 9  21393208.91047
  21013356.102 6  21013370.543 9 110425932.565 6  86046372.271 9  21013369.80149
  21425842.039 6                 112593552.927 6  87735265.81547  21425850.04747
  22873022.797 5  22873039.891 9 120198524.477 5  93661025.888 9  22873039.84047
  20012208.648 7  20012219.270 9 105164861.357 7  81946684.249 9  20012218.99249
 23 03 10 03 04 09.0000000  0  5G04G08G16G26G27                     
  21393175.883 6  21393186.922 9 112421893.341 6  87601514.606 9  21393186.74247
  21013029.969 6  21013044.059 9 110424217.379 6  86045035.769 9  21013043.38349
  21426117.844 6                 112595003.060 6  87736395.78347  21426126.03147
  22873426.461 5  22873443.750 9 120200646.678 5  93662679.530 9  22873443.67247
  20012292.398 7  20012302.805 9 105165301.315 7  81947027.073 9  20012302.71949
 23 03 10 03 04 10.0000000  0  5G04G08G16G26G27                     
  21393154.836 6  21393164.859 9 112421777.846 6  87601424.594 9  21393164.78547
  21012703.664 6  21012717.684 9 110422502.834 6  86043699.759 9  21012717.07049
  21426394.188 6                 112596453.417 6  87737525.93147  21426401.96147
  22873830.563 5  22873847.551 9 120202768.986 5  93664333.267 9  22873847.54747
  20012376.664 7  20012386.586 9 105165742.062 7  81947370.514 9  20012386.45349
 23 03 10 03 04 11.0000000  0  5G04G08G16G26G27                     
  21393132.922 6  21393142.988 9 112421663.104 6  87601335.190 9  21393143.12147
  21012377.430 6  21012391.594 9 110420788.966 6  86042364.284 9  21012390.83649
  21426670.391 6                 112597903.991 6  87738656.24847  21426678.02747
  22874234.789 5  22874251.094 9 120204891.386 5  93665987.072 9  22874251.50447
  20012460.320 7  20012470.543 9 105166183.591 7  81947714.553 9  20012470.45349
 23 03 10 03 04 12.0000000  0  5G04G08G16G26G27                     
  21393111.445 6  21393121.289 9 112421549.144 6  87601246.378 9  21393121.33647
  21012051.508 6  21012065.516 9 110419075.756 6  86041029.311 9  21012064.81349
  21426946.406 6                 112599354.839 6  87739786.78247  21426954.20347
  22874638.391 5  22874655.313 9 120207013.921 5  93667640.991 9  22874655.31647
  20012544.406 7  20012554.824 9 105166625.923 7  81948059.230 9  20012554.65249
 23 03 10 03 04 13.0000000  0  5G04G08G16G26G27                     
  21393089.406 6  21393099.523 9 112421435.859 6  87601158.105 9  21393099.76647
  21011725.836 6  21011739.547 9 110417363.109 6  86039694.782 9  21011739.01249
  21427222.945 6                 112600805.829 6  87740917.42047  21427230.35547
  22875041.883 5  22875059.332 9 120209136.450 5  93669294.896 9  22875059.30147
  20012629.055 7  20012639.000 9 105167068.974 7  81948404.469 9  20012638.96149
 23 03 10 03 04 14.0000000  0  5G04G08G16G26G27                     
  21393068.297 6  21393078.293 9 112421323.279 6  87601070.374 9  21393078.26247
  21011399.578 6  21011413.754 9 110415651.077 6  86038360.739 9  21011413.04749
  21427498.586 6                 112602257.001 6  87742048.19347  21427506.57047
  22875446.000 5  22875463.211 9 120211259.020 5  93670948.839 9  22875463.15247
  20012713.609 7  20012723.848 9 105167512.723 7  81948750.242 9  20012723.48049
 23 03 10 03 04 15.0000000  0  5G04G08G16G26G27                     
  21393046.961 6  21393057.121 9 112421211.563 6  87600983.313 9  21393057.27047
  21011073.906 6  21011088.156 9 110413939.825 6  86037027.299 9  21011087.51649
  21427774.539 6                 112603708.498 6  87743179.22847  21427782.57047
  22875849.992 5  22875867.031 9 120213381.780 5  93672602.932 9  22875867.14147
  20012797.891 7  20012808.059 9 105167957.386 7  81949096.730 9  20012808.02349
 23 03 10 03 04 16.0000000  0  5G04G08G16G26G27                     
  21393025.453 6  21393036.203 9 112421100.440 6  87600896.726 9  21393035.98047
  21010748.891 6  21010762.387 9 110412229.095 6  86035694.262 9  21010761.98449
  21428051.156 6                 112605160.093 6  87744310.34347  21428058.66847
  22876254.320 5  22876271.105 9 120215504.476 5  93674256.979 9  22876271.03547
  20012882.977 7  20012892.949 9 105168402.671 7  81949443.705 9  20012892.75049
 23 03 10 03 04 17.0000000  0  5G04G08G16G26G27                     
  21393004.625 6  21393015.133 9 112420990.122 6  87600810.764 9  21393015.05547
  21010422.992 6  21010436.961 9 110410519.079 6  86034361.782 9  21010436.37149
  21428326.906 6                 112606611.961 6  87745441.65947  21428335.16447
  22876657.930 5  22876675.004 8 120217627.349 5  93675911.147 8  22876675.05547
  20012967.648 7  20012978.012 9 105168848.781 7  81949791.319 9  20012977.71149
 23 03 10 03 04 18.0000000  0  5G04G08G16G26G27                     
  21392983.922 6  21392994.086 9 112420880.388 6  87600725.252 9  21392994.18047
  21010098.039 6  21010111.758 9 110408809.541 6  86033029.677 9  21010111.21149
  21428603.430 6                 112608063.861 6  87746573.00647  21428611.47347
  22877061.758 5  22877079.078 8 120219750.099 5  93677565.234 8  22877078.89547
  20013052.602 7  20013062.973 9 105169295.496 7  81950139.409 9  20013062.60549
 23 03 10 03 04 19.0000000  0  5G04G08G16G26G27                     
  21392962.641 6  21392973.516 9 112420771.524 6  87600640.424 9  21392973.58647
  21009772.383 6  21009786.801 9 110407100.748 6  86031698.151 9  21009785.91049
  21428878.992 6                 112609516.119 6  87747704.63647  21428887.79747
  22877466.172 5  22877483.082 8 120221873.085 5  93679219.500 8  22877482.99647
  20013137.805 7  20013147.949 9 105169743.098 7  81950488.193 9  20013147.84449
 23 03 10 03 04 20.0000000  0  5G04G08G16G26G27                     
  21392942.297 6  21392952.930 9 112420663.310 6  87600556.089 9  21392953.02347
  21009447.547 6  21009461.711 9 110405392.506 6  86030367.065 9  21009460.76249
  21429155.922 6                 112610968.518 6  87748836.36947  21429164.12947
  22877870.086 5  22877887.203 9 120223996.044 5  93680873.744 9  22877887.05547
  20013223.070 7  20013233.402 9 105170191.413 7  81950837.521 9  20013233.23049
 23 03 10 03 04 21.0000000  0  5G04G08G16G26G27                     
  21392922.477 6  21392932.426 9 112420555.771 6  87600472.289 9  21392932.68047
  21009122.852 6  21009136.590 9 110403684.854 6  86029036.420 9  21009135.91449
  21429432.617 6                 112612421.066 6  87749968.23047  21429440.43447
  22878274.086 5  22878291.238 9 120226119.028 5  93682528.010 9  22878290.85247
  20013308.484 7  20013318.992 9 105170640.406 7  81951187.385 9  20013318.61749
 23 03 10 03 04 22.0000000  0  5G04G08G16G26G27                     
  21392901.609 6  21392912.109 9 112420449.037 6  87600389.115 9  21392912.37947
  21008798.055 6  21008811.793 9 110401977.914 6  86027706.340 9  21008811.03149
  21429708.977 6                 112613873.867 6  87751100.27647  21429716.82847
  22878678.375 5  22878694.949 9 120228242.156 5  93684182.380 9  22878694.84447
  20013394.195 7  20013404.633 9 105171090.221 7  81951537.897 9  20013404.27049
 23 03 10 03 04 23.0000000  0  5G04G08G16G26G27                     
  21392881.531 6  21392891.762 9 112420342.834 6  87600306.359 9  21392892.18847
  21008473.039 6  21008487.055 9 110400271.402 6  86026376.604 9  21008486.33649
  21429985.320 6                 112615326.686 6  87752232.34047  21429993.27047
  22879082.227 5  22879098.906 9 120230365.144 5  93685836.646 9  22879098.77747
  20013480.164 7  20013490.254 9 105171540.601 7  81951888.842 9  20013489.98849
 23 03 10 03 04 24.0000000  0  5G04G08G16G26G27                     
  21392861.508 6  21392871.719 9 112420237.404 6  87600224.198 9  21392871.96147
  21008148.891 6  21008162.402 9 110398565.589 6  86025047.396 9  21008161.73049
  21430261.758 6                 112616779.769 6  87753364.61047  21430269.69147
  22879485.992 5  22879503.113 9 120232488.254 5  93687491.006 9  22879502.71147
  20013565.867 7  20013575.785 9 105171991.785 7  81952240.405 9  20013575.85549
 23 03 10 03 04 25.0000000  0  5G04G08G16G26G27                     
  21392842.023 6  21392851.730 9 112420132.528 6  87600142.472 9  21392851.89847
  21007823.953 6  21007837.766 9 110396860.216 6  86023718.538 9  21007837.15649
  21430538.391 6                 112618232.876 6  87754496.90247  21430546.30947
  22879889.664 5  22879906.918 9 120234611.265 5  93689145.294 9  22879906.76247
  20013651.945 7  20013662.121 9 105172443.559 7  81952592.437 9  20013661.70749
 23 03 10 03 04 26.0000000  0  5G04G08G16G26G27                     
  21392821.477 6  21392832.086 9 112420028.260 6  87600061.227 9  21392832.09047
  21007499.516 6  21007513.297 9 110395155.371 6  86022390.090 9  21007512.54349
  21430815.055 6                 112619686.057 6  87755629.24648  21430822.99248
  22880293.727 5  22880311.156 9 120236734.209 5  93690799.518 9  22880310.82047
  20013737.906 7  20013748.250 9 105172895.958 7  81952944.961 9  20013747.82049
 23 03 10 03 04 27.0000000  0  5G04G08G16G26G27                     
  21392801.859 6  21392812.297 9 112419924.805 6  87599980.601 9  21392812.43047
  21007175.305 6  21007189.012 9 110393451.221 6  86021062.187 9  21007188.45349
  21431091.734 6                 112621139.528 6  87756761.80847  21431099.52347
  22880698.227 5  22880715.199 9 120238857.277 5  93692453.848 9  22880714.82047
  20013823.883 7  20013834.340 9 105173349.191 7  81953298.126 9  20013834.01649
 23 03 10 03 04 28.0000000  0  5G04G08G16G26G27                     
  21392782.836 6  21392792.801 9 112419822.216 6  87599900.661 9  21392792.76647
  21006851.141 6  21006864.691 9 110391747.866 6  86019734.894 9  21006864.22349
  21431368.375 6                 112622593.322 6  87757894.63047  21431376.15647
  22881102.156 5  22881119.121 9 120240980.617 5  93694108.395 9  22881118.82447
  20013910.844 7  20013920.906 9 105173803.312 7  81953651.984 9  20013920.43049
 23 03 10 03 04 29.0000000  0  5G04G08G16G26G27                     
  21392763.391 6  21392773.676 9 112419720.347 6  87599821.272 9  21392773.36747
  21006527.141 6  21006540.875 9 110390045.108 6  86018408.069 9  21006540.19949
  21431644.727 6                 112624047.345 6  87759027.64547  21431652.85547
  22881506.742 5  22881523.262 8 120243103.983 5  93695762.958 8  22881522.76647
  20013996.977 7  20014007.375 9 105174258.214 7  81954006.452 9  20014007.12549
 23 03 10 03 04 30.0000000  0  5G04G08G16G26G27                     
  21392743.797 6  21392754.246 9 112419619.217 6  87599742.472 9  21392754.13747
  21006203.141 6  21006217.063 9 110388343.005 6  86017081.759 9  21006216.37149
  21431920.727 6                 112625501.576 6  87760160.80247  21431929.58247
  22881910.477 5  22881927.438 8 120245227.417 5  93697417.569 8  22881926.75447
  20014083.961 7  20014094.199 9 105174713.854 7  81954361.502 9  20014093.69549
 23 03 10 03 04 31.0000000  0  5G04G08G16G26G27                     
  21392725.125 6  21392735.156 9 112419518.697 6  87599664.142 9  21392735.05547
  21005879.461 6  21005893.203 9 110386641.395 6  86015755.837 9  21005892.48849
  21432198.320 6                 112626955.867 6  87761294.01247  21432206.32447
  22882314.203 5  22882331.543 8 120247350.803 5  93699072.146 8  22882330.79747
  20014170.516 7  20014181.090 9 105175170.136 7  81954717.044 9  20014180.41049
 23 03 10 03 04 32.0000000  0  5G04G08G16G26G27                     
  21392705.742 6  21392716.176 9 112419418.863 6  87599586.347 9  21392716.10547
  21005555.625 6  21005569.605 9 110384940.409 6  86014430.392 9  21005568.71549
  21432474.961 6                 112628410.332 6  87762427.35447  21432483.17647
  22882718.664 5  22882735.559 9 120249474.200 5  93700726.734 9  22882734.89847
  20014257.539 7  20014267.934 9 105175627.116 7  81955073.129 9  20014267.47349
 23 03 10 03 04 33.0000000  0  5G04G08G16G26G27                     
  21392686.930 6  21392697.398 9 112419319.723 6  87599509.089 9  21392697.47747
  21005232.023 6  21005246.145 9 110383239.983 6  86013105.386 9  21005245.24249
  21432752.008 6                 112629864.951 6  87763560.82447  21432759.87947
  22883123.398 5  22883139.664 9 120251597.633 5  93702381.351 9  22883138.99247
  20014344.422 7  20014355.023 9 105176084.820 7  81955429.780 9  20014354.71949
 23 03 10 03 04 34.0000000  0  5G04G08G16G26G27                     
  21392668.227 6  21392678.551 9 112419221.291 6  87599432.391 9  21392678.73047
  21004908.281 6  21004922.434 9 110381540.191 6  86011780.879 9  21004921.55949
  21433028.500 6                 112631319.779 6  87764694.45747  21433036.69947
  22883526.797 5  22883543.859 9 120253721.136 5  93704036.019 9  22883543.15647
  20014431.969 7  20014442.016 9 105176543.269 7  81955787.006 9  20014441.74249
 23 03 10 03 04 35.0000000  0  5G04G08G16G26G27                     
  21392649.461 6  21392660.152 9 112419123.617 6  87599356.272 9  21392659.97347
  21004585.078 6  21004599.266 9 110379841.024 6  86010456.850 9  21004598.57049
  21433305.531 6                 112632774.800 6  87765828.23447  21433313.52747
  22883931.016 5  22883947.918 9 120255844.729 5  93705690.754 9  22883947.21147
  20014519.063 7  20014529.742 9 105177002.500 7  81956144.850 9  20014529.26249
 23 03 10 03 04 36.0000000  0  5G04G08G16G26G27                     
  21392631.125 6  21392641.313 9 112419026.578 6  87599280.654 9  21392641.39147
  21004262.203 6  21004275.945 9 110378142.416 6  86009133.260 9  21004275.09849
  21433582.258 6                 112634229.985 6  87766962.13647  21433590.34447
  22884335.180 5  22884351.977 9 120257968.284 5  93707345.467 9  22884351.34047
  20014606.758 7  20014617.355 9 105177462.395 7  81956503.208 9  20014616.75449
 23 03 10 03 04 37.0000000  0  5G04G08G16G26G27                     
  21392612.891 6  21392623.105 9 112418930.394 6  87599205.705 9  21392623.23047
  21003938.984 6  21003952.871 9 110376444.575 6  86007810.272 9  21003952.05949
  21433859.117 6                 112635685.453 6  87768096.26847  21433867.21947
  22884739.453 5  22884756.121 9 120260092.033 5  93709000.318 9  22884755.47747
  20014694.281 7  20014704.730 9 105177923.146 7  81956862.242 9  20014704.36349
 23 03 10 03 04 38.0000000  0  5G04G08G16G26G27                     
  21392594.703 6  21392605.074 9 112418834.962 6  87599131.338 9  21392604.83247
  21003615.695 6  21003630.172 9 110374747.419 6  86006487.808 9  21003629.17649
  21434136.352 6                 112637141.177 6  87769230.59547  21434144.21547
  22885143.695 5  22885160.363 9 120262215.894 5  93710655.270 9  22885159.62147
  20014781.922 7  20014792.637 9 105178384.711 7  81957221.898 9  20014792.22749
 23 03 10 03 04 39.0000000  0  5G04G08G16G26G27                     
  21392576.758 6  21392587.215 9 112418740.300 6  87599057.574 9  21392586.88747
  21003292.742 6  21003307.168 9 110373050.912 6  86005165.863 9  21003306.29349
  21434413.703 6                 112638597.144 6  87770365.11547  21434421.31647
  22885547.586 5  22885564.586 9 120264339.831 5  93712310.277 9  22885563.89847
  20014870.148 7  20014880.777 9 105178847.062 7  81957582.170 9  20014880.21149
 23 03 10 03 04 40.0000000  0  5G04G08G16G26G27                     
  21392559.016 6  21392569.191 9 112418646.330 6  87598984.347 9  21392569.10247
  21002970.453 6  21002984.543 9 110371354.987 6  86003844.367 9  21002983.56649
  21434690.438 6                 112640053.239 6  87771499.73347  21434698.48047
  22885952.188 5  22885968.934 9 120266463.806 5  93713965.311 9  22885968.14147
  20014958.398 7  20014968.594 9 105179310.108 7  81957942.986 9  20014968.24249
 23 03 10 03 04 41.0000000  0  5G04G08G16G26G27                     
  21392540.820 6  21392551.328 9 112418553.066 6  87598911.671 9  21392551.19947
  21002647.680 6  21002661.828 9 110369659.679 6  86002523.347 9  21002661.02349
  21434967.742 6                 112641509.568 6  87772634.53447  21434975.80547
  22886356.430 5  22886373.070 8 120268587.851 5  93715620.396 8  22886372.39547
  20015046.852 7  20015057.090 9 105179773.894 7  81958304.371 9  20015056.69949
 23 03 10 03 04 42.0000000  0  5G04G08G16G26G27                     
  21392522.961 6  21392533.855 9 112418460.520 6  87598839.547 9  21392533.51247
  21002325.055 6  21002339.324 9 110367964.976 6  86001202.805 9  21002338.57849
  21435244.828 6                 112642966.074 6  87773769.46647  21435252.89547
  22886760.484 5  22886777.426 8 120270711.897 5  93717275.494 8  22886776.74647
  20015134.930 7  20015145.570 9 105180238.436 7  81958666.355 9  20015144.98049
 23 03 10 03 04 43.0000000  0  5G04G08G16G26G27                     
  21392506.336 6  21392516.629 9 112418368.732 6  87598768.024 9  21392516.05947
  21002003.023 6  21002017.055 9 110366270.948 6  85999882.783 9  21002016.21549
  21435522.266 6                 112644422.793 6  87774904.56647  21435529.98847
  22887164.656 5  22887181.383 9 120272836.086 5  93718930.686 9  22887180.95347
  20015223.625 7  20015233.934 9 105180703.748 7  81959028.939 9  20015233.66849
 23 03 10 03 04 44.0000000  0  5G04G08G16G26G27                     
  21392488.961 6  21392498.980 9 112418277.765 6  87598697.138 9  21392498.94147
  21001680.789 6  21001695.008 9 110364577.615 6  85998563.306 9  21001694.18449
  21435799.617 6                 112645879.813 6  87776039.89947  21435807.24247
  22887568.766 5  22887585.738 9 120274960.428 5  93720586.015 9  22887585.50047
  20015312.594 7  20015322.828 9 105181169.915 7  81959392.185 9  20015322.22749
 23 03 10 03 04 45.0000000  0  5G04G08G16G26G27                     
  21392471.617 6  21392481.898 9 112418187.387 6  87598626.705 9  21392481.76247
  21001358.359 6  21001372.688 9 110362884.834 6  85997244.253 9  21001371.93849
  21436076.570 6                 112647336.893 6  87777175.29247  21436084.59447
  22887973.055 5  22887989.980 9 120277084.685 5  93722241.270 9  22887989.62147
  20015401.086 7  20015411.469 9 105181636.716 7  81959755.928 9  20015411.04749
 23 03 10 03 04 46.0000000  0  5G04G08G16G26G27                     
  21392454.109 6  21392465.078 9 112418097.817 6  87598556.912 9  21392464.64847
  21001036.609 6  21001050.523 9 110361192.760 6  85995925.759 9  21001049.89849
  21436354.141 6                 112648794.267 6  87778310.90647  21436361.84447
  22888377.414 5  22888394.113 9 120279209.093 5  93723896.640 9  22888393.93447
  20015490.148 7  20015500.746 9 105182104.323 7  81960120.299 9  20015500.15649
 23 03 10 03 04 47.0000000  0  5G04G08G16G26G27                     
  21392437.430 6  21392448.152 9 112418008.923 6  87598487.642 9  21392447.78547
  21000714.625 6  21000728.637 9 110359501.252 6  85994607.704 9  21000728.03549
  21436631.508 6                 112650251.785 6  87779446.63447  21436639.14547
  22888781.734 5  22888798.320 9 120281333.516 5  93725552.019 9  22888798.22347
  20015579.523 7  20015589.723 9 105182572.650 7  81960485.228 9  20015589.23449
 23 03 10 03 04 48.0000000  0  5G04G08G16G26G27                     
  21392421.125 6  21392431.301 9 112417920.846 6  87598419.004 9  21392430.91047
  21000392.922 6  21000406.848 9 110357810.475 6  85993290.216 9  21000406.14849
  21436908.633 6                 112651709.579 6  87780582.57847  21436916.59047
  22889186.031 5  22889202.559 9 120283458.062 5  93727207.511 9  22889202.37947
  20015668.820 7  20015678.984 9 105183041.799 7  81960850.791 9  20015678.47349
 23 03 10 03 04 49.0000000  0  5G04G08G16G26G27                     
  21392404.031 6  21392414.625 9 112417833.425 6  87598350.874 9  21392414.23847
  21000070.766 6  21000085.359 9 110356120.271 6  85991973.183 9  21000084.47749
  21437186.445 6                 112653167.520 6  87781718.63447  21437194.23447
  22889589.883 5  22889606.824 9 120285582.665 5  93728863.034 9  22889606.68847
  20015758.023 7  20015768.188 9 105183511.639 7  81961216.896 9  20015767.92249
 23 03 10 03 04 50.0000000  0  5G04G08G16G26G27                     
  21392387.758 6  21392398.230 9 112417746.830 6  87598283.391 9  21392397.56647
  20999749.320 6  20999763.727 9 110354430.752 6  85990656.670 9  20999763.21549
  21437464.273 6                 112654625.729 6  87782854.89647  21437471.53947
  22889994.266 5  22890011.070 9 120287707.377 5  93730518.650 9  22890010.96547
  20015847.406 7  20015858.074 9 105183982.322 7  81961583.667 9  20015857.50849
 23 03 10 03 04 51.0000000  0  5G04G08G16G26G27                     
  21392371.250 6  21392381.785 9 112417660.841 6  87598216.385 9  21392381.25447
  20999428.133 6  20999442.590 9 110352741.777 6  85989340.583 9  20999441.70349
  21437741.367 6                 112656084.052 6  87783991.25147  21437749.15647
  22890398.539 5  22890415.621 9 120289832.053 5  93732174.237 9  22890415.36747
  20015937.172 7  20015947.758 9 105184453.639 7  81961950.921 9  20015947.15249
 23 03 10 03 04 52.0000000  0  5G04G08G16G26G27                     
  21392354.938 6  21392365.410 9 112417575.541 6  87598149.914 9  21392365.03947
  20999107.539 6  20999121.426 9 110351053.384 6  85988024.957 9  20999120.39549
  21438019.117 6                 112657542.510 6  87785127.71547  21438026.60547
  22890803.078 5  22890819.980 9 120291956.762 5  93733829.847 9  22890819.67247
  20016027.109 7  20016037.355 9 105184925.670 7  81962318.740 9  20016037.02349
 23 03 10 03 04 53.0000000  0  5G04G08G16G26G27                     
  21392338.617 6  21392349.328 9 112417491.012 6  87598084.042 9  21392349.16847
  20998786.008 6  20998799.883 9 110349365.668 6  85986709.860 9  20998799.25449
  21438296.414 6                 112659001.256 6  87786264.39647  21438304.19147
  22891207.563 5  22891224.055 8 120294081.560 5  93735485.521 8  22891224.14547
  20016117.070 7  20016127.336 9 105185398.515 7  81962687.194 9  20016127.07049
 23 03 10 03 04 54.0000000  0  5G04G08G16G26G27                     
  21392322.930 6  21392333.352 9 112417407.227 6  87598018.750 9  21392333.30547
  20998464.750 6  20998479.008 9 110347678.595 6  85985395.264 9  20998478.35949
  21438573.953 6                 112660460.198 6  87787401.22847  21438581.86347
  22891612.141 5  22891628.707 8 120296206.479 5  93737141.294 8  22891628.53147
  20016207.211 7  20016217.629 9 105185872.124 7  81963056.235 9  20016217.23849
 23 03 10 03 04 55.0000000  0  5G04G08G16G26G27                     
  21392307.133 6  21392317.430 9 112417324.038 6  87597953.920 9  21392317.40247
  20998143.781 6  20998157.949 9 110345992.020 6  85984081.046 9  20998157.32849
  21438851.344 6                 112661919.228 6  87788538.14047  21438859.43847
  22892016.547 5  22892032.949 9 120298331.282 5  93738796.980 9  22892032.87547
  20016297.102 7  20016307.797 9 105186346.346 7  81963425.762 9  20016307.54349
 23 03 10 03 04 56.0000000  0  5G04G08G16G26G27                     
  21392291.500 6  21392301.980 9 112417241.520 6  87597889.625 9  21392301.82847
  20997823.070 6  20997837.238 9 110344306.024 6  85982767.283 9  20997836.60949
  21439129.430 6                 112663378.398 6  87789675.14747  21439137.19547
  22892420.828 5  22892437.191 9 120300456.137 5  93740452.701 9  22892437.15647
  20016387.539 7  20016398.281 9 105186821.276 7  81963795.832 9  20016397.89549
 23 03 10 03 04 57.0000000  0  5G04G08G16G26G27                     
  21392275.602 6  21392286.602 9 112417159.916 6  87597826.025 9  21392286.22347
  20997502.086 6  20997516.484 9 110342620.843 6  85981454.153 9  20997515.78149
  21439406.984 6                 112664837.914 6  87790812.43447  21439415.00847
  22892825.117 5  22892841.691 9 120302581.217 5  93742108.599 9  22892841.54747
  20016478.016 7  20016488.844 9 105187297.121 7  81964166.617 9  20016488.59849
 23 03 10 03 04 58.0000000  0  5G04G08G16G26G27                     
  21392260.633 6  21392270.930 9 112417078.911 6  87597762.901 9  21392270.88347
  20997181.398 6  20997195.934 9 110340936.167 6  85980141.427 9  20997195.32049
  21439684.680 6                 112666297.533 6  87791949.80047  21439692.74647
  22893229.313 5  22893246.188 9 120304706.242 5  93743764.452 9  22893246.11747
  20016569.016 7  20016579.707 9 105187773.601 7  81964537.902 9  20016579.25049
 23 03 10 03 04 59.0000000  0  5G04G08G16G26G27                     
  21392244.703 6  21392255.629 9 112416998.649 6  87597700.358 9  21392255.78547
  20996860.969 6  20996875.434 9 110339252.169 6  85978829.221 9  20996874.77349
  21439962.828 6                 112667757.396 6  87793087.35147  21439970.48047
  22893634.086 5  22893650.508 9 120306831.377 5  93745420.389 9  22893650.46947
  20016659.461 7  20016670.324 9 105188250.849 7  81964909.783 9  20016670.26649
 23 03 10 03 05 00.0000000  0  5G04G08G16G26G27                     
  21392230.375 6  21392240.664 9 112416919.216 6  87597638.456 9  21392240.64847
  20996541.094 6  20996555.043 9 110337568.872 6  85977517.566 9  20996554.42649
  21440240.180 6                 112669217.545 6  87794225.12147  21440248.42647
  22894038.820 5  22894054.875 9 120308956.650 5  93747076.440 9  22894054.97747
  20016750.484 7  20016761.496 9 105188728.966 7  81965282.341 9  20016761.23849
 23 03 10 03 05 01.0000000  0  5G04G08G16G26G27                     
  21392215.188 6  21392225.699 9 112416840.430 6  87597577.066 9  21392225.49247
  20996220.703 6  20996235.141 9 110335886.141 6  85976206.352 9  20996234.38349
  21440518.352 6                 112670677.805 6  87795362.97947  21440526.48047
  22894442.625 5  22894459.590 9 120311081.895 5  93748732.470 9  22894459.29747
  20016841.727 7  20016852.496 9 105189207.733 7  81965655.407 9  20016852.33649
 23 03 10 03 05 02.0000000  0  5G04G08G16G26G27                     
  21392200.625 6  21392210.789 9 112416762.196 6  87597516.097 9  21392210.57847
  20995900.188 6  20995914.961 9 110334203.864 6  85974895.487 9  20995914.18049
  21440796.109 6                 112672138.101 6  87796500.86847  21440804.28547
  22894847.633 5  22894863.793 9 120313207.077 5  93750388.449 9  22894863.68447
  20016932.867 7  20016943.566 9 105189687.104 7  81966028.941 9  20016943.54349
 23 03 10 03 05 03.0000000  0  5G04G08G16G26G27                     
  21392185.813 6  21392196.152 9 112416684.839 6  87597455.817 9  21392195.82047
  20995580.438 6  20995594.898 9 110332522.362 6  85973585.226 9  20995594.21149
  21441074.070 6                 112673598.710 6  87797639.00847  21441082.24247
  22895251.609 5  22895268.430 9 120315332.405 5  93752044.540 9  22895268.18447
  20017024.508 7  20017034.887 9 105190167.338 7  81966403.147 9  20017034.90649
 23 03 10 03 05 04.0000000  0  5G04G08G16G26G27                     
  21392170.977 6  21392181.707 9 112416608.155 6  87597396.063 9  21392181.42247
  20995260.945 6  20995274.723 9 110330841.472 6  85972275.449 9  20995274.28949
  21441352.086 6                 112675059.499 6  87798777.28447  21441360.18047
  22895656.148 5  22895672.922 9 120317457.781 5  93753700.671 9  22895672.65247
  20017116.273 7  20017126.512 9 105190648.287 7  81966777.918 9  20017126.50049
 23 03 10 03 05 05.0000000  0  5G04G08G16G26G27                     
  21392156.539 6  21392167.379 9 112416532.253 6  87597336.909 9  21392166.97747
  20994941.219 6  20994955.375 9 110329161.281 6  85970966.217 9  20994954.61349
  21441630.250 6                 112676520.532 6  87799915.74647  21441638.27047
  22896060.500 5  22896077.309 8 120319583.304 5  93755356.911 8  22896076.95747
  20017207.422 7  20017218.316 9 105191130.063 7  81967153.329 9  20017218.28549
 23 03 10 03 05 06.0000000  0  5G04G08G16G26G27                     
  21392142.297 6  21392153.023 9 112416456.999 6  87597278.264 9  21392152.69947
  20994621.414 6  20994635.469 9 110327481.629 6  85969657.401 9  20994634.91049
  21441907.891 6                 112677981.700 6  87801054.31847  21441916.44147
  22896465.250 5  22896481.578 8 120321708.780 5  93757013.116 8  22896481.53947
  20017299.547 7  20017309.949 9 105191612.475 7  81967529.233 9  20017310.00849
 23 03 10 03 05 07.0000000  0  5G04G08G16G26G27                     
  21392128.391 6  21392138.641 9 112416382.526 6  87597220.228 9  21392138.52047
  20994301.742 6  20994316.160 9 110325802.667 6  85968349.121 9  20994315.49649
  21442186.492 6                 112679443.106 6  87802193.07047  21442194.61347
  22896869.352 5  22896886.152 9 120323834.378 5  93758669.419 9  22896885.95347
  20017391.313 7  20017402.059 9 105192095.727 7  81967905.787 9  20017402.02749
 23 03 10 03 05 08.0000000  0  5G04G08G16G26G27                     
  21392114.070 6  21392124.617 9 112416308.687 6  87597162.684 9  21392124.63747
  20993982.359 6  20993996.734 9 110324124.235 6  85967041.252 9  20993996.00049
  21442464.211 5                 112680904.626 5  87803331.92047  21442472.65647
  22897274.156 5  22897290.563 9 120325959.961 5  93760325.711 9  22897290.47347
  20017483.516 7  20017493.902 9 105192579.634 7  81968282.859 9  20017494.12549
 23 03 10 03 05 09.0000000  0  5G04G08G16G26G27                     
  21392099.773 6  21392110.832 9 112416235.540 6  87597105.684 9  21392110.71147
  20993663.164 6  20993677.418 9 110322446.443 6  85965733.881 9  20993676.61749
  21442742.047 5                 112682366.307 5  87804470.88847  21442750.78947
  22897678.898 5  22897695.234 9 120328085.564 5  93761982.018 9  22897695.04347
  20017575.742 7  20017586.125 9 105193064.257 7  81968660.484 9  20017586.29749
 23 03 10 03 05 10.0000000  0  5G04G08G16G26G27                     
  21392085.992 6  21392096.910 9 112416163.052 6  87597049.199 9  21392096.81347
  20993343.883 6  20993358.129 9 110320769.167 6  85964426.914 9  20993357.43049
  21443020.891 6                 112683828.111 6  87805609.95547  21443028.90247
  22898082.938 5  22898099.742 9 120330211.150 5  93763638.312 9  22898099.65647
  20017668.070 7  20017678.523 9 105193549.543 7  81969038.631 9  20017678.64149
 23 03 10 03 05 11.0000000  0  5G04G08G16G26G27                     
  21392072.570 6  21392083.328 9 112416091.193 6  87596993.196 9  21392083.04747
  20993024.508 6  20993039.234 9 110319092.411 6  85963120.355 9  20993038.26249
  21443298.734 6                 112685290.023 6  87806749.10247  21443307.16047
  22898487.695 5  22898504.102 9 120332336.736 5  93765294.581 9  22898504.18447
  20017760.781 7  20017770.930 9 105194035.491 7  81969417.292 9  20017771.12149
 23 03 10 03 05 12.0000000  0  5G04G08G16G26G27                     
  21392059.023 6  21392069.633 9 112416020.150 6  87596937.829 9  21392069.56647
  20992705.695 6  20992720.039 9 110317416.408 6  85961814.379 9  20992719.33249
  21443576.961 6                 112686752.243 6  87807888.48747  21443585.34047
  22898892.305 5  22898908.828 9 120334462.454 5  93766950.979 9  22898908.82447
  20017853.078 7  20017863.758 9 105194522.298 7  81969796.623 9  20017863.72349
 23 03 10 03 05 13.0000000  0  5G04G08G16G26G27                     
  21392045.641 6  21392056.219 9 112415949.887 6  87596883.078 9  21392056.16447
  20992386.664 6  20992401.270 9 110315741.098 6  85960508.938 9  20992400.68449
  21443855.547 6                 112688214.714 6  87809028.07347  21443863.67647
  22899296.391 5  22899313.215 9 120336588.295 5  93768607.469 9  22899313.39847
  20017946.109 7  20017956.461 9 105195009.887 7  81970176.559 9  20017956.66049
 23 03 10 03 05 14.0000000  0  5G04G08G16G26G27                     
  21392032.688 6  21392043.125 9 112415880.392 6  87596828.925 9  21392042.97347
  20992068.070 6  20992082.949 9 110314066.443 6  85959204.012 9  20992081.99649
  21444133.797 6                 112689677.396 6  87810167.81847  21444142.14147
  22899701.055 5  22899717.664 9 120338714.261 5  93770264.054 9  22899717.95347
  20018038.719 7  20018049.406 9 105195498.279 7  81970557.126 9  20018049.47749
 23 03 10 03 05 15.0000000  0  5G04G08G16G26G27                     
  21392019.453 6  21392029.867 9 112415811.470 6  87596775.218 9  21392029.77347
  20991749.758 6  20991764.383 9 110312392.288 6  85957899.487 9  20991763.40649
  21444412.508 6                 112691140.166 6  87811307.64247  21444420.42247
  22900105.305 5  22900122.625 9 120340840.127 5  93771920.558 9  22900122.47347
  20018131.992 7  20018142.359 9 105195987.282 7  81970938.163 9  20018142.59449
 23 03 10 03 05 16.0000000  0  5G04G08G16G26G27                     
  21392006.375 6  21392016.988 9 112415743.346 6  87596722.123 9  21392016.85247
  20991431.148 6  20991445.914 9 110310718.781 6  85956595.455 9  20991444.95749
  21444690.000 6                 112692603.165 6  87812447.63147  21444698.91447
  22900510.836 5  22900526.949 9 120342966.115 5  93773577.162 9  22900526.88747
  20018225.031 7  20018235.801 9 105196477.076 7  81971319.826 9  20018235.72349
 23 03 10 03 05 17.0000000  0  5G04G08G16G26G27                     
  21391993.664 6  21392003.984 9 112415675.788 6  87596669.482 9  21392003.93047
  20991113.086 6  20991127.480 9 110309045.765 6  85955291.810 9  20991126.46949
  21444968.602 6                 112694066.198 6  87813587.65047  21444977.34447
  22900914.977 5  22900931.594 9 120345092.016 5  93775233.696 9  22900931.59447
  20018318.648 7  20018329.008 9 105196967.473 7  81971701.951 9  20018329.05549
 23 03 10 03 05 18.0000000  0  5G04G08G16G26G27                     
  21391981.117 6  21391991.371 9 112415608.960 6  87596617.400 9  21391991.32847
  20990795.133 6  20990808.918 9 110307373.361 6  85953988.642 9  20990808.25049
  21445247.273 6                 112695529.460 6  87814727.85547  21445255.61347
  22901319.063 5  22901336.293 8 120347217.979 5  93776890.279 8  22901336.27747
  20018412.258 7  20018422.469 9 105197458.646 7  81972084.681 9  20018422.46549
 23 03 10 03 05 19.0000000  0  5G04G08G16G26G27                     
  21391968.477 6  21391978.676 9 112415543.014 6  87596566.018 9  21391978.77747
  20990476.688 6  20990490.980 9 110305701.762 6  85952686.101 9  20990490.03949
  21445526.211 6                 112696993.064 6  87815868.31447  21445534.16047
  22901724.188 5  22901741.074 8 120349344.165 5  93778547.036 8  22901741.06647
  20018505.609 7  20018515.840 9 105197950.710 7  81972468.108 9  20018516.11749
 23 03 10 03 05 20.0000000  0  5G04G08G16G26G27                     
  21391956.023 6  21391966.441 9 112415477.688 6  87596515.104 9  21391966.39147
  20990158.453 6  20990172.977 9 110304030.653 6  85951383.938 9  20990172.11749
  21445804.219 6                 112698456.756 6  87817008.85447  21445812.67247
  22902128.883 5  22902145.355 9 120351470.320 5  93780203.763 9  22902145.60247
  20018599.656 7  20018609.703 9 105198443.403 7  81972852.022 9  20018609.91449
 23 03 10 03 05 21.0000000  0  5G04G08G16G26G27                     
  21391943.602 6  21391954.008 9 112415413.260 6  87596464.899 9  21391954.08647
  20989840.516 6  20989855.289 9 110302360.379 6  85950082.423 9  20989854.15649
  21446083.023 6                 112699920.846 6  87818149.70748  21446091.33248
  22902533.453 5  22902549.891 9 120353596.674 5  93781860.655 9  22902550.14547
  20018693.133 7  20018703.551 9 105198937.035 7  81973236.667 9  20018703.77749
 23 03 10 03 05 22.0000000  0  5G04G08G16G26G27                     
  21092139.148 6  21092149.645 9 110839929.477 6  86368815.189 9  21092149.55147
  20689729.938 6  20689744.676 9 108725269.032 6  84721180.077 9  20689743.91449
  21146569.531 6                 111125966.549 6  86591691.80647  21146577.75047
  22603145.227 5  22603162.301 9 118780305.252 5  92555919.275 9  22603162.58647
  19718994.805 7  19719005.242 9 103624011.890 7  80746022.270 9  19719005.40649
 23 03 10 03 05 23.0000000  0  5G04G08G16G26G27                     
  21092126.828 6  21092137.809 9 110839866.479 6  86368766.103 9  21092137.60547
  20689412.742 6  20689427.059 9 108723599.981 6  84719879.525 9  20689426.15249
  21146848.102 6                 111127430.981 6  86592832.92148  21146856.44948
  22603550.188 5  22603567.000 9 118782431.728 5  92557576.254 9  22603567.33247
  19719089.305 7  19719099.344 9 103624506.998 7  80746408.069 9  19719099.69549
 23 03 10 03 05 24.0000000  0  5G04G08G16G26G27                     
  21092115.039 6  21092125.938 9 110839804.227 6  86368717.590 9  21092125.91047
  20689094.930 6  20689109.438 9 108721931.623 6  84718579.509 9  20689108.75449
  21147126.375 6                 111128895.651 6  86593974.22247  21147135.04347
  22603955.031 5  22603972.000 9 118784558.266 5  92559233.286 9  22603972.07047
  19719183.625 7  19719193.887 9 103625002.871 7  80746794.464 9  19719194.13749
 23 03 10 03 05 25.0000000  0  5G04G08G16G26G27                     
  21092103.664 6  21092114.078 9 110839742.607 6  86368669.569 9  21092114.11747
  20688777.516 6  20688792.305 9 108720263.794 6  84717279.902 9  20688791.42249
  21147405.211 6                 111130360.411 6  86595115.58248  21147413.83648
  22604360.195 5  22604376.355 9 118786684.815 5  92560890.331 9  22604376.66047
  19719277.898 7  19719288.359 9 103625499.414 7  80747181.372 9  19719288.56349
 23 03 10 03 05 26.0000000  0  5G04G08G16G26G27                     
  21092092.219 6  21092102.355 9 110839681.727 6  86368622.122 9  21092102.50447
  20688460.547 6  20688474.727 9 108718596.576 6  84715980.773 9  20688474.01249
  21147684.180 6                 111131825.372 6  86596257.10547  21147692.69547
  22604764.508 5  22604781.148 9 118788811.424 5  92562547.411 9  22604781.06647
  19719372.336 7  19719383.055 9 103625996.711 7  80747568.876 9  19719383.10949
 23 03 10 03 05 27.0000000  0  5G04G08G16G26G27                     
  21092080.211 6  21092091.332 9 110839621.589 6  86368575.262 9  21092091.17247
  20688143.156 6  20688157.758 9 108716930.051 6  84714682.181 9  20688157.03549
  21147962.820 6                 111133290.564 6  86597398.83047  21147971.48447
  22605169.789 5  22605186.227 9 118790938.123 5  92564204.572 9  22605185.81347
  19719467.172 7  19719477.883 9 103626494.775 7  80747956.978 9  19719477.93049
 23 03 10 03 05 28.0000000  0  5G04G08G16G26G27                     
  21092069.313 6  21092080.031 9 110839562.169 6  86368528.955 9  21092079.78147
  20687826.109 6  20687840.871 9 108715264.137 6  84713384.071 9  20687839.91849
  21148242.086 6                 111134755.936 6  86598540.66047  21148250.35947
  22605573.508 4  22605590.852 8 118793064.864 4  92565861.759 8  22605590.73847
  19719562.016 7  19719572.695 9 103626993.579 7  80748345.653 9  19719572.78949
 23 03 10 03 05 29.0000000  0  5G04G08G16G26G27                     
  21092058.227 6  21092068.699 9 110839503.344 6  86368483.116 9  21092068.45747
  20687509.438 6  20687523.766 9 108713598.714 6  84712086.336 9  20687522.94949
  21148520.758 6                 111136221.395 6  86599682.57147  21148529.35247
  22605978.797 4  22605995.664 8 118795191.571 4  92567518.923 8  22605995.42247
  19719657.063 7  19719667.641 9 103627492.992 7  80748734.806 9  19719667.81649
 23 03 10 03 05 30.0000000  0  5G04G08G16G26G27                     
  21092046.984 6  21092057.652 9 110839445.301 6  86368437.882 9  21092057.65647
  20687192.438 6  20687207.148 9 108711933.984 6  84710789.144 9  20687206.22349
  21148799.320 6                 111137687.071 6  86600824.65547  21148808.39147
  22606382.883 5  22606400.113 8 118797318.377 5  92569176.164 8  22606400.19147
  19719752.484 7  19719762.625 9 103627993.216 7  80749124.590 9  19719762.86349
 23 03 10 03 05 31.0000000  0  5G04G08G16G26G27                     
  21092036.563 6  21092046.891 9 110839388.077 6  86368393.287 9  21092046.95347
  20686875.555 6  20686890.527 9 108710269.984 6  84709492.524 9  20686889.59049
  21149078.852 6                 111139153.061 6  86601966.99147  21149087.33247
  22606788.344 5  22606804.922 9 118799445.327 5  92570833.517 9  22606804.98447
  19719847.961 7  19719858.438 9 103628494.284 7  80749515.037 9  19719858.49649
 23 03 10 03 05 32.0000000  0  5G04G08G16G26G27                     
  21092024.953 6  21092035.875 9 110839331.509 6  86368349.200 9  21092036.05147
  20686559.500 6  20686573.906 9 108708606.514 6  84708196.323 9  20686573.07049
  21149357.719 6                 111140619.168 6  86603109.40847  21149366.37947
  22607192.109 4  22607209.594 9 118801572.278 4  92572490.867 9  22607209.50447
  19719943.547 7  19719953.852 9 103628996.021 7  80749905.999 9  19719953.80149
 23 03 10 03 05 33.0000000  0  5G04G08G16G26G27                     
  21092015.039 6  21092025.203 9 110839275.725 6  86368305.739 9  21092025.41447
  20686243.469 6  20686257.508 9 108706943.796 6  84706900.695 9  20686256.71949
  21149636.594 6                 111142085.552 6  86604252.04348  21149645.30548
  22607597.211 4  22607614.656 9 118803699.350 4  92574148.319 9  22607614.35247
  19720038.984 7  19720049.270 9 103629498.595 7  80750297.618 9  19720049.25849
 23 03 10 03 05 34.0000000  0  5G04G08G16G26G27                     
  21092004.633 6  21092014.793 9 110839220.677 6  86368262.837 9  21092014.84447
  20685926.680 6  20685941.422 9 108705281.688 6  84705605.545 9  20685940.34849
  21149915.719 6                 111143552.137 6  86605394.83347  21149924.36347
  22608002.773 4  22608019.563 9 118805826.523 4  92575805.844 9  22608019.09847
  19720134.602 7  19720145.234 9 103630001.910 7  80750689.809 9  19720144.99649
 23 03 10 03 05 35.0000000  0  5G04G08G16G26G27                     
  21091994.133 6  21092004.570 9 110839166.530 6  86368220.642 9  21092004.55947
  20685611.148 6  20685625.121 9 108703620.371 6  84704311.020 9  20685624.18049
  21150195.516 6                 111145019.071 6  86606537.89947  21150203.56647
  22608406.891 4  22608424.094 9 118807953.898 4  92577463.524 9  22608423.91447
  19720230.609 7  19720240.969 9 103630506.144 7  80751082.716 9  19720240.98049
 23 03 10 03 05 36.0000000  0  5G04G08G16G26G27                     
  21091984.102 6  21091994.559 9 110839112.974 6  86368178.909 9  21091994.35948
  20685294.859 6  20685309.176 9 108701959.553 6  84703016.875 9  20685308.19949
  21150474.438 6                 111146486.104 6  86607681.04147  21150482.68047
  22608811.977 5  22608828.844 9 118810081.233 5  92579121.175 9  22608828.57047
  19720326.711 7  19720337.125 9 103631011.010 7  80751476.114 9  19720337.11749
 23 03 10 03 05 37.0000000  0  5G04G08G16G26G27                     
  21091973.711 6  21091984.324 9 110839060.012 6  86368137.630 9  21091984.28147
  20684978.852 6  20684993.219 9 108700299.271 6  84701723.147 9  20684992.16049
  21150753.156 6                 111147953.173 6  86608824.20447  21150761.82447
  22609216.633 5  22609233.523 9 118812208.479 5  92580778.762 9  22609233.16847
  19720423.078 7  19720433.105 9 103631516.496 7  80751869.998 9  19720433.14549
 23 03 10 03 05 38.0000000  0  5G04G08G16G26G27                     
  21091964.289 6  21091974.609 9 110839008.012 6  86368097.111 9  21091974.48847
  20684662.797 6  20684677.266 9 108698639.794 6  84700430.053 9  20684676.45749
  21151032.773 6                 111149420.682 6  86609967.71048  21151041.35248
  22609621.680 5  22609638.906 9 118814336.021 5  92582436.571 9  22609637.88347
  19720519.219 7  19720529.672 9 103632022.943 7  80752264.633 9  19720529.59449
 23 03 10 03 05 39.0000000  0  5G04G08G16G26G27                     
  21091953.984 6  21091964.617 9 110838956.629 6  86368057.063 9  21091964.61747
  20684347.320 6  20684361.527 9 108696980.861 6  84699137.391 9  20684360.59849
  21151311.984 6                 111150888.243 6  86611111.26847  21151320.70747
  22610026.141 5  22610043.672 9 118816463.500 5  92584094.337 9  22610042.77347
  19720615.758 7  19720626.168 9 103632530.030 7  80752659.767 9  19720625.95349
 23 03 10 03 05 40.0000000  0  5G04G08G16G26G27                     
  21091944.539 6  21091955.008 9 110838905.940 6  86368017.564 9  21091954.83647
  20684031.750 6  20684046.035 9 108695322.576 6  84697845.212 9  20684045.14149
  21151591.273 6                 111152356.036 6  86612255.00547  21151599.87547
  22610431.305 5  22610448.441 8 118818591.068 5  92585752.169 8  22610447.65647
  19720712.516 7  19720722.910 9 103633037.863 7  80753055.483 9  19720722.66049
 23 03 10 03 05 41.0000000  0  5G04G08G16G26G27                     
  21091934.750 6  21091945.602 9 110838856.071 6  86367978.707 9  21091945.54747
  20683715.969 6  20683730.602 9 108693665.021 6  84696553.615 9  20683729.58649
  21151870.867 6                 111153824.097 6  86613398.93647  21151879.10247
  22610836.484 5  22610853.203 8 118820718.739 5  92587410.083 8  22610852.48847
  19720809.203 7  19720819.488 9 103633546.505 7  80753451.824 9  19720819.33649
 23 03 10 03 05 42.0000000  0  5G04G08G16G26G27                     
  21091925.828 6  21091936.191 9 110838806.842 6  86367940.342 9  21091936.05147
  20683400.836 6  20683415.219 9 108692007.988 6  84695262.421 9  20683414.30949
  21152149.922 6                 111155292.260 6  86614542.94747  21152158.33247
  22611241.078 5  22611258.059 8 118822846.407 5  92589068.005 8  22611257.37147
  19720906.086 7  19720916.305 9 103634055.852 7  80753848.710 9  19720916.22749
 23 03 10 03 05 43.0000000  0  5G04G08G16G26G27                     
  21091916.227 6  21091926.875 9 110838758.209 6  86367902.438 9  21091926.87547
  20683085.680 6  20683099.988 9 108690351.477 6  84693971.629 9  20683099.12549
  21152429.602 6                 111156760.478 6  86615687.01347  21152437.59847
  22611646.227 5  22611663.117 8 118824974.025 5  92590725.879 8  22611662.33647
  19721003.414 7  19721013.508 9 103634565.784 7  80754246.057 9  19721013.21949
 23 03 10 03 05 44.0000000  0  5G04G08G16G26G27                     
  21091907.180 6  21091917.953 9 110838710.366 6  86367865.153 9  21091917.60247
  20682770.664 6  20682785.145 9 108688695.665 6  84692681.396 9  20682783.96149
  21152708.633 6                 111158228.978 6  86616831.30147  21152717.00047
  22612050.578 5  22612068.242 8 118827101.756 5  92592383.838 8  22612067.27747
  19721100.578 7  19721110.645 9 103635076.545 7  80754644.053 9  19721110.40249
 23 03 10 03 05 45.0000000  0  5G04G08G16G26G27                     
  21091898.258 6  21091908.965 9 110838663.261 6  86367828.442 9  21091908.55547
  20682455.883 6  20682470.168 9 108687040.479 6  84691391.631 9  20682469.07049
  21152988.219 6                 111159697.678 6  86617975.73847  21152996.60247
  22612455.547 5  22612472.918 9 118829229.550 5  92594041.844 9  22612472.23047
  19721197.500 7  19721207.781 9 103635588.059 7  80755042.630 9  19721207.72749
 23 03 10 03 05 46.0000000  0  5G04G08G16G26G27                     
  21091889.664 6  21091899.941 9 110838616.894 6  86367792.313 9  21091899.67247
  20682140.844 6  20682155.289 9 108685385.965 6  84690102.403 9  20682154.15649
  21153267.539 6                 111161166.588 6  86619120.34747  21153276.18047
  22612860.352 5  22612877.688 8 118831357.464 5  92595699.954 8  22612877.14547
  19721294.875 7  19721305.480 9 103636100.338 7  80755441.809 9  19721305.27049
 23 03 10 03 05 47.0000000  0  5G04G08G16G26G27                     
  21091880.313 6  21091891.410 9 110838571.211 6  86367756.704 9  21091890.99647
  20681826.383 6  20681840.703 9 108683732.009 6  84688813.608 9  20681839.51249
  21153546.867 6                 111162635.661 6  86620265.07447  21153555.84047
  22613265.922 5  22613282.402 9 118833485.353 5  92597358.044 9  22613282.03947
  19721392.594 7  19721403.164 9 103636613.325 7  80755841.540 9  19721402.84049
 23 03 10 03 05 48.0000000  0  5G04G08G16G26G27                     
  21091871.898 6  21091882.750 9 110838526.296 6  86367721.706 9  21091882.44148
  20681511.508 6  20681525.949 9 108682078.730 6  84687525.342 9  20681524.85549
  21153826.938 6                 111164104.951 6  86621409.97447  21153835.41447
  22613671.211 5  22613687.363 9 118835613.371 5  92599016.227 9  22613687.10947
  19721490.734 7  19721501.020 9 103637127.111 7  80756241.892 9  19721500.55549
 23 03 10 03 05 49.0000000  0  5G04G08G16G26G27                     
  21091863.820 6  21091874.266 9 110838482.111 6  86367687.268 9  21091874.00848
  20681197.023 6  20681211.363 9 108680426.078 6  84686237.566 9  20681210.52349
  21154106.891 6                 111165574.480 6  86622555.05347  21154115.00447
  22614075.602 5  22614092.496 9 118837741.454 5  92600674.456 9  22614092.14847
  19721588.438 7  19721598.957 9 103637641.640 7  80756642.820 9  19721598.35949
 23 03 10 03 05 50.0000000  0  5G04G08G16G26G27                     
  21091855.594 6  21091866.199 9 110838438.545 6  86367653.320 9  21091865.57848
  20680882.672 6  20680896.988 9 108678773.970 6  84684950.209 9  20680896.03949
  21154386.039 6                 111167044.090 6  86623700.20448  21154394.69548
  22614481.000 5  22614497.527 9 118839869.504 5  92602332.673 9  22614497.25847
  19721686.602 7  19721696.906 9 103638156.804 7  80757044.244 9  19721696.35549
 23 03 10 03 05 51.0000000  0  5G04G08G16G26G27                     
  21091847.516 6  21091858.055 9 110838395.865 6  86367620.059 9  21091857.44547
  20680568.820 6  20680582.504 9 108677122.651 6  84683663.471 9  20680581.93449
  21154665.414 6                 111168514.057 6  86624845.62547  21154674.39147
  22614885.898 5  22614902.414 9 118841997.733 5  92603991.020 9  22614902.21947
  19721784.641 7  19721795.363 9 103638672.886 7  80757446.390 9  19721794.69949
 23 03 10 03 05 52.0000000  0  5G04G08G16G26G27                     
  21091839.344 6  21091850.117 9 110838353.662 6  86367587.169 9  21091849.60947
  20680254.203 6  20680268.727 9 108675471.742 6  84682377.052 9  20680267.78949
  21154946.055 6                 111169983.958 6  86625990.99447  21154954.19147
  22615290.547 5  22615307.227 8 118844125.812 5  92605649.257 8  22615307.08647
  19721883.148 7  19721893.387 9 103639189.463 7  80757848.915 9  19721892.91449
 23 03 10 03 05 53.0000000  0  5G04G08G16G26G27                     
  21091831.414 6  21091841.945 9 110838312.257 6  86367554.906 9  21091841.73447
  20679939.922 6  20679954.570 9 108673821.526 6  84681091.169 9  20679953.59049
  21155225.609 6                 111171454.142 6  86627136.59347  21155233.94147
  22615695.250 5  22615712.707 8 118846253.983 5  92607307.559 8  22615712.17647
  19721981.813 7  19721991.844 9 103639706.870 7  80758252.089 9  19721991.36349
 23 03 10 03 05 54.0000000  0  5G04G08G16G26G27                     
  21091823.578 6  21091834.230 9 110838271.411 6  86367523.076 9  21091833.82047
  20679626.336 6  20679640.340 9 108672171.765 6  84679805.652 9  20679639.69949
  21155505.688 6                 111172924.349 6  86628282.20847  21155513.79347
  22616100.391 5  22616117.707 8 118848382.150 5  92608965.852 8  22616117.15646
  19722079.992 7  19722090.344 9 103640224.877 7  80758655.729 9  19722089.95349
 23 03 10 03 05 55.0000000  0  5G04G08G16G26G27                     
  21091815.875 6  21091826.691 9 110838231.330 6  86367491.840 9  21091826.18047
  20679312.617 6  20679326.746 9 108670522.644 6  84678520.619 9  20679325.94149
  21155785.250 6                 111174394.784 6  86629428.00147  21155793.54747
  22616505.375 5  22616522.594 8 118850510.340 5  92610624.174 8  22616522.06347
  19722178.813 7  19722189.074 9 103640743.625 7  80759059.947 9  19722188.62149
 23 03 10 03 05 56.0000000  0  5G04G08G16G26G27                     
  21091808.625 6  21091819.199 9 110838192.005 6  86367461.187 9  21091818.91047
  20678998.891 6  20679013.086 9 108668874.246 6  84677236.160 9  20679012.19949
  21156065.563 6                 111175865.468 6  86630573.98147  21156073.47347
  22616910.852 5  22616927.633 9 118852638.624 5  92612282.569 9  22616927.08647
  19722277.617 7  19722287.875 9 103641263.192 7  80759464.806 9  19722287.60249
 23 03 10 03 05 57.0000000  0  5G04G08G16G26G27                     
  21091800.891 6  21091811.828 9 110838153.467 6  86367431.158 9  21091811.65647
  20678684.844 6  20678699.570 9 108667226.548 6  84675952.237 9  20678698.63349
  21156345.672 6                 111177336.396 6  86631720.16947  21156353.31647
  22617315.664 5  22617332.773 9 118854767.076 5  92613941.090 9  22617332.06647
  19722376.727 7  19722387.207 9 103641783.564 7  80759870.289 9  19722386.59049
 23 03 10 03 05 58.0000000  0  5G04G08G16G26G27                     
  21091794.141 6  21091804.547 9 110838115.697 6  86367401.727 9  21091804.47747
  20678371.922 6  20678386.141 9 108665579.521 6  84674668.844 9  20678385.22749
  21156625.188 6                 111178807.549 6  86632866.51447  21156633.25847
  22617720.492 5  22617737.691 9 118856895.621 5  92615599.680 9  22617737.14147
  19722475.813 7  19722486.324 9 103642304.695 7  80760276.360 9  19722485.75849
 23 03 10 03 05 59.0000000  0  5G04G08G16G26G27                     
  21091786.961 6  21091797.371 9 110838078.598 6  86367372.816 9  21091797.37947
  20678058.102 6  20678072.914 9 108663933.090 6  84673385.911 9  20678072.08249
  21156904.133 6                 111180278.856 6  86634012.98348  21156913.25848
  22618125.852 5  22618142.660 9 118859024.153 5  92617258.267 9  22618142.18447
  19722575.313 7  19722585.625 9 103642826.559 7  80760683.008 9  19722585.08649
 23 03 10 03 06 00.0000000  0  5G04G08G16G26G27                     
  21091780.250 6  21091790.719 9 110838042.281 6  86367344.517 9  21091790.46547
  20677745.289 6  20677759.668 9 108662287.277 6  84672103.464 9  20677758.73849
  21157185.078 6                 111181750.404 6  86635159.64247  21157193.21147
  22618530.547 5  22618547.629 9 118861152.817 5  92618916.955 9  22618547.34847
  19722674.758 7  19722684.984 9 103643349.187 7  80761090.247 9  19722684.60949
 23 03 10 03 06 01.0000000  0  5G04G08G16G26G27                     
  21091773.281 6  21091783.770 9 110838006.672 6  86367316.761 9  21091783.56647
  20677432.203 6  20677446.500 9 108660642.098 6  84670821.508 9  20677445.51649
  21157465.414 6                 111183222.124 6  86636306.43547  21157473.35947
  22618935.797 5  22618952.852 9 118863281.517 5  92620575.667 9  22618952.34047
  19722774.250 7  19722784.449 9 103643872.575 7  80761498.086 9  19722784.22349
 23 03 10 03 06 02.0000000  0  5G04G08G16G26G27                     
  21091766.820 6  21091777.125 9 110837971.807 6  86367289.586 9  21091776.94547
  20677119.227 6  20677133.762 9 108658997.544 6  84669540.044 9  20677132.63749
  21157745.367 6                 111184694.073 6  86637453.39747  21157753.39847
  22619341.063 5  22619357.867 9 118865410.321 5  92622234.470 9  22619357.46547
  19722874.023 7  19722884.211 9 103644396.719 7  80761906.506 9  19722883.85949
 23 03 10 03 06 03.0000000  0  5G04G08G16G26G27                     
  21091760.188 6  21091770.801 9 110837937.800 6  86367263.089 9  21091770.55947
  20676806.656 6  20676820.930 9 108657353.773 6  84668259.184 9  20676819.85549
  21158025.703 6                 111186166.351 6  86638600.62847  21158033.46147
  22619745.984 5  22619763.234 9 118867539.299 5  92623893.400 9  22619762.75847
  19722974.070 7  19722983.992 9 103644921.769 7  80762315.632 9  19722983.74649
 23 03 10 03 06 04.0000000  0  5G04G08G16G26G27                     
  21091753.508 6  21091764.453 9 110837904.427 6  86367237.077 9  21091764.23447
  20676493.758 6  20676508.172 9 108655710.546 6  84666978.755 9  20676507.12549
  21158305.711 5                 111187638.717 5  86639747.92747  21158313.67247
  22620150.438 5  22620168.375 8 118869668.275 5  92625552.333 8  22620167.80147
  19723074.141 7  19723084.227 9 103645447.444 7  80762725.258 9  19723083.76249
 23 03 10 03 06 05.0000000  0  5G04G08G16G26G27                     
  21091747.836 6  21091758.199 9 110837871.842 6  86367211.697 9  21091757.94947
  20676180.703 6  20676195.824 9 108654068.034 6  84665698.878 9  20676194.62149
  21158585.633 5                 111189111.337 5  86640895.41847  21158594.10247
  22620555.930 5  22620573.375 8 118871797.369 5  92627211.350 8  22620572.94147
  19723174.273 7  19723184.207 9 103645973.955 7  80763135.518 9  19723184.07049
 23 03 10 03 06 06.0000000  0  5G04G08G16G26G27                     
  21091741.688 6  21091752.094 9 110837839.915 6  86367186.812 9  21091751.85547
  20675868.820 6  20675883.316 9 108652426.059 6  84664419.418 9  20675882.02049
  21158866.063 6                 111190584.113 6  86642043.03047  21158874.30947
  22620961.250 5  22620978.625 8 118873926.435 5  92628870.358 8  22620978.32447
  19723274.391 7  19723284.781 9 103646501.113 7  80763546.290 9  19723284.33249
 23 03 10 03 06 07.0000000  0  5G04G08G16G26G27                     
  21091735.281 6  21091746.270 9 110837808.574 6  86367162.386 9  21091745.97347
  20675556.688 6  20675570.848 9 108650784.634 6  84663140.391 9  20675569.62149
  21159146.289 5                 111192056.928 5  86643190.67947  21159154.64847
  22621366.211 5  22621383.746 8 118876055.434 5  92630529.306 8  22621383.62947
  19723375.055 7  19723385.098 9 103647028.904 7  80763957.561 9  19723384.94149
 23 03 10 03 06 08.0000000  0  5G04G08G16G26G27                     
  21091729.352 6  21091740.531 9 110837777.942 6  86367138.505 9  21091740.12547
  20675244.430 6  20675258.547 9 108649143.769 6  84661861.795 9  20675257.60249
  21159426.891 6                 111193529.920 6  86644338.46847  21159434.98447
  22621771.563 5  22621788.977 9 118878184.471 5  92632188.288 9  22621788.84047
  19723475.281 7  19723485.508 9 103647557.435 7  80764369.399 9  19723485.35949
 23 03 10 03 06 09.0000000  0  5G04G08G16G26G27                     
  21091723.930 6  21091735.020 9 110837748.055 6  86367115.219 9  21091734.21947
  20674931.891 6  20674946.402 9 108647503.581 6  84660583.728 9  20674945.40649
  21159707.289 6                 111195003.157 6  86645486.43747  21159715.31647
  22622176.516 5  22622194.246 9 118880313.618 5  92633847.350 9  22622193.81347
  19723576.047 7  19723586.500 9 103648086.704 7  80764781.813 9  19723586.27349
 23 03 10 03 06 10.0000000  0  5G04G08G16G26G27                     
  21091718.477 6  21091729.328 9 110837718.921 6  86367092.508 9  21091728.95747
  20674619.594 6  20674634.434 9 108645864.057 6  84659306.176 9  20674633.41049
  21159988.031 6                 111196476.567 6  86646634.54747  21159995.86747
  22622581.719 5  22622599.402 9 118882442.829 5  92635506.458 9  22622599.22347
  19723677.047 7  19723687.625 9 103648616.746 7  80765194.837 9  19723687.02749
 23 03 10 03 06 11.0000000  0  5G04G08G16G26G27                     
  21091713.023 6  21091723.988 9 110837690.419 6  86367070.295 9  21091723.46147
  20674307.953 6  20674322.520 9 108644225.062 6  84658029.040 9  20674321.57449
  21160268.180 5                 111197950.067 5  86647782.72547  21160276.21147
  22622986.992 5  22623004.555 9 118884571.989 5  92637165.539 9  22623004.46147
  19723778.266 7  19723788.328 9 103649147.458 7  80765608.380 9  19723787.94149
